$GNGNS,140020.3,,,,,NN,,,,,,*49

$GPVTG,,T,,M,,N,,K,N*2C

$GPGSA,A,1,,,,,,,,,,,,,,,*1E

$GNGSA,A,1,,,,,,,,,,,,,,,*00

$GPGGA,,,,,,0,,,,,,,,*66

$GPRMC,,V,,,,,,,,,,N*53

$GLGSV,3,1,09,70,42,108,,86,49,298,,77,23,327,,76,35,264,*66

$GLGSV,3,2,09,75,12,216,,69,28,033,,84,07,087,,85,57,060,*61

$GLGSV,3,3,09,71,13,156,*5A

$GPGSV,4,1,13,07,10,298,,08,38,295,,10,54,137,,11,00,268,*7F

$GPGSV,4,2,13,13,04,014,,15,12,043,,16,43,195,,18,12,250,*7E

$GPGSV,4,3,13,20,54,085,,21,33,070,,26,18,180,,27,78,293,*70

$GPGSV,4,4,13,30,07,326,*48

$GNGNS,140021.3,,,,,NN,,,,,,*48

$GPVTG,,T,,M,,N,,K,N*2C

$GPGSA,A,1,,,,,,,,,,,,,,,*1E

$GNGSA,A,1,,,,,,,,,,,,,,,*00

$GPGGA,,,,,,0,,,,,,,,*66

$GPRMC,,V,,,,,,,,,,N*53

$GLGSV,3,1,09,86,49,298,30,70,42,108,,77,23,327,,76,35,264,*65

$GLGSV,3,2,09,75,12,216,,69,28,033,,84,07,087,,85,57,060,*61

$GLGSV,3,3,09,71,13,156,*5A

$GPGSV,4,1,13,07,10,298,,08,38,295,,10,54,137,,11,00,268,*7F

$GPGSV,4,2,13,13,04,014,,15,12,043,,16,43,195,,18,12,250,*7E

$GPGSV,4,3,13,20,54,085,,21,33,070,,26,18,180,,27,78,293,*70

$GPGSV,4,4,13,30,07,326,*48

$GNGNS,140022.3,,,,,NN,,,,,,*4B

$GPVTG,,T,,M,,N,,K,N*2C

$GPGSA,A,1,,,,,,,,,,,,,,,*1E

$GNGSA,A,1,,,,,,,,,,,,,,,*00

$GPGGA,,,,,,0,,,,,,,,*66

$GPRMC,,V,,,,,,,,,,N*53

$GLGSV,3,1,09,86,49,298,30,70,42,108,,77,23,327,,76,35,264,*65

$GLGSV,3,2,09,75,12,216,,69,28,033,,84,07,087,,85,57,060,*61

$GLGSV,3,3,09,71,13,156,*5A

$GPGSV,4,1,13,08,38,295,32,16,43,195,23,20,54,085,26,27,78,293,23*77

$GPGSV,4,2,13,07,10,298,,10,54,137,,11,00,268,,13,04,014,*72

$GPGSV,4,3,13,15,12,043,,18,12,250,,21,33,070,,26,18,180,*71

$GPGSV,4,4,13,30,07,326,*48

$GNGNS,140022.6,,,,,NN,,,,,,*4E

$GPVTG,,T,,M,,N,,K,N*2C

$GPGSA,A,1,,,,,,,,,,,,,,,*1E

$GNGSA,A,1,,,,,,,,,,,,,,,*00

$GPGGA,,,,,,0,,,,,,,,*66

$GPRMC,,V,,,,,,,,,,N*53

$GLGSV,3,1,09,86,49,298,30,70,42,108,,77,23,327,,76,35,264,*65

$GLGSV,3,2,09,75,12,216,,69,28,033,,84,07,087,,85,57,060,*61

$GLGSV,3,3,09,71,13,156,*5A

$GPGSV,4,1,13,08,38,295,32,16,43,195,23,20,54,085,26,27,78,293,23*77

$GPGSV,4,2,13,07,10,298,,10,54,137,,11,00,268,,13,04,014,*72

$GPGSV,4,3,13,15,12,043,,18,12,250,,21,33,070,,26,18,180,*71

$GPGSV,4,4,13,30,07,326,*48

$GNGNS,140023.3,,,,,NN,,,,,,*4A

$GPVTG,,T,,M,,N,,K,N*2C

$GPGSA,A,1,,,,,,,,,,,,,,,*1E

$GNGSA,A,1,,,,,,,,,,,,,,,*00

$GPGGA,,,,,,0,,,,,,,,*66

$GPRMC,,V,,,,,,,,,,N*53

$GLGSV,3,1,09,86,49,298,25,70,42,108,,77,23,327,,76,35,264,*61

$GLGSV,3,2,09,75,12,216,,69,28,033,,84,07,087,,85,57,060,*61

$GLGSV,3,3,09,71,13,156,*5A

$GPGSV,4,1,13,07,10,298,21,08,38,295,29,16,43,195,23,18,12,250,23*7E

$GPGSV,4,2,13,20,54,085,26,26,18,180,20,27,78,293,19,10,54,137,*7E

$GPGSV,4,3,13,11,00,268,,13,04,014,,15,12,043,,21,33,070,*77

$GPGSV,4,4,13,30,07,326,*48

$GPGGA,140024.3,5133.552429,N,00957.750323,E,1,07,1.5,303.2,M,47.0,M,,*5C

$GNGNS,140024.3,5133.552429,N,00957.750323,E,AA,08,1.5,303.2,47.0,,*67

$GPVTG,143.2,T,143.3,M,2.9,N,5.3,K,A*2F

$GPGSA,A,3,07,08,16,18,20,26,27,,,,,,2.4,1.5,1.9*3A

$GNGSA,A,3,07,08,16,18,20,26,27,,,,,,2.4,1.5,1.9*24

$GNGSA,A,3,86,,,,,,,,,,,,2.4,1.5,1.9*28

$GPRMC,140024.3,A,5133.552429,N,00957.750323,E,2.9,143.2,260619,0.1,W,A*11

$PSTIS,*61

$GLGSV,3,1,09,86,49,298,26,70,42,108,,77,23,327,,76,35,264,*62

$GLGSV,3,2,09,75,12,216,,69,28,033,,84,07,087,,85,57,060,*61

$GLGSV,3,3,09,71,13,156,*5A

$GPGSV,4,1,13,07,10,298,19,08,38,295,31,10,54,137,23,16,43,195,23*74

$GPGSV,4,2,13,18,12,250,26,20,54,085,26,26,18,180,19,27,78,293,21*73

$GPGSV,4,3,13,30,07,326,18,11,00,268,,13,04,014,,15,12,043,*79

$GPGSV,4,4,13,21,33,070,*4F

$GPGGA,140025.3,5133.559557,N,00957.761643,E,1,09,1.2,257.7,M,47.0,M,,*53

$GNGNS,140025.3,5133.559557,N,00957.761643,E,AA,10,1.2,257.7,47.0,,*6F

$GPVTG,84.2,T,84.3,M,2.8,N,5.2,K,A*2F

$GPGSA,A,3,07,08,10,16,18,20,26,27,30,,,,1.9,1.2,1.5*3D

$GNGSA,A,3,07,08,10,16,18,20,26,27,30,,,,1.9,1.2,1.5*23

$GNGSA,A,3,86,,,,,,,,,,,,1.9,1.2,1.5*2D

$GPRMC,140025.3,A,5133.559557,N,00957.761643,E,2.8,84.2,260619,0.1,W,A*29

$PSTIS,*61

$GLGSV,3,1,09,86,49,298,20,76,35,264,18,85,57,060,18,70,42,108,*6A

$GLGSV,3,2,09,77,23,327,,75,12,216,,69,28,033,,84,07,087,*6F

$GLGSV,3,3,09,71,13,156,*5A

$GPGSV,4,1,13,07,10,298,18,08,38,295,31,10,54,137,21,16,43,195,23*77

$GPGSV,4,2,13,18,12,250,24,20,54,085,26,26,18,180,19,27,78,293,21*71

$GPGSV,4,3,13,30,07,326,20,11,00,268,,13,04,014,,15,12,043,*72

$GPGSV,4,4,13,21,33,070,*4F

$GPGGA,140026.3,5133.562542,N,00957.768425,E,1,09,1.0,245.4,M,47.0,M,,*55

$GNGNS,140026.3,5133.562542,N,00957.768425,E,AA,12,1.0,245.4,47.0,,*6B

$GPVTG,100.7,T,100.8,M,2.5,N,4.6,K,A*29

$GPGSA,A,3,07,08,10,16,18,20,26,27,30,,,,1.7,1.0,1.4*30

$GNGSA,A,3,07,08,10,16,18,20,26,27,30,,,,1.7,1.0,1.4*2E

$GNGSA,A,3,86,76,85,,,,,,,,,,1.7,1.0,1.4*2C

$GPRMC,140026.3,A,5133.562542,N,00957.768425,E,2.5,100.7,260619,0.1,W,A*18

$PSTIS,*61

$GLGSV,3,1,09,86,49,298,23,77,23,327,17,76,35,264,19,85,57,060,18*61

$GLGSV,3,2,09,70,42,108,,75,12,216,,69,28,033,,84,07,087,*60

$GLGSV,3,3,09,71,13,156,*5A

$GPGSV,4,1,13,07,10,298,18,08,38,295,30,10,54,137,19,16,43,195,17*7A

$GPGSV,4,2,13,18,12,250,26,20,54,085,20,26,18,180,25,27,78,293,25*7E

$GPGSV,4,3,13,30,07,326,21,11,00,268,,13,04,014,,15,12,043,*73

$GPGSV,4,4,13,21,33,070,*4F

$GPGGA,140027.0,5133.572716,N,00957.768632,E,1,09,0.9,246.3,M,47.0,M,,*5D

$GNGNS,140027.0,5133.572716,N,00957.768632,E,AA,13,0.9,246.3,47.0,,*62

$GPVTG,341.5,T,341.6,M,0.4,N,0.8,K,A*2C

$GPGSA,A,2,07,08,10,16,18,20,26,27,30,,,,1.2,0.9,0.8*31

$GNGSA,A,2,07,08,10,16,18,20,26,27,30,,,,1.2,0.9,0.8*2F

$GNGSA,A,2,86,77,76,85,,,,,,,,,1.2,0.9,0.8*2D

$GPRMC,140027.0,A,5133.572716,N,00957.768632,E,0.4,341.5,260619,0.1,W,A*1A

$PSTIS,*61

$GLGSV,3,1,09,86,49,298,20,77,23,327,17,76,35,264,19,85,57,060,19*63

$GLGSV,3,2,09,70,42,108,,75,12,216,,69,28,033,,84,07,087,*60

$GLGSV,3,3,09,71,13,156,*5A

$GPGSV,4,1,13,07,10,298,18,08,38,295,25,10,54,137,23,16,43,195,17*77

$GPGSV,4,2,13,18,12,250,24,20,54,085,25,26,18,180,22,27,78,293,26*7D

$GPGSV,4,3,13,30,07,326,21,11,00,268,,13,04,014,,15,12,043,*73

$GPGSV,4,4,13,21,33,070,*4F

$GPGGA,140028.0,5133.572499,N,00957.764075,E,1,06,1.1,244.8,M,47.0,M,,*50

$GNGNS,140028.0,5133.572499,N,00957.764075,E,AA,10,1.1,244.8,47.0,,*63

$GPVTG,286.4,T,286.5,M,0.0,N,0.0,K,A*22

$GPGSA,A,2,08,10,18,20,26,27,,,,,,,1.4,1.1,0.9*3C

$GNGSA,A,2,08,10,18,20,26,27,,,,,,,1.4,1.1,0.9*22

$GNGSA,A,2,86,77,76,85,,,,,,,,,1.4,1.1,0.9*23

$GPRMC,140028.0,A,5133.572499,N,00957.764075,E,0.0,286.4,260619,0.1,W,A*17

$PSTIS,*61

$GLGSV,3,1,09,86,49,298,21,77,23,327,15,76,35,264,16,75,12,216,13*68

$GLGSV,3,2,09,85,57,060,18,70,42,108,,69,28,033,,84,07,087,*64

$GLGSV,3,3,09,71,13,156,*5A

$GPGSV,4,1,13,07,10,298,18,08,38,295,26,10,54,137,23,16,43,195,20*70

$GPGSV,4,2,13,18,12,250,22,20,54,085,23,26,17,180,24,27,78,293,20*72

$GPGSV,4,3,13,30,07,326,21,11,00,268,,13,04,014,,15,12,043,*73

$GPGSV,4,4,13,21,33,070,*4F

$GPGGA,140029.0,5133.567891,N,00957.762290,E,1,07,0.9,253.8,M,47.0,M,,*50

$GNGNS,140029.0,5133.567891,N,00957.762290,E,AA,12,0.9,253.8,47.0,,*60

$GPVTG,140.5,T,140.6,M,0.5,N,0.9,K,A*2C

$GPGSA,A,2,08,10,16,18,20,26,27,,,,,,1.3,0.9,0.9*35

$GNGSA,A,2,08,10,16,18,20,26,27,,,,,,1.3,0.9,0.9*2B

$GNGSA,A,2,86,77,76,75,85,,,,,,,,1.3,0.9,0.9*2F

$GPRMC,140029.0,A,5133.567891,N,00957.762290,E,0.5,140.5,260619,0.1,W,A*14

$PSTIS,*61

$GNGNS,140031.0,,,,,NN,,,,,,*4A

$GPVTG,,T,,M,,N,,K,N*2C

$GPGSA,A,1,,,,,,,,,,,,,,,*1E

$GNGSA,A,1,,,,,,,,,,,,,,,*00

$GPGGA,,,,,,0,,,,,,,,*66

$GPRMC,,V,,,,,,,,,,N*53

$GLGSV,3,1,09,70,42,108,,86,49,298,,77,23,327,,76,35,264,*66

$GLGSV,3,2,09,75,12,216,,69,28,033,,84,07,087,,85,57,060,*61

$GLGSV,3,3,09,71,13,156,*5A

$GPGSV,4,1,13,07,10,298,,08,38,295,,10,54,137,,11,00,268,*7F

$GPGSV,4,2,13,13,04,014,,15,12,043,,16,43,195,,18,12,250,*7E

$GPGSV,4,3,13,20,54,085,,21,33,070,,26,17,180,,27,78,293,*7F

$GPGSV,4,4,13,30,07,326,*48

$GNGNS,140030.8,,,,,NN,,,,,,*43

$GPVTG,,T,,M,,N,,K,N*2C

$GPGSA,A,1,,,,,,,,,,,,,,,*1E

$GNGSA,A,1,,,,,,,,,,,,,,,*00

$GPGGA,,,,,,0,,,,,,,,*66

$GPRMC,,V,,,,,,,,,,N*53

$GLGSV,3,1,09,70,42,108,,86,49,298,,77,23,327,,76,35,264,*66

$GLGSV,3,2,09,75,12,216,,69,28,033,,84,07,087,,85,57,060,*61

$GLGSV,3,3,09,71,13,156,*5A

$GPGSV,4,1,13,08,38,295,28,20,54,085,24,07,10,298,,10,54,137,*71

$GPGSV,4,2,13,11,00,268,,13,04,014,,15,12,043,,16,43,195,*7F

$GPGSV,4,3,13,18,12,250,,21,33,070,,26,17,180,,27,78,293,*7C

$GPGSV,4,4,13,30,07,326,*48

$GPGGA,140032.0,5133.568865,N,00957.773243,E,1,02,500.0,246.6,M,47.0,M,,*53

$GNGNS,140032.0,5133.568865,N,00957.773243,E,AN,02,500.0,246.6,47.0,,*68

$GPVTG,102.5,T,102.6,M,3.2,N,6.0,K,A*27

$GPGSA,A,2,08,20,,,,,,,,,,,500.0,500.0,500.0*3C

$GNGSA,A,2,08,20,,,,,,,,,,,500.0,500.0,500.0*22

$GNGSA,A,2,,,,,,,,,,,,,500.0,500.0,500.0*28

$GPRMC,140032.0,A,5133.568865,N,00957.773243,E,3.2,102.5,260619,0.1,W,A*16

$PSTIS,*61

$GNGNS,140034.0,,,,,NN,,,,,,*4F

$GPVTG,,T,,M,,N,,K,N*2C

$GPGSA,A,1,,,,,,,,,,,,,,,*1E

$GNGSA,A,1,,,,,,,,,,,,,,,*00

$GPGGA,,,,,,0,,,,,,,,*66

$GPRMC,,V,,,,,,,,,,N*53

$GLGSV,3,1,09,85,57,060,21,70,42,108,,86,49,298,,77,23,327,*6B

$GLGSV,3,2,09,76,35,264,,75,12,216,,69,28,033,,84,07,087,*6F

$GLGSV,3,3,09,71,13,156,*5A

$GPGSV,4,1,13,07,10,298,,08,38,295,,10,54,137,,11,00,268,*7F

$GPGSV,4,2,13,13,04,014,,15,12,043,,16,43,195,,18,12,250,*7E

$GPGSV,4,3,13,20,54,085,,21,33,070,,26,17,180,,27,78,293,*7F

$GPGSV,4,4,13,30,07,326,*48

$GNGNS,140035.0,,,,,NN,,,,,,*4E

$GPVTG,,T,,M,,N,,K,N*2C

$GPGSA,A,1,,,,,,,,,,,,,,,*1E

$GNGSA,A,1,,,,,,,,,,,,,,,*00

$GPGGA,,,,,,0,,,,,,,,*66

$GPRMC,,V,,,,,,,,,,N*53

$GLGSV,3,1,09,85,57,060,25,70,42,108,,86,49,298,,77,23,327,*6F

$GLGSV,3,2,09,76,35,264,,75,12,216,,69,28,033,,84,07,087,*6F

$GLGSV,3,3,09,71,13,156,*5A

$GPGSV,4,1,13,08,38,295,32,16,43,195,20,20,54,085,24,26,17,180,26*7A

$GPGSV,4,2,13,07,10,298,,10,54,137,,11,00,268,,13,04,014,*72

$GPGSV,4,3,13,15,12,043,,18,12,250,,21,33,070,,27,78,293,*77

$GPGSV,4,4,13,30,07,326,*48

$GNGNS,140036.0,,,,,NN,,,,,,*4D

$GPVTG,,T,,M,,N,,K,N*2C

$GPGSA,A,1,,,,,,,,,,,,,,,*1E

$GNGSA,A,1,,,,,,,,,,,,,,,*00

$GPGGA,,,,,,0,,,,,,,,*66

$GPRMC,,V,,,,,,,,,,N*53

$GLGSV,3,1,09,85,57,060,24,70,42,108,,86,49,298,,77,23,327,*6E

$GLGSV,3,2,09,76,35,264,,75,12,216,,69,28,033,,84,07,087,*6F

$GLGSV,3,3,09,71,13,156,*5A

$GPGSV,4,1,13,08,38,295,28,10,54,137,21,16,43,195,19,18,12,250,18*7E

$GPGSV,4,2,13,20,54,085,24,26,17,180,25,30,07,326,18,07,10,298,*76

$GPGSV,4,3,13,11,00,268,,13,04,014,,15,12,043,,21,33,070,*77

$GPGSV,4,4,13,27,78,293,*49

$GNGNS,140036.3,,,,,NN,,,,,,*4E

$GPVTG,,T,,M,,N,,K,N*2C

$GPGSA,A,1,,,,,,,,,,,,,,,*1E

$GNGSA,A,1,,,,,,,,,,,,,,,*00

$GPGGA,,,,,,0,,,,,,,,*66

$GPRMC,,V,,,,,,,,,,N*53

$GLGSV,3,1,09,85,57,060,24,70,42,108,,86,49,298,,77,23,327,*6E

$GLGSV,3,2,09,76,35,264,,75,12,216,,69,28,033,,84,07,087,*6F

$GLGSV,3,3,09,71,13,156,*5A

$GPGSV,4,1,13,08,38,295,28,10,54,137,21,16,43,195,19,18,12,250,18*7E

$GPGSV,4,2,13,20,54,085,24,26,17,180,25,30,07,326,18,07,10,298,*76

$GPGSV,4,3,13,11,00,268,,13,04,014,,15,12,043,,21,33,070,*77

$GPGSV,4,4,13,27,78,293,*49

$GPGGA,140037.0,5133.565872,N,00957.767378,E,1,07,1.0,248.0,M,47.0,M,,*58

$GNGNS,140037.0,5133.565872,N,00957.767378,E,AA,08,1.0,248.0,47.0,,*63

$GPVTG,210.3,T,210.4,M,1.8,N,3.4,K,A*2A

$GPGSA,A,2,08,10,16,18,20,26,30,,,,,,1.4,1.0,0.9*3C

$GNGSA,A,2,08,10,16,18,20,26,30,,,,,,1.4,1.0,0.9*22

$GNGSA,A,2,85,,,,,,,,,,,,1.4,1.0,0.9*2D

$GPRMC,140037.0,A,5133.565872,N,00957.767378,E,1.8,210.3,260619,0.1,W,A*1A

$PSTIS,*61

$GNGNS,140039.0,,,,,NN,,,,,,*42

$GPVTG,,T,,M,,N,,K,N*2C

$GPGSA,A,1,,,,,,,,,,,,,,,*1E

$GNGSA,A,1,,,,,,,,,,,,,,,*00

$GPGGA,,,,,,0,,,,,,,,*66

$GPRMC,,V,,,,,,,,,,N*53

$GLGSV,3,1,09,70,42,108,,86,49,298,,77,23,327,,76,35,264,*66

$GLGSV,3,2,09,75,12,216,,69,28,033,,84,06,087,,85,57,060,*60

$GLGSV,3,3,09,71,13,156,*5A

$GPGSV,4,1,13,07,10,298,,08,38,295,,10,54,137,,11,00,268,*7F

$GPGSV,4,2,13,13,04,014,,15,12,043,,16,43,195,,18,12,250,*7E

$GPGSV,4,3,13,20,54,085,,21,33,070,,26,17,180,,27,79,293,*7E

$GPGSV,4,4,13,30,07,326,*48

$GPGGA,140038.8,5133.566444,N,00957.766885,E,1,07,1.0,247.6,M,47.0,M,,*54

$GNGNS,140038.8,5133.566444,N,00957.766885,E,AA,08,1.0,247.6,47.0,,*6F

$GPVTG,100.7,T,100.8,M,0.6,N,1.1,K,A*2A

$GPGSA,A,2,08,10,16,18,20,26,30,,,,,,1.4,1.0,0.9*3C

$GNGSA,A,2,08,10,16,18,20,26,30,,,,,,1.4,1.0,0.9*22

$GNGSA,A,2,85,,,,,,,,,,,,1.4,1.0,0.9*2D

$GPRMC,140038.8,A,5133.566444,N,00957.766885,E,0.6,100.7,260619,0.1,W,A*16

$PSTIS,*61

$GNGNS,140041.0,,,,,NN,,,,,,*4D

$GPVTG,,T,,M,,N,,K,N*2C

$GPGSA,A,1,,,,,,,,,,,,,,,*1E

$GNGSA,A,1,,,,,,,,,,,,,,,*00

$GPGGA,,,,,,0,,,,,,,,*66

$GPRMC,,V,,,,,,,,,,N*53

$GLGSV,3,1,09,70,42,108,,86,49,298,,77,23,327,,76,35,264,*66

$GLGSV,3,2,09,75,12,216,,69,28,033,,84,06,087,,85,57,060,*60

$GLGSV,3,3,09,71,13,156,*5A

$GPGSV,4,1,13,07,10,298,,08,38,295,,10,54,137,,11,00,268,*7F

$GPGSV,4,2,13,13,04,014,,15,12,043,,16,43,195,,18,12,250,*7E

$GPGSV,4,3,13,20,54,085,,21,33,070,,26,17,180,,27,79,293,*7E

$GPGSV,4,4,13,30,07,326,*48

$GNGNS,140041.1,,,,,NN,,,,,,*4C

$GPVTG,,T,,M,,N,,K,N*2C

$GPGSA,A,1,,,,,,,,,,,,,,,*1E

$GNGSA,A,1,,,,,,,,,,,,,,,*00

$GPGGA,,,,,,0,,,,,,,,*66

$GPRMC,,V,,,,,,,,,,N*53

$GLGSV,3,1,09,70,42,108,,86,49,298,,77,23,327,,76,35,264,*66

$GLGSV,3,2,09,75,12,216,,69,28,033,,84,06,087,,85,57,060,*60

$GLGSV,3,3,09,71,13,156,*5A

$GPGSV,4,1,13,08,38,295,28,07,10,298,,10,54,137,,11,00,268,*75

$GPGSV,4,2,13,13,04,014,,15,12,043,,16,43,195,,18,12,250,*7E

$GPGSV,4,3,13,20,54,085,,21,33,070,,26,17,180,,27,79,293,*7E

$GPGSV,4,4,13,30,07,326,*48

$GNGNS,140042.0,,,,,NN,,,,,,*4E

$GPVTG,,T,,M,,N,,K,N*2C

$GPGSA,A,1,,,,,,,,,,,,,,,*1E

$GNGSA,A,1,,,,,,,,,,,,,,,*00

$GPGGA,,,,,,0,,,,,,,,*66

$GPRMC,,V,,,,,,,,,,N*53

$GLGSV,3,1,09,70,42,108,,86,49,298,,77,23,327,,76,35,264,*66

$GLGSV,3,2,09,75,12,216,,69,28,033,,84,06,087,,85,57,060,*60

$GLGSV,3,3,09,71,13,156,*5A

$GPGSV,4,1,13,08,38,295,30,10,54,137,23,20,54,085,26,26,17,180,24*73

$GPGSV,4,2,13,27,79,293,20,07,10,298,,11,00,268,,13,04,014,*76

$GPGSV,4,3,13,15,12,043,,16,43,195,,18,12,250,,21,33,070,*78

$GPGSV,4,4,13,30,07,326,*48

$GNGNS,140043.0,,,,,NN,,,,,,*4F

$GPVTG,,T,,M,,N,,K,N*2C

$GPGSA,A,1,,,,,,,,,,,,,,,*1E

$GNGSA,A,1,,,,,,,,,,,,,,,*00

$GPGGA,,,,,,0,,,,,,,,*66

$GPRMC,,V,,,,,,,,,,N*53

$GLGSV,3,1,09,86,49,298,21,85,57,060,19,70,42,108,,77,23,327,*63

$GLGSV,3,2,09,76,35,264,,75,12,216,,69,28,033,,84,06,087,*6E

$GLGSV,3,3,09,71,13,156,*5A

$GPGSV,4,1,13,08,38,295,31,10,54,137,23,16,43,195,21,18,12,250,17*70

$GPGSV,4,2,13,20,54,085,26,26,17,180,26,27,79,293,20,07,10,298,*7C

$GPGSV,4,3,13,11,00,268,,13,04,014,,15,12,043,,21,33,070,*77

$GPGSV,4,4,13,30,07,326,*48

$GPGGA,140044.0,5133.564727,N,00957.762480,E,1,07,1.2,247.1,M,47.0,M,,*5B

$GNGNS,140044.0,5133.564727,N,00957.762480,E,AA,09,1.2,247.1,47.0,,*61

$GPVTG,271.8,T,271.9,M,2.2,N,4.0,K,A*26

$GPGSA,A,2,08,10,16,18,20,26,27,,,,,,1.5,1.2,0.9*39

$GNGSA,A,2,08,10,16,18,20,26,27,,,,,,1.5,1.2,0.9*27

$GNGSA,A,2,86,85,,,,,,,,,,,1.5,1.2,0.9*20

$GPRMC,140044.0,A,5133.564727,N,00957.762480,E,2.2,271.8,260619,0.1,W,A*10

$PSTIS,*61

$GNGNS,140046.0,,,,,NN,,,,,,*4A

$GPVTG,,T,,M,,N,,K,N*2C

$GPGSA,A,1,,,,,,,,,,,,,,,*1E

$GNGSA,A,1,,,,,,,,,,,,,,,*00

$GPGGA,,,,,,0,,,,,,,,*66

$GPRMC,,V,,,,,,,,,,N*53

$GLGSV,3,1,09,70,42,108,,86,49,298,,77,23,327,,76,35,264,*66

$GLGSV,3,2,09,75,11,216,,69,28,033,,84,06,087,,85,57,060,*63

$GLGSV,3,3,09,71,13,156,*5A

$GPGSV,4,1,13,07,10,298,,08,39,295,,10,54,137,,11,00,268,*7E

$GPGSV,4,2,13,13,04,014,,15,12,043,,16,43,195,,18,12,250,*7E

$GPGSV,4,3,13,20,54,085,,21,33,070,,26,17,180,,27,79,293,*7E

$GPGSV,4,4,13,30,07,326,*48

$GPGGA,140045.8,5133.565107,N,00957.762314,E,1,07,1.2,246.6,M,47.0,M,,*5B

$GNGNS,140045.8,5133.565107,N,00957.762314,E,AA,09,1.2,246.6,47.0,,*61

$GPVTG,260.0,T,260.1,M,1.5,N,2.7,K,A*23

$GPGSA,A,2,08,10,16,18,20,26,27,,,,,,1.5,1.2,0.9*39

$GNGSA,A,2,08,10,16,18,20,26,27,,,,,,1.5,1.2,0.9*27

$GNGSA,A,2,85,86,,,,,,,,,,,1.5,1.2,0.9*20

$GPRMC,140045.8,A,5133.565107,N,00957.762314,E,1.5,260.0,260619,0.1,W,A*1A

$PSTIS,*61

$GNGNS,140048.0,,,,,NN,,,,,,*44

$GPVTG,,T,,M,,N,,K,N*2C

$GPGSA,A,1,,,,,,,,,,,,,,,*1E

$GNGSA,A,1,,,,,,,,,,,,,,,*00

$GPGGA,,,,,,0,,,,,,,,*66

$GPRMC,,V,,,,,,,,,,N*53

$GLGSV,3,1,09,70,42,108,,86,49,298,,77,23,327,,76,35,264,*66

$GLGSV,3,2,09,75,11,216,,69,28,033,,84,06,087,,85,57,060,*63

$GLGSV,3,3,09,71,13,156,*5A

$GPGSV,4,1,13,07,10,298,,08,39,295,,10,55,137,,11,00,268,*7F

$GPGSV,4,2,13,13,04,014,,15,12,043,,16,42,195,,18,12,250,*7F

$GPGSV,4,3,13,20,54,085,,21,33,070,,26,17,180,,27,79,293,*7E

$GPGSV,4,4,13,30,07,326,*48

$GNGNS,140048.0,,,,,NN,,,,,,*44

$GPVTG,,T,,M,,N,,K,N*2C

$GPGSA,A,1,,,,,,,,,,,,,,,*1E

$GNGSA,A,1,,,,,,,,,,,,,,,*00

$GPGGA,,,,,,0,,,,,,,,*66

$GPRMC,,V,,,,,,,,,,N*53

$GLGSV,3,1,09,85,57,060,23,70,42,108,,86,49,298,,77,23,327,*69

$GLGSV,3,2,09,76,35,264,,75,11,216,,69,28,033,,84,06,087,*6D

$GLGSV,3,3,09,71,13,156,*5A

$GPGSV,4,1,13,07,10,298,,08,39,295,,10,55,137,,11,00,268,*7F

$GPGSV,4,2,13,13,04,014,,15,12,043,,16,42,195,,18,12,250,*7F

$GPGSV,4,3,13,20,54,085,,21,33,070,,26,17,180,,27,79,293,*7E

$GPGSV,4,4,13,30,07,326,*48

$GNGNS,140049.0,,,,,NN,,,,,,*45

$GPVTG,,T,,M,,N,,K,N*2C

$GPGSA,A,1,,,,,,,,,,,,,,,*1E

$GNGSA,A,1,,,,,,,,,,,,,,,*00

$GPGGA,,,,,,0,,,,,,,,*66

$GPRMC,,V,,,,,,,,,,N*53

$GLGSV,3,1,09,76,35,264,23,85,57,060,21,70,42,108,,86,49,298,*6A

$GLGSV,3,2,09,77,23,327,,75,11,216,,69,28,033,,84,06,087,*6D

$GLGSV,3,3,09,71,13,156,*5A

$GPGSV,4,1,13,08,39,295,30,18,12,250,21,20,54,085,24,26,17,180,23*7D

$GPGSV,4,2,13,07,10,298,,10,55,137,,11,00,268,,13,04,014,*73

$GPGSV,4,3,13,15,12,043,,16,42,195,,21,33,070,,27,79,293,*77

$GPGSV,4,4,13,30,07,326,*48

$GPGGA,140050.0,5133.568372,N,00957.769309,E,1,04,1.3,244.5,M,47.0,M,,*5E

$GNGNS,140050.0,5133.568372,N,00957.769309,E,AA,06,1.3,244.5,47.0,,*68

$GPVTG,38.3,T,38.4,M,1.2,N,2.2,K,A*27

$GPGSA,A,2,08,18,20,26,,,,,,,,,1.6,1.3,1.0*30

$GNGSA,A,2,08,18,20,26,,,,,,,,,1.6,1.3,1.0*2E

$GNGSA,A,2,76,85,,,,,,,,,,,1.6,1.3,1.0*25

$GPRMC,140050.0,A,5133.568372,N,00957.769309,E,1.2,38.3,260619,0.1,W,A*27

$PSTIS,*61

$GNGNS,140052.0,,,,,NN,,,,,,*4F

$GPVTG,,T,,M,,N,,K,N*2C

$GPGSA,A,1,,,,,,,,,,,,,,,*1E

$GNGSA,A,1,,,,,,,,,,,,,,,*00

$GPGGA,,,,,,0,,,,,,,,*66

$GPRMC,,V,,,,,,,,,,N*53

$GLGSV,3,1,09,70,42,108,,86,49,298,,77,23,327,,76,35,264,*66

$GLGSV,3,2,09,75,11,216,,69,28,033,,84,06,087,,85,57,060,*63

$GLGSV,3,3,09,71,13,156,*5A

$GPGSV,4,1,13,07,10,298,,08,39,295,,10,55,137,,11,00,268,*7F

$GPGSV,4,2,13,13,03,014,,15,12,043,,16,42,195,,18,13,250,*79

$GPGSV,4,3,13,20,54,085,,21,33,070,,26,17,180,,27,79,293,*7E

$GPGSV,4,4,13,30,07,326,*48

$GPGGA,140051.8,5133.568740,N,00957.769922,E,1,04,1.3,245.0,M,47.0,M,,*55

$GNGNS,140051.8,5133.568740,N,00957.769922,E,AA,06,1.3,245.0,47.0,,*63

$GPVTG,260.0,T,260.1,M,1.2,N,2.2,K,A*21

$GPGSA,A,2,08,18,20,26,,,,,,,,,1.6,1.3,1.0*30

$GNGSA,A,2,08,18,20,26,,,,,,,,,1.6,1.3,1.0*2E

$GNGSA,A,2,76,85,,,,,,,,,,,1.6,1.3,1.0*25

$GPRMC,140051.8,A,5133.568740,N,00957.769922,E,1.2,260.0,260619,0.1,W,A*14

$PSTIS,*61

$GNGNS,140054.0,,,,,NN,,,,,,*49

$GPVTG,,T,,M,,N,,K,N*2C

$GPGSA,A,1,,,,,,,,,,,,,,,*1E

$GNGSA,A,1,,,,,,,,,,,,,,,*00

$GPGGA,,,,,,0,,,,,,,,*66

$GPRMC,,V,,,,,,,,,,N*53

$GLGSV,3,1,09,70,42,108,,86,49,299,,77,23,327,,76,35,264,*67

$GLGSV,3,2,09,75,11,216,,69,28,033,,84,06,087,,85,57,060,*63

$GLGSV,3,3,09,71,13,156,*5A

$GPGSV,4,1,13,07,10,298,,08,39,295,,10,55,137,,11,00,268,*7F

$GPGSV,4,2,13,13,03,014,,15,12,043,,16,42,195,,18,13,250,*79

$GPGSV,4,3,13,20,54,085,,21,33,070,,26,17,180,,27,79,293,*7E

$GPGSV,4,4,13,30,07,326,*48

$GNGNS,140054.0,,,,,NN,,,,,,*49

$GPVTG,,T,,M,,N,,K,N*2C

$GPGSA,A,1,,,,,,,,,,,,,,,*1E

$GNGSA,A,1,,,,,,,,,,,,,,,*00

$GPGGA,,,,,,0,,,,,,,,*66

$GPRMC,,V,,,,,,,,,,N*53

$GLGSV,3,1,09,70,42,108,,86,49,299,,77,23,327,,76,35,264,*67

$GLGSV,3,2,09,75,11,216,,69,28,033,,84,06,087,,85,57,060,*63

$GLGSV,3,3,09,71,13,156,*5A

$GPGSV,4,1,13,08,39,295,26,07,10,298,,10,55,137,,11,00,268,*7B

$GPGSV,4,2,13,13,03,014,,15,12,043,,16,42,195,,18,13,250,*79

$GPGSV,4,3,13,20,54,085,,21,33,070,,26,17,180,,27,79,293,*7E

$GPGSV,4,4,13,30,07,326,*48

$GNGNS,140055.0,,,,,NN,,,,,,*48

$GPVTG,,T,,M,,N,,K,N*2C

$GPGSA,A,1,,,,,,,,,,,,,,,*1E

$GNGSA,A,1,,,,,,,,,,,,,,,*00

$GPGGA,,,,,,0,,,,,,,,*66

$GPRMC,,V,,,,,,,,,,N*53

$GLGSV,3,1,09,76,35,264,25,70,42,108,,86,49,299,,77,23,327,*60

$GLGSV,3,2,09,75,11,216,,69,28,033,,84,06,087,,85,57,060,*63

$GLGSV,3,3,09,71,13,156,*5A

$GPGSV,4,1,13,08,39,295,30,18,13,250,20,20,54,085,28,26,17,180,23*71

$GPGSV,4,2,13,07,10,298,,10,55,137,,11,00,268,,13,03,014,*74

$GPGSV,4,3,13,15,12,043,,16,42,195,,21,33,070,,27,79,293,*77

$GPGSV,4,4,13,30,07,326,*48

$GPGGA,140056.0,5133.574482,N,00957.764828,E,1,04,1.4,242.1,M,47.0,M,,*5D

$GNGNS,140056.0,5133.574482,N,00957.764828,E,AA,05,1.4,242.1,47.0,,*68

$GPVTG,328.4,T,328.5,M,3.0,N,5.6,K,A*22

$GPGSA,A,2,08,18,20,26,,,,,,,,,1.7,1.4,1.0*36

$GNGSA,A,2,08,18,20,26,,,,,,,,,1.7,1.4,1.0*28

$GNGSA,A,2,76,,,,,,,,,,,,1.7,1.4,1.0*2E

$GPRMC,140056.0,A,5133.574482,N,00957.764828,E,3.0,328.4,260619,0.1,W,A*14

$PSTIS,*61

$GLGSV,3,1,09,76,35,264,24,70,42,108,,86,49,299,,77,23,327,*61

$GLGSV,3,2,09,75,11,216,,69,28,033,,84,06,087,,85,57,060,*63

$GLGSV,3,3,09,71,13,156,*5A

$GPGSV,4,1,13,08,39,295,30,18,13,250,21,20,54,085,24,26,17,180,26*79

$GPGSV,4,2,13,07,10,298,,10,55,137,,11,00,268,,13,03,014,*74

$GPGSV,4,3,13,15,12,043,,16,42,195,,21,33,070,,27,79,293,*77

$GPGSV,4,4,13,30,07,326,*48

$GPGGA,140057.0,5133.563621,N,00957.764294,E,1,04,1.4,238.1,M,47.0,M,,*51

$GNGNS,140057.0,5133.563621,N,00957.764294,E,AA,05,1.4,238.1,47.0,,*64

$GPVTG,202.9,T,203.0,M,2.4,N,4.4,K,A*2D

$GPGSA,A,2,08,18,20,26,,,,,,,,,1.7,1.4,1.0*36

$GNGSA,A,2,08,18,20,26,,,,,,,,,1.7,1.4,1.0*28

$GNGSA,A,2,76,,,,,,,,,,,,1.7,1.4,1.0*2E

$GPRMC,140057.0,A,5133.563621,N,00957.764294,E,2.4,202.9,260619,0.1,W,A*14

$PSTIS,*61

$GNGNS,140059.0,,,,,NN,,,,,,*44

$GPVTG,,T,,M,,N,,K,N*2C

$GPGSA,A,1,,,,,,,,,,,,,,,*1E

$GNGSA,A,1,,,,,,,,,,,,,,,*00

$GPGGA,,,,,,0,,,,,,,,*66

$GPRMC,,V,,,,,,,,,,N*53

$GLGSV,3,1,09,86,49,299,28,70,42,108,,77,23,327,,76,35,264,*6D

$GLGSV,3,2,09,75,11,216,,69,28,033,,84,06,087,,85,57,060,*63

$GLGSV,3,3,09,71,13,156,*5A

$GPGSV,4,1,13,07,10,298,,08,39,295,,10,55,137,,11,00,268,*7F

$GPGSV,4,2,13,13,03,014,,15,12,043,,16,42,195,,18,13,250,*79

$GPGSV,4,3,13,20,54,085,,21,33,070,,26,17,180,,27,79,292,*7F

$GPGSV,4,4,13,30,07,326,*48

$GNGNS,140058.7,,,,,NN,,,,,,*42

$GPVTG,,T,,M,,N,,K,N*2C

$GPGSA,A,1,,,,,,,,,,,,,,,*1E

$GNGSA,A,1,,,,,,,,,,,,,,,*00

$GPGGA,,,,,,0,,,,,,,,*66

$GPRMC,,V,,,,,,,,,,N*53

$GLGSV,3,1,09,86,49,299,24,70,42,108,,77,23,327,,76,35,264,*61

$GLGSV,3,2,09,75,11,216,,69,28,033,,84,06,087,,85,57,060,*63

$GLGSV,3,3,09,71,13,156,*5A

$GPGSV,4,1,13,08,39,295,30,10,55,137,24,20,54,085,27,26,17,180,23*72

$GPGSV,4,2,13,07,10,298,,11,00,268,,13,03,014,,15,12,043,*70

$GPGSV,4,3,13,16,42,195,,18,13,250,,21,33,070,,27,79,292,*7A

$GPGSV,4,4,13,30,07,326,*48

$GPGGA,140100.0,5133.563249,N,00957.762707,E,1,04,1.6,241.6,M,47.0,M,,*5A

$GNGNS,140100.0,5133.563249,N,00957.762707,E,AA,05,1.6,241.6,47.0,,*6F

$GPVTG,201.5,T,201.6,M,0.0,N,0.0,K,A*20

$GPGSA,A,2,08,10,20,26,,,,,,,,,1.9,1.6,1.0*32

$GNGSA,A,2,08,10,20,26,,,,,,,,,1.9,1.6,1.0*2C

$GNGSA,A,2,86,,,,,,,,,,,,1.9,1.6,1.0*2D

$GPRMC,140100.0,A,5133.563249,N,00957.762707,E,0.0,201.5,260619,0.1,W,A*1D

$PSTIS,*61

$GNGNS,140102.0,,,,,NN,,,,,,*4B

$GPVTG,,T,,M,,N,,K,N*2C

$GPGSA,A,1,,,,,,,,,,,,,,,*1E

$GNGSA,A,1,,,,,,,,,,,,,,,*00

$GPGGA,,,,,,0,,,,,,,,*66

$GPRMC,,V,,,,,,,,,,N*53

$GLGSV,3,1,09,85,57,060,22,70,42,108,,86,49,299,,77,23,327,*69

$GLGSV,3,2,09,76,35,264,,75,11,216,,69,28,033,,84,06,087,*6D

$GLGSV,3,3,09,71,13,156,*5A

$GPGSV,4,1,13,07,10,298,,08,39,295,,10,55,137,,11,00,268,*7F

$GPGSV,4,2,13,13,03,014,,15,12,043,,16,42,195,,18,13,250,*79

$GPGSV,4,3,13,20,54,085,,21,33,070,,26,17,180,,27,79,292,*7F

$GPGSV,4,4,13,30,07,326,*48

$GNGNS,140101.7,,,,,NN,,,,,,*4F

$GPVTG,,T,,M,,N,,K,N*2C

$GPGSA,A,1,,,,,,,,,,,,,,,*1E

$GNGSA,A,1,,,,,,,,,,,,,,,*00

$GPGGA,,,,,,0,,,,,,,,*66

$GPRMC,,V,,,,,,,,,,N*53

$GLGSV,3,1,09,86,49,299,26,85,57,060,24,70,42,108,,77,23,327,*6B

$GLGSV,3,2,09,76,35,264,,75,11,216,,69,28,033,,84,06,087,*6D

$GLGSV,3,3,09,71,13,156,*5A

$GPGSV,4,1,13,08,39,295,29,20,54,085,25,27,79,292,20,07,10,298,*75

$GPGSV,4,2,13,10,55,137,,11,00,268,,13,03,014,,15,12,043,*71

$GPGSV,4,3,13,16,42,195,,18,13,250,,21,33,070,,26,17,180,*73

$GPGSV,4,4,13,30,07,326,*48

$GPGGA,140103.0,5133.564196,N,00957.765369,E,1,03,5.7,239.4,M,47.0,M,,*5B

$GNGNS,140103.0,5133.564196,N,00957.765369,E,AA,05,5.7,239.4,47.0,,*69

$GPVTG,95.3,T,95.4,M,0.6,N,1.1,K,A*22

$GPGSA,A,2,08,20,27,,,,,,,,,,5.8,5.7,1.0*32

$GNGSA,A,2,08,20,27,,,,,,,,,,5.8,5.7,1.0*2C

$GNGSA,A,2,86,85,,,,,,,,,,,5.8,5.7,1.0*20

$GPRMC,140103.0,A,5133.564196,N,00957.765369,E,0.6,95.3,260619,0.1,W,A*2C

$PSTIS,*61

$GLGSV,3,1,09,86,49,299,25,77,23,327,18,76,35,264,18,85,57,060,19*69

$GLGSV,3,2,09,70,42,108,,75,11,216,,69,28,033,,84,06,087,*62

$GLGSV,3,3,09,71,13,156,*5A

$GPGSV,4,1,13,08,39,295,29,10,55,137,23,16,42,195,23,18,13,250,19*75

$GPGSV,4,2,13,20,54,085,24,26,17,180,22,27,79,292,20,30,07,326,19*75

$GPGSV,4,3,13,07,10,298,,11,00,268,,13,03,014,,15,12,043,*71

$GPGSV,4,4,13,21,33,070,*4F

$GPGGA,140104.0,5133.559874,N,00957.766886,E,1,07,0.9,246.4,M,47.0,M,,*59

$GNGNS,140104.0,5133.559874,N,00957.766886,E,AA,11,0.9,246.4,47.0,,*6A

$GPVTG,142.1,T,142.2,M,1.8,N,3.3,K,A*29

$GPGSA,A,2,08,10,16,18,20,26,30,,,,,,1.2,0.9,0.9*32

$GNGSA,A,2,08,10,16,18,20,26,30,,,,,,1.2,0.9,0.9*2C

$GNGSA,A,2,86,77,76,85,,,,,,,,,1.2,0.9,0.9*2C

$GPRMC,140104.0,A,5133.559874,N,00957.766886,E,1.8,142.1,260619,0.1,W,A*1F

$PSTIS,*61

$GNGNS,140106.0,,,,,NN,,,,,,*4F

$GPVTG,,T,,M,,N,,K,N*2C

$GPGSA,A,1,,,,,,,,,,,,,,,*1E

$GNGSA,A,1,,,,,,,,,,,,,,,*00

$GPGGA,,,,,,0,,,,,,,,*66

$GPRMC,,V,,,,,,,,,,N*53

$GLGSV,3,1,09,86,49,299,27,70,43,108,,77,23,327,,76,35,264,*63

$GLGSV,3,2,09,75,11,216,,69,28,033,,84,06,087,,85,57,060,*63

$GLGSV,3,3,09,71,13,156,*5A

$GPGSV,4,1,13,07,10,298,,08,39,295,,10,55,137,,11,00,268,*7F

$GPGSV,4,2,13,13,03,014,,15,12,043,,16,42,195,,18,13,250,*79

$GPGSV,4,3,13,20,54,085,,21,33,070,,26,17,180,,27,79,292,*7F

$GPGSV,4,4,13,30,07,326,*48

$GNGNS,140105.8,,,,,NN,,,,,,*44

$GPVTG,,T,,M,,N,,K,N*2C

$GPGSA,A,1,,,,,,,,,,,,,,,*1E

$GNGSA,A,1,,,,,,,,,,,,,,,*00

$GPGGA,,,,,,0,,,,,,,,*66

$GPRMC,,V,,,,,,,,,,N*53

$GLGSV,3,1,09,86,49,299,23,70,43,108,,77,23,327,,76,35,264,*67

$GLGSV,3,2,09,75,11,216,,69,28,033,,84,06,087,,85,57,060,*63

$GLGSV,3,3,09,71,13,156,*5A

$GPGSV,4,1,13,08,39,295,31,18,13,250,21,07,10,298,,10,55,137,*7E

$GPGSV,4,2,13,11,00,268,,13,03,014,,15,12,043,,16,42,195,*79

$GPGSV,4,3,13,20,54,085,,21,33,070,,26,17,180,,27,79,292,*7F

$GPGSV,4,4,13,30,07,326,*48

$GPGGA,140107.0,5133.559333,N,00957.768840,E,1,02,13.9,246.3,M,47.0,M,,*66

$GNGNS,140107.0,5133.559333,N,00957.768840,E,AA,03,13.9,246.3,47.0,,*53

$GPVTG,122.7,T,122.8,M,1.6,N,3.0,K,A*28

$GPGSA,A,2,08,18,,,,,,,,,,,14.0,13.9,1.0*3D

$GNGSA,A,2,08,18,,,,,,,,,,,14.0,13.9,1.0*23

$GNGSA,A,2,86,,,,,,,,,,,,14.0,13.9,1.0*2C

$GPRMC,140107.0,A,5133.559333,N,00957.768840,E,1.6,122.7,260619,0.1,W,A*1E

$PSTIS,*61

$GLGSV,3,1,09,86,49,299,25,76,35,264,20,70,43,108,,77,23,327,*63

$GLGSV,3,2,09,75,11,216,,69,28,033,,84,06,087,,85,57,060,*63

$GLGSV,3,3,09,71,13,156,*5A

$GPGSV,4,1,13,08,39,295,32,10,55,137,20,16,42,195,23,18,13,250,24*72

$GPGSV,4,2,13,20,54,085,19,21,33,070,19,26,17,180,20,30,07,326,18*74

$GPGSV,4,3,13,07,10,298,,11,00,268,,13,03,014,,15,12,043,*71

$GPGSV,4,4,13,27,79,292,*49

$GPGGA,140108.0,5133.565091,N,00957.767373,E,1,08,0.9,248.8,M,47.0,M,,*54

$GNGNS,140108.0,5133.565091,N,00957.767373,E,AA,10,0.9,248.8,47.0,,*69

$GPVTG,7.5,T,7.6,M,1.5,N,2.9,K,A*2F

$GPGSA,A,2,08,10,16,18,20,21,26,30,,,,,1.2,0.9,0.9*31

$GNGSA,A,2,08,10,16,18,20,21,26,30,,,,,1.2,0.9,0.9*2F

$GNGSA,A,2,86,76,,,,,,,,,,,1.2,0.9,0.9*21

$GPRMC,140108.0,A,5133.565091,N,00957.767373,E,1.5,7.5,260619,0.1,W,A*16

$PSTIS,*61

$GLGSV,3,1,09,86,49,299,27,77,23,327,16,76,35,264,18,70,43,108,*6D

$GLGSV,3,2,09,75,11,216,,69,28,033,,84,06,087,,85,57,060,*63

$GLGSV,3,3,09,71,13,156,*5A

$GPGSV,4,1,13,07,10,298,19,08,39,295,33,10,55,137,19,16,42,195,23*7E

$GPGSV,4,2,13,18,13,250,26,20,54,085,24,21,33,070,18,26,17,180,20*79

$GPGSV,4,3,13,27,79,292,18,30,07,326,18,11,00,268,,13,03,014,*75

$GPGSV,4,4,13,15,12,043,*4B

$GPGGA,140109.0,5133.565306,N,00957.767542,E,1,10,0.8,243.8,M,47.0,M,,*5F

$GNGNS,140109.0,5133.565306,N,00957.767542,E,AA,13,0.8,243.8,47.0,,*68

$GPVTG,347.4,T,347.5,M,0.6,N,1.2,K,A*27

$GPGSA,A,2,07,08,10,16,18,20,21,26,27,30,,,1.1,0.8,0.8*30

$GNGSA,A,2,07,08,10,16,18,20,21,26,27,30,,,1.1,0.8,0.8*2E

$GNGSA,A,2,86,77,76,,,,,,,,,,1.1,0.8,0.8*22

$GPRMC,140109.0,A,5133.565306,N,00957.767542,E,0.6,347.4,260619,0.1,W,A*1A

$PSTIS,*61

$GNGNS,140111.0,,,,,NN,,,,,,*49

$GPVTG,,T,,M,,N,,K,N*2C

$GPGSA,A,1,,,,,,,,,,,,,,,*1E

$GNGSA,A,1,,,,,,,,,,,,,,,*00

$GPGGA,,,,,,0,,,,,,,,*66

$GPRMC,,V,,,,,,,,,,N*53

$GLGSV,3,1,09,70,43,108,,86,49,299,,77,23,327,,76,35,264,*66

$GLGSV,3,2,09,75,11,216,,69,28,033,,84,06,087,,85,57,060,*63

$GLGSV,3,3,09,71,13,156,*5A

$GPGSV,4,1,13,07,10,298,,08,39,295,,10,55,137,,11,00,268,*7F

$GPGSV,4,2,13,13,03,014,,15,12,043,,16,42,195,,18,13,250,*79

$GPGSV,4,3,13,20,54,085,,21,33,070,,26,17,180,,27,79,292,*7F

$GPGSV,4,4,13,30,07,326,*48

$GNGNS,140110.7,,,,,NN,,,,,,*4F

$GPVTG,,T,,M,,N,,K,N*2C

$GPGSA,A,1,,,,,,,,,,,,,,,*1E

$GNGSA,A,1,,,,,,,,,,,,,,,*00

$GPGGA,,,,,,0,,,,,,,,*66

$GPRMC,,V,,,,,,,,,,N*53

$GLGSV,3,1,09,86,49,299,23,85,57,060,19,70,43,108,,77,23,327,*61

$GLGSV,3,2,09,76,35,264,,75,11,216,,69,28,033,,84,06,087,*6D

$GLGSV,3,3,09,71,13,156,*5A

$GPGSV,4,1,13,08,39,295,31,26,17,180,22,07,10,298,,10,55,137,*7A

$GPGSV,4,2,13,11,00,268,,13,03,014,,15,12,043,,16,42,195,*79

$GPGSV,4,3,13,18,13,250,,20,54,085,,21,33,070,,27,79,292,*78

$GPGSV,4,4,13,30,07,326,*48

$GPGGA,140112.0,5133.566724,N,00957.771814,E,1,02,1.7,241.9,M,47.0,M,,*55

$GNGNS,140112.0,5133.566724,N,00957.771814,E,AA,04,1.7,241.9,47.0,,*67

$GPVTG,55.4,T,55.5,M,3.1,N,5.7,K,A*22

$GPGSA,A,2,08,26,,,,,,,,,,,2.0,1.7,1.0*3A

$GNGSA,A,2,08,26,,,,,,,,,,,2.0,1.7,1.0*24

$GNGSA,A,2,86,85,,,,,,,,,,,2.0,1.7,1.0*2B

$GPRMC,140112.0,A,5133.566724,N,00957.771814,E,3.1,55.4,260619,0.1,W,A*2A

$PSTIS,*61

$GNGNS,140114.0,,,,,NN,,,,,,*4C

$GPVTG,,T,,M,,N,,K,N*2C

$GPGSA,A,1,,,,,,,,,,,,,,,*1E

$GNGSA,A,1,,,,,,,,,,,,,,,*00

$GPGGA,,,,,,0,,,,,,,,*66

$GPRMC,,V,,,,,,,,,,N*53

$GLGSV,3,1,09,86,49,299,28,85,57,061,22,70,43,108,,77,23,327,*63

$GLGSV,3,2,09,76,35,264,,75,11,216,,69,28,033,,84,06,087,*6D

$GLGSV,3,3,09,71,13,156,*5A

$GPGSV,4,1,13,07,10,298,,08,39,295,,10,55,137,,11,00,268,*7F

$GPGSV,4,2,13,13,03,014,,15,12,043,,16,42,195,,18,13,250,*79

$GPGSV,4,3,13,20,54,085,,21,33,070,,26,17,180,,27,79,292,*7F

$GPGSV,4,4,13,30,07,326,*48

$GNGNS,140115.0,,,,,NN,,,,,,*4D

$GPVTG,,T,,M,,N,,K,N*2C

$GPGSA,A,1,,,,,,,,,,,,,,,*1E

$GNGSA,A,1,,,,,,,,,,,,,,,*00

$GPGGA,,,,,,0,,,,,,,,*66

$GPRMC,,V,,,,,,,,,,N*53

$GLGSV,3,1,09,86,49,299,26,77,23,327,19,76,35,264,20,85,57,061,21*6A

$GLGSV,3,2,09,70,43,108,,75,11,216,,69,28,033,,84,06,087,*63

$GLGSV,3,3,09,71,13,156,*5A

$GPGSV,4,1,13,08,39,295,31,18,13,250,25,26,17,180,25,07,10,298,*72

$GPGSV,4,2,13,10,55,137,,11,00,268,,13,03,014,,15,12,043,*71

$GPGSV,4,3,13,16,42,195,,20,54,085,,21,33,070,,27,79,292,*78

$GPGSV,4,4,13,30,07,326,*48

$GNGNS,140115.3,,,,,NN,,,,,,*4E

$GPVTG,,T,,M,,N,,K,N*2C

$GPGSA,A,1,,,,,,,,,,,,,,,*1E

$GNGSA,A,1,,,,,,,,,,,,,,,*00

$GPGGA,,,,,,0,,,,,,,,*66

$GPRMC,,V,,,,,,,,,,N*53

$GLGSV,3,1,09,86,49,299,26,77,23,327,19,76,35,264,20,85,57,061,21*6A

$GLGSV,3,2,09,70,43,108,,75,11,216,,69,28,033,,84,06,087,*63

$GLGSV,3,3,09,71,13,156,*5A

$GPGSV,4,1,13,08,39,295,31,18,13,250,25,26,17,180,25,07,10,298,*72

$GPGSV,4,2,13,10,55,137,,11,00,268,,13,03,014,,15,12,043,*71

$GPGSV,4,3,13,16,42,195,,20,54,085,,21,33,070,,27,79,292,*78

$GPGSV,4,4,13,30,07,326,*48

$GNGNS,140116.0,,,,,NN,,,,,,*4E

$GPVTG,,T,,M,,N,,K,N*2C

$GPGSA,A,1,,,,,,,,,,,,,,,*1E

$GNGSA,A,1,,,,,,,,,,,,,,,*00

$GPGGA,,,,,,0,,,,,,,,*66

$GPRMC,,V,,,,,,,,,,N*53

$GLGSV,3,1,09,86,49,299,24,77,23,327,18,76,35,264,21,85,57,061,20*69

$GLGSV,3,2,09,70,43,108,,75,11,216,,69,28,033,,84,06,087,*63

$GLGSV,3,3,09,71,13,156,*5A

$GPGSV,4,1,13,07,10,298,22,08,39,295,31,10,55,137,20,16,42,195,22*7F

$GPGSV,4,2,13,18,13,250,24,20,54,085,23,26,17,180,24,30,07,326,17*70

$GPGSV,4,3,13,11,00,268,,13,03,014,,15,12,043,,21,33,070,*70

$GPGSV,4,4,13,27,79,292,*49

$GPGGA,140117.0,5133.567460,N,00957.767056,E,1,08,0.9,241.3,M,47.0,M,,*54

$GNGNS,140117.0,5133.567460,N,00957.767056,E,AA,12,0.9,241.3,47.0,,*6B

$GPVTG,54.1,T,54.2,M,1.5,N,2.8,K,A*2E

$GPGSA,A,2,07,08,10,16,18,20,26,30,,,,,1.2,0.9,0.9*35

$GNGSA,A,2,07,08,10,16,18,20,26,30,,,,,1.2,0.9,0.9*2B

$GNGSA,A,2,86,77,76,85,,,,,,,,,1.2,0.9,0.9*2C

$GPRMC,140117.0,A,5133.567460,N,00957.767056,E,1.5,54.1,260619,0.1,W,A*26

$PSTIS,*61

$GNGNS,140119.0,,,,,NN,,,,,,*41

$GPVTG,,T,,M,,N,,K,N*2C

$GPGSA,A,1,,,,,,,,,,,,,,,*1E

$GNGSA,A,1,,,,,,,,,,,,,,,*00

$GPGGA,,,,,,0,,,,,,,,*66

$GPRMC,,V,,,,,,,,,,N*53

$GLGSV,3,1,09,70,43,108,,86,49,299,,77,23,327,,76,35,264,*66

$GLGSV,3,2,09,75,11,216,,69,28,033,,84,06,087,,85,57,061,*62

$GLGSV,3,3,09,71,14,156,*5D

$GPGSV,4,1,13,07,10,298,,08,39,295,,10,55,137,,11,00,268,*7F

$GPGSV,4,2,13,13,03,014,,15,12,043,,16,42,195,,18,13,250,*79

$GPGSV,4,3,13,20,54,085,,21,33,070,,26,17,180,,27,79,292,*7F

$GPGSV,4,4,13,30,07,326,*48

$GNGNS,140118.8,,,,,NN,,,,,,*48

$GPVTG,,T,,M,,N,,K,N*2C

$GPGSA,A,1,,,,,,,,,,,,,,,*1E

$GNGSA,A,1,,,,,,,,,,,,,,,*00

$GPGGA,,,,,,0,,,,,,,,*66

$GPRMC,,V,,,,,,,,,,N*53

$GLGSV,3,1,09,86,49,299,22,85,57,061,22,70,43,108,,77,23,327,*69

$GLGSV,3,2,09,76,35,264,,75,11,216,,69,28,033,,84,06,087,*6D

$GLGSV,3,3,09,71,14,156,*5D

$GPGSV,4,1,13,08,39,295,30,07,10,298,,10,55,137,,11,00,268,*7C

$GPGSV,4,2,13,13,03,014,,15,12,043,,16,42,195,,18,13,250,*79

$GPGSV,4,3,13,20,54,085,,21,33,070,,26,17,180,,27,79,292,*7F

$GPGSV,4,4,13,30,07,326,*48

$GPGGA,140120.0,5133.567236,N,00957.770817,E,1,01,129.2,246.3,M,47.0,M,,*51

$GNGNS,140120.0,5133.567236,N,00957.770817,E,AA,03,129.2,246.3,47.0,,*67

$GPVTG,72.7,T,72.7,M,2.4,N,4.4,K,A*25

$GPGSA,A,2,08,,,,,,,,,,,,129.2,129.2,1.1*3B

$GNGSA,A,2,08,,,,,,,,,,,,129.2,129.2,1.1*25

$GNGSA,A,2,86,85,,,,,,,,,,,129.2,129.2,1.1*2E

$GPRMC,140120.0,A,5133.567236,N,00957.770817,E,2.4,72.7,260619,0.1,W,A*2C

$PSTIS,*61

$GNGNS,140122.0,,,,,NN,,,,,,*49

$GPVTG,,T,,M,,N,,K,N*2C

$GPGSA,A,1,,,,,,,,,,,,,,,*1E

$GNGSA,A,1,,,,,,,,,,,,,,,*00

$GPGGA,,,,,,0,,,,,,,,*66

$GPRMC,,V,,,,,,,,,,N*53

$GLGSV,3,1,09,86,49,299,29,76,35,264,20,70,43,108,,77,23,327,*6F

$GLGSV,3,2,09,75,11,216,,69,28,033,,84,06,087,,85,57,061,*62

$GLGSV,3,3,09,71,14,156,*5D

$GPGSV,4,1,13,08,39,295,33,16,42,195,27,07,10,298,,10,55,137,*7A

$GPGSV,4,2,13,11,00,268,,13,03,014,,15,12,043,,18,13,250,*79

$GPGSV,4,3,13,20,54,085,,21,33,070,,26,17,180,,27,79,292,*7F

$GPGSV,4,4,13,30,07,326,*48

$GNGNS,140122.4,,,,,NN,,,,,,*4D

$GPVTG,,T,,M,,N,,K,N*2C

$GPGSA,A,1,,,,,,,,,,,,,,,*1E

$GNGSA,A,1,,,,,,,,,,,,,,,*00

$GPGGA,,,,,,0,,,,,,,,*66

$GPRMC,,V,,,,,,,,,,N*53

$GLGSV,3,1,09,86,49,299,29,76,35,264,20,70,43,108,,77,23,327,*6F

$GLGSV,3,2,09,75,11,216,,69,28,033,,84,06,087,,85,57,061,*62

$GLGSV,3,3,09,71,14,156,*5D

$GPGSV,4,1,13,08,39,295,33,16,42,195,27,07,10,298,,10,55,137,*7A

$GPGSV,4,2,13,11,00,268,,13,03,014,,15,12,043,,18,13,250,*79

$GPGSV,4,3,13,20,54,085,,21,33,070,,26,17,180,,27,79,292,*7F

$GPGSV,4,4,13,30,07,326,*48

$GNGNS,140123.0,,,,,NN,,,,,,*48

$GPVTG,,T,,M,,N,,K,N*2C

$GPGSA,A,1,,,,,,,,,,,,,,,*1E

$GNGSA,A,1,,,,,,,,,,,,,,,*00

$GPGGA,,,,,,0,,,,,,,,*66

$GPRMC,,V,,,,,,,,,,N*53

$GLGSV,3,1,09,86,49,299,24,76,35,264,20,70,43,108,,77,23,327,*62

$GLGSV,3,2,09,75,11,216,,69,28,033,,84,06,087,,85,57,061,*62

$GLGSV,3,3,09,71,14,156,*5D

$GPGSV,4,1,13,07,10,298,21,08,39,295,30,16,42,195,25,18,13,250,24*76

$GPGSV,4,2,13,26,17,180,28,10,55,137,,11,00,268,,13,03,014,*70

$GPGSV,4,3,13,15,12,043,,20,54,085,,21,33,070,,27,79,292,*74

$GPGSV,4,4,13,30,07,326,*48

$GPGGA,140124.0,5133.574958,N,00957.779213,E,1,05,2.4,231.6,M,47.0,M,,*5C

$GNGNS,140124.0,5133.574958,N,00957.779213,E,AA,06,2.4,231.6,47.0,,*6B

$GPVTG,64.2,T,64.3,M,3.1,N,5.8,K,A*2D

$GPGSA,A,2,07,08,16,18,26,,,,,,,,2.5,2.4,0.9*3E

$GNGSA,A,2,07,08,16,18,26,,,,,,,,2.5,2.4,0.9*20

$GNGSA,A,2,86,,,,,,,,,,,,2.5,2.4,0.9*2B

$GPRMC,140124.0,A,5133.574958,N,00957.779213,E,3.1,64.2,260619,0.1,W,A*28

$PSTIS,*61

$GLGSV,3,1,09,86,49,299,25,76,35,264,20,70,43,108,,77,23,327,*63

$GLGSV,3,2,09,75,11,216,,69,28,033,,84,06,087,,85,57,061,*62

$GLGSV,3,3,09,71,14,156,*5D

$GPGSV,4,1,13,07,10,298,21,08,39,295,31,16,42,195,26,18,13,250,25*75

$GPGSV,4,2,13,20,54,085,21,26,17,180,28,10,55,137,,11,00,268,*79

$GPGSV,4,3,13,13,03,014,,15,12,043,,21,33,070,,27,79,292,*7E

$GPGSV,4,4,13,30,07,326,*48

$GPGGA,140125.0,5133.570224,N,00957.769429,E,1,06,1.2,226.9,M,47.0,M,,*58

$GNGNS,140125.0,5133.570224,N,00957.769429,E,AA,07,1.2,226.9,47.0,,*6D

$GPVTG,64.2,T,64.3,M,0.0,N,0.0,K,A*22

$GPGSA,A,2,07,08,16,18,20,26,,,,,,,1.5,1.2,0.9*3A

$GNGSA,A,2,07,08,16,18,20,26,,,,,,,1.5,1.2,0.9*24

$GNGSA,A,2,86,,,,,,,,,,,,1.5,1.2,0.9*2D

$GPRMC,140125.0,A,5133.570224,N,00957.769429,E,0.0,64.2,260619,0.1,W,A*21

$PSTIS,*61

$GNGNS,140127.0,,,,,NN,,,,,,*4C

$GPVTG,,T,,M,,N,,K,N*2C

$GPGSA,A,1,,,,,,,,,,,,,,,*1E

$GNGSA,A,1,,,,,,,,,,,,,,,*00

$GPGGA,,,,,,0,,,,,,,,*66

$GPRMC,,V,,,,,,,,,,N*53

$GLGSV,3,1,09,86,49,299,27,70,43,108,,77,23,327,,76,35,264,*63

$GLGSV,3,2,09,75,11,216,,69,28,033,,84,06,087,,85,57,061,*62

$GLGSV,3,3,09,71,14,156,*5D

$GPGSV,4,1,13,07,10,296,,08,39,295,,10,55,137,,11,00,268,*71

$GPGSV,4,2,13,13,03,014,,15,12,043,,16,42,195,,18,13,250,*79

$GPGSV,4,3,13,20,54,085,,21,32,070,,26,17,180,,27,79,292,*7E

$GPGSV,4,4,13,30,07,326,*48

$GNGNS,140126.7,,,,,NN,,,,,,*4A

$GPVTG,,T,,M,,N,,K,N*2C

$GPGSA,A,1,,,,,,,,,,,,,,,*1E

$GNGSA,A,1,,,,,,,,,,,,,,,*00

$GPGGA,,,,,,0,,,,,,,,*66

$GPRMC,,V,,,,,,,,,,N*53

$GLGSV,3,1,09,86,49,299,22,70,43,108,,77,23,327,,76,35,264,*66

$GLGSV,3,2,09,75,11,216,,69,28,033,,84,06,087,,85,57,061,*62

$GLGSV,3,3,09,71,14,156,*5D

$GPGSV,4,1,13,07,10,296,22,08,39,295,29,16,42,195,23,18,13,250,24*75

$GPGSV,4,2,13,26,17,180,26,10,55,137,,11,00,268,,13,03,014,*7E

$GPGSV,4,3,13,15,12,043,,20,54,085,,21,32,070,,27,79,292,*75

$GPGSV,4,4,13,30,07,326,*48

$GPGGA,140128.0,5133.570229,N,00957.769400,E,1,05,2.4,226.9,M,47.0,M,,*55

$GNGNS,140128.0,5133.570229,N,00957.769400,E,AA,06,2.4,226.9,47.0,,*62

$GPVTG,64.2,T,64.3,M,0.0,N,0.0,K,A*22

$GPGSA,A,2,07,08,16,18,26,,,,,,,,2.5,2.4,0.9*3E

$GNGSA,A,2,07,08,16,18,26,,,,,,,,2.5,2.4,0.9*20

$GNGSA,A,2,86,,,,,,,,,,,,2.5,2.4,0.9*2B

$GPRMC,140128.0,A,5133.570229,N,00957.769400,E,0.0,64.2,260619,0.1,W,A*2A

$PSTIS,*61

$GNGNS,140130.0,,,,,NN,,,,,,*4A

$GPVTG,,T,,M,,N,,K,N*2C

$GPGSA,A,1,,,,,,,,,,,,,,,*1E

$GNGSA,A,1,,,,,,,,,,,,,,,*00

$GPGGA,,,,,,0,,,,,,,,*66

$GPRMC,,V,,,,,,,,,,N*53

$GLGSV,3,1,09,86,49,299,26,70,43,108,,77,23,327,,76,35,264,*62

$GLGSV,3,2,09,75,11,216,,69,28,033,,84,06,087,,85,57,061,*62

$GLGSV,3,3,09,71,14,156,*5D

$GPGSV,4,1,13,07,10,296,,08,39,295,,10,55,137,,11,01,268,*70

$GPGSV,4,2,13,13,03,014,,15,12,043,,16,42,195,,18,13,250,*79

$GPGSV,4,3,13,20,54,085,,21,32,070,,26,17,180,,27,79,292,*7E

$GPGSV,4,4,13,30,07,326,*48

$GNGNS,140129.7,,,,,NN,,,,,,*45

$GPVTG,,T,,M,,N,,K,N*2C

$GPGSA,A,1,,,,,,,,,,,,,,,*1E

$GNGSA,A,1,,,,,,,,,,,,,,,*00

$GPGGA,,,,,,0,,,,,,,,*66

$GPRMC,,V,,,,,,,,,,N*53

$GLGSV,3,1,09,86,49,299,22,70,43,108,,77,23,327,,76,35,264,*66

$GLGSV,3,2,09,75,11,216,,69,28,033,,84,06,087,,85,57,061,*62

$GLGSV,3,3,09,71,14,156,*5D

$GPGSV,4,1,13,07,10,296,23,08,39,295,31,16,42,195,24,18,13,250,26*78

$GPGSV,4,2,13,20,54,085,20,26,17,180,27,10,55,137,,11,01,268,*76

$GPGSV,4,3,13,13,03,014,,15,12,043,,21,32,070,,27,79,292,*7F

$GPGSV,4,4,13,30,07,326,*48

$GPGGA,140131.0,5133.569838,N,00957.768986,E,1,06,1.2,231.5,M,47.0,M,,*51

$GNGNS,140131.0,5133.569838,N,00957.768986,E,AA,07,1.2,231.5,47.0,,*64

$GPVTG,64.2,T,64.3,M,0.0,N,0.0,K,A*22

$GPGSA,A,2,07,08,16,18,20,26,,,,,,,1.5,1.2,0.9*3A

$GNGSA,A,2,07,08,16,18,20,26,,,,,,,1.5,1.2,0.9*24

$GNGSA,A,2,86,,,,,,,,,,,,1.5,1.2,0.9*2D

$GPRMC,140131.0,A,5133.569838,N,00957.768986,E,0.0,64.2,260619,0.1,W,A*22

$PSTIS,*61

$GNGNS,140133.0,,,,,NN,,,,,,*49

$GPVTG,,T,,M,,N,,K,N*2C

$GPGSA,A,1,,,,,,,,,,,,,,,*1E

$GNGSA,A,1,,,,,,,,,,,,,,,*00

$GPGGA,,,,,,0,,,,,,,,*66

$GPRMC,,V,,,,,,,,,,N*53

$GLGSV,3,1,09,70,43,108,,86,49,299,,77,23,327,,76,35,264,*66

$GLGSV,3,2,09,75,11,216,,69,28,033,,84,06,087,,85,57,061,*62

$GLGSV,3,3,09,71,14,156,*5D

$GPGSV,4,1,13,07,10,296,,08,39,295,,10,55,137,,11,01,268,*70

$GPGSV,4,2,13,13,03,012,,15,12,043,,16,42,195,,18,13,250,*7F

$GPGSV,4,3,13,20,54,085,,21,32,070,,26,17,180,,27,79,292,*7E

$GPGSV,4,4,13,30,07,326,*48

$GNGNS,140132.7,,,,,NN,,,,,,*4F

$GPVTG,,T,,M,,N,,K,N*2C

$GPGSA,A,1,,,,,,,,,,,,,,,*1E

$GNGSA,A,1,,,,,,,,,,,,,,,*00

$GPGGA,,,,,,0,,,,,,,,*66

$GPRMC,,V,,,,,,,,,,N*53

$GLGSV,3,1,09,86,49,299,23,85,57,061,20,70,43,108,,77,23,327,*6A

$GLGSV,3,2,09,76,35,264,,75,11,216,,69,28,033,,84,06,087,*6D

$GLGSV,3,3,09,71,14,156,*5D

$GPGSV,4,1,13,08,39,295,31,07,10,296,,10,55,137,,11,01,268,*72

$GPGSV,4,2,13,13,03,012,,15,12,043,,16,42,195,,18,13,250,*7F

$GPGSV,4,3,13,20,54,085,,21,32,070,,26,17,180,,27,79,292,*7E

$GPGSV,4,4,13,30,07,326,*48

$GPGGA,140134.0,5133.569844,N,00957.768997,E,1,01,140.7,231.5,M,47.0,M,,*59

$GNGNS,140134.0,5133.569844,N,00957.768997,E,AA,03,140.7,231.5,47.0,,*6F

$GPVTG,64.2,T,64.3,M,0.0,N,0.0,K,A*22

$GPGSA,A,2,08,,,,,,,,,,,,140.7,140.7,1.1*3B

$GNGSA,A,2,08,,,,,,,,,,,,140.7,140.7,1.1*25

$GNGSA,A,2,86,85,,,,,,,,,,,140.7,140.7,1.1*2E

$GPRMC,140134.0,A,5133.569844,N,00957.768997,E,0.0,64.2,260619,0.1,W,A*2C

$PSTIS,*61

$GLGSV,3,1,09,86,49,299,22,85,57,061,23,70,43,108,,77,23,327,*68

$GLGSV,3,2,09,76,35,264,,75,11,216,,69,28,033,,84,06,087,*6D

$GLGSV,3,3,09,71,14,156,*5D

$GPGSV,4,1,13,07,10,296,21,08,39,295,33,16,42,195,23,18,13,250,29*70

$GPGSV,4,2,13,20,54,085,21,26,17,180,31,10,55,137,,11,01,268,*70

$GPGSV,4,3,13,13,03,012,,15,12,043,,21,32,070,,27,79,292,*79

$GPGSV,4,4,13,30,07,326,*48

$GPGGA,140135.0,5133.570213,N,00957.768947,E,1,06,1.1,232.6,M,47.0,M,,*50

$GNGNS,140135.0,5133.570213,N,00957.768947,E,AA,08,1.1,232.6,47.0,,*6A

$GPVTG,64.2,T,64.3,M,0.0,N,0.0,K,A*22

$GPGSA,A,2,07,08,16,18,20,26,,,,,,,1.4,1.1,0.9*38

$GNGSA,A,2,07,08,16,18,20,26,,,,,,,1.4,1.1,0.9*26

$GNGSA,A,2,86,85,,,,,,,,,,,1.4,1.1,0.9*22

$GPRMC,140135.0,A,5133.570213,N,00957.768947,E,0.0,64.2,260619,0.1,W,A*20

$PSTIS,*61

$GNGNS,140137.0,,,,,NN,,,,,,*4D

$GPVTG,,T,,M,,N,,K,N*2C

$GPGSA,A,1,,,,,,,,,,,,,,,*1E

$GNGSA,A,1,,,,,,,,,,,,,,,*00

$GPGGA,,,,,,0,,,,,,,,*66

$GPRMC,,V,,,,,,,,,,N*53

$GLGSV,3,1,09,70,43,108,,86,49,299,,77,23,327,,76,35,264,*66

$GLGSV,3,2,09,75,11,216,,69,28,033,,84,06,087,,85,57,061,*62

$GLGSV,3,3,09,71,14,156,*5D

$GPGSV,4,1,13,07,10,296,,08,39,295,,10,55,137,,11,01,268,*70

$GPGSV,4,2,13,13,03,012,,15,12,043,,16,42,195,,18,13,250,*7F

$GPGSV,4,3,13,20,54,085,,21,32,070,,26,17,180,,27,79,292,*7E

$GPGSV,4,4,13,30,07,326,*48

$GNGNS,140136.7,,,,,NN,,,,,,*4B

$GPVTG,,T,,M,,N,,K,N*2C

$GPGSA,A,1,,,,,,,,,,,,,,,*1E

$GNGSA,A,1,,,,,,,,,,,,,,,*00

$GPGGA,,,,,,0,,,,,,,,*66

$GPRMC,,V,,,,,,,,,,N*53

$GLGSV,3,1,09,86,49,299,19,85,57,061,21,70,43,108,,77,23,327,*62

$GLGSV,3,2,09,76,35,264,,75,11,216,,69,28,033,,84,06,087,*6D

$GLGSV,3,3,09,71,14,156,*5D

$GPGSV,4,1,13,08,39,295,32,16,42,195,21,07,10,296,,10,55,137,*73

$GPGSV,4,2,13,11,01,268,,13,03,012,,15,12,043,,18,13,250,*7E

$GPGSV,4,3,13,20,54,085,,21,32,070,,26,17,180,,27,79,292,*7E

$GPGSV,4,4,13,30,07,326,*48

$GPGGA,140138.0,5133.570521,N,00957.769406,E,1,02,1.8,232.3,M,47.0,M,,*5A

$GNGNS,140138.0,5133.570521,N,00957.769406,E,AA,04,1.8,232.3,47.0,,*68

$GPVTG,64.2,T,64.3,M,0.0,N,0.0,K,A*22

$GPGSA,A,2,08,16,,,,,,,,,,,2.0,1.8,1.0*36

$GNGSA,A,2,08,16,,,,,,,,,,,2.0,1.8,1.0*28

$GNGSA,A,2,86,85,,,,,,,,,,,2.0,1.8,1.0*24

$GPRMC,140138.0,A,5133.570521,N,00957.769406,E,0.0,64.2,260619,0.1,W,A*22

$PSTIS,*61

$GNGNS,140140.0,,,,,NN,,,,,,*4D

$GPVTG,,T,,M,,N,,K,N*2C

$GPGSA,A,1,,,,,,,,,,,,,,,*1E

$GNGSA,A,1,,,,,,,,,,,,,,,*00

$GPGGA,,,,,,0,,,,,,,,*66

$GPRMC,,V,,,,,,,,,,N*53

$GLGSV,3,1,09,70,43,108,,86,49,299,,77,23,327,,76,35,264,*66

$GLGSV,3,2,09,75,11,216,,69,28,033,,84,06,087,,85,56,061,*63

$GLGSV,3,3,09,71,14,156,*5D

$GPGSV,4,1,13,07,10,296,,08,39,295,,10,55,137,,11,01,268,*70

$GPGSV,4,2,13,13,03,012,,15,12,043,,16,42,195,,18,13,250,*7F

$GPGSV,4,3,13,20,54,085,,21,32,070,,26,17,180,,27,79,292,*7E

$GPGSV,4,4,13,30,07,326,*48

$GNGNS,140139.7,,,,,NN,,,,,,*44

$GPVTG,,T,,M,,N,,K,N*2C

$GPGSA,A,1,,,,,,,,,,,,,,,*1E

$GNGSA,A,1,,,,,,,,,,,,,,,*00

$GPGGA,,,,,,0,,,,,,,,*66

$GPRMC,,V,,,,,,,,,,N*53

$GLGSV,3,1,09,86,49,299,20,85,56,061,20,70,43,108,,77,23,327,*68

$GLGSV,3,2,09,76,35,264,,75,11,216,,69,28,033,,84,06,087,*6D

$GLGSV,3,3,09,71,14,156,*5D

$GPGSV,4,1,13,08,39,295,30,07,10,296,,10,55,137,,11,01,268,*73

$GPGSV,4,2,13,13,03,012,,15,12,043,,16,42,195,,18,13,250,*7F

$GPGSV,4,3,13,20,54,085,,21,32,070,,26,17,180,,27,79,292,*7E

$GPGSV,4,4,13,30,07,326,*48

$GNGNS,140141.0,,,,,NN,,,,,,*4C

$GPVTG,,T,,M,,N,,K,N*2C

$GPGSA,A,1,,,,,,,,,,,,,,,*1E

$GNGSA,A,1,,,,,,,,,,,,,,,*00

$GPGGA,,,,,,0,,,,,,,,*66

$GPRMC,,V,,,,,,,,,,N*53

$GLGSV,3,1,09,86,49,299,24,77,23,327,19,85,56,061,21,70,43,108,*65

$GLGSV,3,2,09,76,35,264,,75,11,216,,69,28,033,,84,06,087,*6D

$GLGSV,3,3,09,71,14,156,*5D

$GPGSV,4,1,13,07,10,296,21,08,39,295,32,16,42,195,23,18,13,250,28*70

$GPGSV,4,2,13,20,54,085,21,26,17,180,27,10,55,137,,11,01,268,*77

$GPGSV,4,3,13,13,03,012,,15,12,043,,21,32,070,,27,79,292,*79

$GPGSV,4,4,13,30,07,326,*48

$GPGGA,140142.0,5133.570825,N,00957.770112,E,1,06,1.1,232.7,M,47.0,M,,*5F

$GNGNS,140142.0,5133.570825,N,00957.770112,E,AA,09,1.1,232.7,47.0,,*64

$GPVTG,64.2,T,64.3,M,0.0,N,0.0,K,A*22

$GPGSA,A,2,07,08,16,18,20,26,,,,,,,1.4,1.1,0.9*38

$GNGSA,A,2,07,08,16,18,20,26,,,,,,,1.4,1.1,0.9*26

$GNGSA,A,2,86,77,85,,,,,,,,,,1.4,1.1,0.9*22

$GPRMC,140142.0,A,5133.570825,N,00957.770112,E,0.0,64.2,260619,0.1,W,A*2E

$PSTIS,*61

$GNGNS,140144.0,,,,,NN,,,,,,*49

$GPVTG,,T,,M,,N,,K,N*2C

$GPGSA,A,1,,,,,,,,,,,,,,,*1E

$GNGSA,A,1,,,,,,,,,,,,,,,*00

$GPGGA,,,,,,0,,,,,,,,*66

$GPRMC,,V,,,,,,,,,,N*53

$GLGSV,3,1,09,70,43,108,,86,49,299,,77,23,327,,76,35,264,*66

$GLGSV,3,2,09,75,11,216,,69,28,033,,84,06,087,,85,56,061,*63

$GLGSV,3,3,09,71,14,156,*5D

$GPGSV,4,1,13,07,10,296,,08,39,295,,10,55,137,,11,01,268,*70

$GPGSV,4,2,13,13,03,012,,15,12,043,,16,42,195,,18,13,250,*7F

$GPGSV,4,3,13,20,54,085,,21,32,070,,26,17,180,,27,79,292,*7E

$GPGSV,4,4,13,30,07,326,*48

$GNGNS,140143.7,,,,,NN,,,,,,*49

$GPVTG,,T,,M,,N,,K,N*2C

$GPGSA,A,1,,,,,,,,,,,,,,,*1E

$GNGSA,A,1,,,,,,,,,,,,,,,*00

$GPGGA,,,,,,0,,,,,,,,*66

$GPRMC,,V,,,,,,,,,,N*53

$GLGSV,3,1,09,86,49,299,22,85,56,061,20,70,43,108,,77,23,327,*6A

$GLGSV,3,2,09,76,35,264,,75,11,216,,69,28,033,,84,06,087,*6D

$GLGSV,3,3,09,71,14,156,*5D

$GPGSV,4,1,13,20,54,085,26,07,10,296,,08,39,295,,10,55,137,*77

$GPGSV,4,2,13,11,01,268,,13,03,012,,15,12,043,,16,42,195,*7E

$GPGSV,4,3,13,18,13,250,,21,32,070,,26,17,180,,27,79,292,*7C

$GPGSV,4,4,13,30,07,326,*48

$GPGGA,140145.0,5133.570131,N,00957.768088,E,1,01,9.0,234.2,M,47.0,M,,*52

$GNGNS,140145.0,5133.570131,N,00957.768088,E,AA,03,9.0,234.2,47.0,,*64

$GPVTG,64.2,T,64.3,M,0.0,N,0.0,K,A*22

$GPGSA,A,2,20,,,,,,,,,,,,9.1,9.0,1.0*31

$GNGSA,A,2,20,,,,,,,,,,,,9.1,9.0,1.0*2F

$GNGSA,A,2,86,85,,,,,,,,,,,9.1,9.0,1.0*2E

$GPRMC,140145.0,A,5133.570131,N,00957.768088,E,0.0,64.2,260619,0.1,W,A*2E

$PSTIS,*61

$GLGSV,3,1,09,86,49,299,24,77,23,327,19,85,56,061,20,70,43,108,*64

$GLGSV,3,2,09,76,35,264,,75,11,216,,69,28,033,,84,06,087,*6D

$GLGSV,3,3,09,71,14,156,*5D

$GPGSV,4,1,13,07,10,296,22,08,39,295,33,16,42,195,20,18,13,250,29*70

$GPGSV,4,2,13,20,54,084,19,26,17,180,28,10,55,137,,11,01,268,*72

$GPGSV,4,3,13,13,03,012,,15,12,043,,21,32,070,,27,79,292,*79

$GPGSV,4,4,13,30,07,326,*48

$GPGGA,140146.0,5133.569045,N,00957.765423,E,1,06,1.1,235.0,M,47.0,M,,*5E

$GNGNS,140146.0,5133.569045,N,00957.765423,E,AA,08,1.1,235.0,47.0,,*64

$GPVTG,64.2,T,64.3,M,0.0,N,0.0,K,A*22

$GPGSA,A,2,07,08,16,18,20,26,,,,,,,1.5,1.1,0.9*39

$GNGSA,A,2,07,08,16,18,20,26,,,,,,,1.5,1.1,0.9*27

$GNGSA,A,2,86,77,,,,,,,,,,,1.5,1.1,0.9*2E

$GPRMC,140146.0,A,5133.569045,N,00957.765423,E,0.0,64.2,260619,0.1,W,A*2F

$PSTIS,*61

$GNGNS,140148.0,,,,,NN,,,,,,*45

$GPVTG,,T,,M,,N,,K,N*2C

$GPGSA,A,1,,,,,,,,,,,,,,,*1E

$GNGSA,A,1,,,,,,,,,,,,,,,*00

$GPGGA,,,,,,0,,,,,,,,*66

$GPRMC,,V,,,,,,,,,,N*53

$GLGSV,3,1,09,86,49,299,24,70,43,108,,77,23,327,,76,35,264,*60

$GLGSV,3,2,09,75,11,216,,69,28,033,,84,06,087,,85,56,061,*63

$GLGSV,3,3,09,71,14,156,*5D

$GPGSV,4,1,13,07,10,296,,08,39,295,,10,55,137,,11,01,268,*70

$GPGSV,4,2,13,13,03,012,,15,12,043,,16,42,195,,18,13,250,*7F

$GPGSV,4,3,13,20,54,084,,21,32,070,,26,17,180,,27,79,292,*7F

$GPGSV,4,4,13,30,07,326,*48

$GNGNS,140147.8,,,,,NN,,,,,,*42

$GPVTG,,T,,M,,N,,K,N*2C

$GPGSA,A,1,,,,,,,,,,,,,,,*1E

$GNGSA,A,1,,,,,,,,,,,,,,,*00

$GPGGA,,,,,,0,,,,,,,,*66

$GPRMC,,V,,,,,,,,,,N*53

$GLGSV,3,1,09,86,49,299,22,70,43,108,,77,23,327,,76,35,264,*66

$GLGSV,3,2,09,75,11,216,,69,28,033,,84,06,087,,85,56,061,*63

$GLGSV,3,3,09,71,14,156,*5D

$GPGSV,4,1,13,08,39,295,31,18,13,250,24,07,10,296,,10,55,137,*75

$GPGSV,4,2,13,11,01,268,,13,03,012,,15,12,043,,16,42,195,*7E

$GPGSV,4,3,13,20,54,084,,21,32,070,,26,17,180,,27,79,292,*7F

$GPGSV,4,4,13,30,07,326,*48

$GPGGA,140149.0,5133.569037,N,00957.765416,E,1,02,13.9,235.0,M,47.0,M,,*6D

$GNGNS,140149.0,5133.569037,N,00957.765416,E,AA,03,13.9,235.0,47.0,,*58

$GPVTG,64.2,T,64.3,M,0.0,N,0.0,K,A*22

$GPGSA,A,2,08,18,,,,,,,,,,,13.9,13.9,1.0*33

$GNGSA,A,2,08,18,,,,,,,,,,,13.9,13.9,1.0*2D

$GNGSA,A,2,86,,,,,,,,,,,,13.9,13.9,1.0*22

$GPRMC,140149.0,A,5133.569037,N,00957.765416,E,0.0,64.2,260619,0.1,W,A*23

$PSTIS,*61

$GNGNS,140151.0,,,,,NN,,,,,,*4D

$GPVTG,,T,,M,,N,,K,N*2C

$GPGSA,A,1,,,,,,,,,,,,,,,*1E

$GNGSA,A,1,,,,,,,,,,,,,,,*00

$GPGGA,,,,,,0,,,,,,,,*66

$GPRMC,,V,,,,,,,,,,N*53

$GLGSV,3,1,09,86,49,299,28,70,43,108,,77,23,327,,76,35,264,*6C

$GLGSV,3,2,09,75,11,216,,69,28,033,,84,06,087,,85,56,061,*63

$GLGSV,3,3,09,71,14,156,*5D

$GPGSV,4,1,13,07,10,296,,08,39,295,,10,55,137,,11,01,268,*70

$GPGSV,4,2,13,13,03,012,,15,12,043,,16,42,195,,18,13,250,*7F

$GPGSV,4,3,13,20,54,084,,21,32,070,,26,17,180,,27,79,292,*7F

$GPGSV,4,4,13,30,07,326,*48

$GNGNS,140150.7,,,,,NN,,,,,,*4B

$GPVTG,,T,,M,,N,,K,N*2C

$GPGSA,A,1,,,,,,,,,,,,,,,*1E

$GNGSA,A,1,,,,,,,,,,,,,,,*00

$GPGGA,,,,,,0,,,,,,,,*66

$GPRMC,,V,,,,,,,,,,N*53

$GLGSV,3,1,09,86,49,299,26,70,43,106,,77,23,327,,76,35,264,*6C

$GLGSV,3,2,09,75,11,216,,69,28,033,,84,06,087,,85,56,061,*63

$GLGSV,3,3,09,71,14,156,*5D

$GPGSV,4,1,13,07,10,296,21,08,39,295,31,10,55,137,21,18,13,250,26*77

$GPGSV,4,2,13,26,17,180,26,11,01,268,,13,03,012,,15,12,043,*7D

$GPGSV,4,3,13,16,42,195,,20,54,084,,21,32,070,,27,79,292,*78

$GPGSV,4,4,13,30,07,326,*48

$GPGGA,140152.0,5133.569013,N,00957.765648,E,1,05,1.7,234.8,M,47.0,M,,*5B

$GNGNS,140152.0,5133.569013,N,00957.765648,E,AA,06,1.7,234.8,47.0,,*6C

$GPVTG,64.2,T,64.3,M,0.0,N,0.0,K,A*22

$GPGSA,A,2,07,08,10,18,26,,,,,,,,1.9,1.7,0.9*37

$GNGSA,A,2,07,08,10,18,26,,,,,,,,1.9,1.7,0.9*29

$GNGSA,A,2,86,,,,,,,,,,,,1.9,1.7,0.9*24

$GPRMC,140152.0,A,5133.569013,N,00957.765648,E,0.0,64.2,260619,0.1,W,A*26

$PSTIS,*61

$GNGNS,140154.0,,,,,NN,,,,,,*48

$GPVTG,,T,,M,,N,,K,N*2C

$GPGSA,A,1,,,,,,,,,,,,,,,*1E

$GNGSA,A,1,,,,,,,,,,,,,,,*00

$GPGGA,,,,,,0,,,,,,,,*66

$GPRMC,,V,,,,,,,,,,N*53

$GLGSV,3,1,09,70,43,106,,86,49,299,,77,23,327,,76,35,264,*68

$GLGSV,3,2,09,75,11,216,,69,28,033,,84,06,087,,85,56,061,*63

$GLGSV,3,3,09,71,14,156,*5D

$GPGSV,4,1,13,07,10,296,,08,39,295,,10,55,137,,11,01,268,*70

$GPGSV,4,2,13,13,03,012,,15,12,043,,16,42,195,,18,13,250,*7F

$GPGSV,4,3,13,20,54,084,,21,32,070,,26,17,180,,27,79,292,*7F

$GPGSV,4,4,13,30,07,326,*48

$GNGNS,140153.7,,,,,NN,,,,,,*48

$GPVTG,,T,,M,,N,,K,N*2C

$GPGSA,A,1,,,,,,,,,,,,,,,*1E

$GNGSA,A,1,,,,,,,,,,,,,,,*00

$GPGGA,,,,,,0,,,,,,,,*66

$GPRMC,,V,,,,,,,,,,N*53

$GLGSV,3,1,09,86,49,299,21,70,43,106,,77,23,327,,76,35,264,*6B

$GLGSV,3,2,09,75,11,216,,69,28,033,,84,06,087,,85,56,061,*63

$GLGSV,3,3,09,71,14,156,*5D

$GPGSV,4,1,13,07,10,296,,08,39,295,,10,55,137,,11,01,268,*70

$GPGSV,4,2,13,13,03,012,,15,12,043,,16,42,195,,18,13,250,*7F

$GPGSV,4,3,13,20,54,084,,21,32,070,,26,17,180,,27,79,292,*7F

$GPGSV,4,4,13,30,07,326,*48

$GPGGA,140155.0,5133.569013,N,00957.765648,E,1,00,500.0,234.8,M,47.0,M,,*5A

$GNGNS,140155.0,5133.569013,N,00957.765648,E,NA,01,500.0,234.8,47.0,,*60

$GPVTG,64.2,T,64.3,M,0.0,N,0.0,K,A*22

$GPGSA,A,1,,,,,,,,,,,,,,,*1E

$GNGSA,A,2,,,,,,,,,,,,,500.0,500.0,500.0*28

$GNGSA,A,2,86,,,,,,,,,,,,500.0,500.0,500.0*26

$GPRMC,140155.0,A,5133.569013,N,00957.765648,E,0.0,64.2,260619,0.1,W,A*21

$PSTIS,*61

$GNGNS,140157.0,,,,,NN,,,,,,*4B

$GPVTG,,T,,M,,N,,K,N*2C

$GPGSA,A,1,,,,,,,,,,,,,,,*1E

$GNGSA,A,1,,,,,,,,,,,,,,,*00

$GPGGA,,,,,,0,,,,,,,,*66

$GPRMC,,V,,,,,,,,,,N*53

$GLGSV,3,1,09,70,43,106,,86,49,299,,77,23,327,,76,35,264,*68

$GLGSV,3,2,09,75,11,216,,69,28,033,,84,06,087,,85,56,061,*63

$GLGSV,3,3,09,71,14,156,*5D

$GPGSV,4,1,13,07,10,296,,08,39,295,,10,55,137,,11,01,268,*70

$GPGSV,4,2,13,13,03,012,,15,12,043,,16,42,195,,18,13,250,*7F

$GPGSV,4,3,13,20,54,084,,21,32,070,,26,17,180,,27,79,292,*7F

$GPGSV,4,4,13,30,07,326,*48

$GNGNS,140156.7,,,,,NN,,,,,,*4D

$GPVTG,,T,,M,,N,,K,N*2C

$GPGSA,A,1,,,,,,,,,,,,,,,*1E

$GNGSA,A,1,,,,,,,,,,,,,,,*00

$GPGGA,,,,,,0,,,,,,,,*66

$GPRMC,,V,,,,,,,,,,N*53

$GLGSV,3,1,09,86,49,299,23,70,43,106,,77,23,327,,76,35,264,*69

$GLGSV,3,2,09,75,11,216,,69,28,033,,84,06,087,,85,56,061,*63

$GLGSV,3,3,09,71,14,156,*5D

$GPGSV,4,1,13,07,10,296,,08,39,295,,10,55,137,,11,01,268,*70

$GPGSV,4,2,13,13,03,012,,15,12,043,,16,42,195,,18,13,250,*7F

$GPGSV,4,3,13,20,54,084,,21,32,070,,26,17,180,,27,79,292,*7F

$GPGSV,4,4,13,30,07,326,*48

$GNGNS,140158.0,,,,,NN,,,,,,*44

$GPVTG,,T,,M,,N,,K,N*2C

$GPGSA,A,1,,,,,,,,,,,,,,,*1E

$GNGSA,A,1,,,,,,,,,,,,,,,*00

$GPGGA,,,,,,0,,,,,,,,*66

$GPRMC,,V,,,,,,,,,,N*53

$GLGSV,3,1,09,86,49,299,24,76,35,264,24,70,43,106,,77,23,327,*68

$GLGSV,3,2,09,75,11,216,,69,28,033,,84,06,087,,85,56,061,*63

$GLGSV,3,3,09,71,14,156,*5D

$GPGSV,4,1,13,08,39,295,34,18,13,250,25,07,10,296,,10,55,137,*71

$GPGSV,4,2,13,11,01,268,,13,03,012,,15,12,043,,16,42,195,*7E

$GPGSV,4,3,13,20,54,084,,21,32,070,,26,17,180,,27,79,292,*7F

$GPGSV,4,4,13,30,07,326,*48

$GPGGA,140159.0,5133.568781,N,00957.765199,E,1,02,13.2,235.2,M,47.0,M,,*6C

$GNGNS,140159.0,5133.568781,N,00957.765199,E,AA,04,13.2,235.2,47.0,,*5E

$GPVTG,64.2,T,64.3,M,0.0,N,0.0,K,A*22

$GPGSA,A,2,08,18,,,,,,,,,,,13.2,13.2,1.0*33

$GNGSA,A,2,08,18,,,,,,,,,,,13.2,13.2,1.0*2D

$GNGSA,A,2,86,76,,,,,,,,,,,13.2,13.2,1.0*23

$GPRMC,140159.0,A,5133.568781,N,00957.765199,E,0.0,64.2,260619,0.1,W,A*2B

$PSTIS,*61

$GLGSV,3,1,09,86,49,299,25,76,35,264,22,85,56,061,22,70,43,106,*61

$GLGSV,3,2,09,77,23,327,,75,11,216,,69,28,033,,84,06,087,*6D

$GLGSV,3,3,09,71,14,156,*5D

$GPGSV,4,1,13,07,10,296,22,08,39,295,32,10,55,137,22,18,13,250,24*76

$GPGSV,4,2,13,20,54,084,21,26,17,180,23,11,01,268,,13,03,012,*74

$GPGSV,4,3,13,15,12,043,,16,42,195,,21,32,070,,27,79,292,*77

$GPGSV,4,4,13,30,07,326,*48

$GPGGA,140200.0,5133.568570,N,00957.764323,E,1,06,1.1,234.0,M,47.0,M,,*5A

$GNGNS,140200.0,5133.568570,N,00957.764323,E,AA,09,1.1,234.0,47.0,,*61

$GPVTG,64.2,T,64.3,M,0.0,N,0.0,K,A*22

$GPGSA,A,2,07,08,10,18,20,26,,,,,,,1.4,1.1,0.9*3E

$GNGSA,A,2,07,08,10,18,20,26,,,,,,,1.4,1.1,0.9*20

$GNGSA,A,2,86,76,85,,,,,,,,,,1.4,1.1,0.9*23

$GPRMC,140200.0,A,5133.568570,N,00957.764323,E,0.0,64.2,260619,0.1,W,A*2A

$PSTIS,*61

$GLGSV,3,1,09,86,49,299,24,76,35,264,23,85,56,061,21,70,43,106,*62

$GLGSV,3,2,09,77,23,327,,75,11,216,,69,28,033,,84,06,087,*6D

$GLGSV,3,3,09,71,14,156,*5D

$GPGSV,4,1,13,07,10,296,21,08,39,295,33,10,55,137,21,18,13,250,25*76

$GPGSV,4,2,13,20,54,084,23,21,32,070,17,26,17,180,22,11,01,268,*76

$GPGSV,4,3,13,13,03,012,,15,12,043,,16,42,195,,27,79,292,*70

$GPGSV,4,4,13,30,07,326,*48

$GPGGA,140201.0,5133.569258,N,00957.766416,E,1,07,1.0,232.2,M,47.0,M,,*50

$GNGNS,140201.0,5133.569258,N,00957.766416,E,AA,10,1.0,232.2,47.0,,*62

$GPVTG,64.2,T,64.3,M,0.0,N,0.0,K,A*22

$GPGSA,A,2,07,08,10,18,20,21,26,,,,,,1.3,1.0,0.9*3B

$GNGSA,A,2,07,08,10,18,20,21,26,,,,,,1.3,1.0,0.9*25

$GNGSA,A,2,86,76,85,,,,,,,,,,1.3,1.0,0.9*25

$GPRMC,140201.0,A,5133.569258,N,00957.766416,E,0.0,64.2,260619,0.1,W,A*24

$PSTIS,*61

$GLGSV,3,1,09,86,49,299,26,77,23,327,18,76,35,264,22,85,56,061,22*6B

$GLGSV,3,2,09,70,43,106,,75,11,216,,69,28,033,,84,06,087,*6D

$GLGSV,3,3,09,71,14,156,*5D

$GPGSV,4,1,13,07,10,296,23,08,39,295,33,10,55,137,25,18,13,250,28*7D

$GPGSV,4,2,13,20,54,084,25,21,32,070,18,26,17,180,23,30,07,326,16*77

$GPGSV,4,3,13,11,01,268,,13,03,012,,15,12,043,,16,42,195,*7F

$GPGSV,4,4,13,27,79,292,*49

$GPGGA,140202.0,5133.568530,N,00957.765192,E,1,08,0.8,233.2,M,47.0,M,,*56

$GNGNS,140202.0,5133.568530,N,00957.765192,E,AA,12,0.8,233.2,47.0,,*69

$GPVTG,64.2,T,64.3,M,0.0,N,0.0,K,A*22

$GPGSA,A,2,07,08,10,18,20,21,26,30,,,,,1.2,0.8,0.8*31

$GNGSA,A,2,07,08,10,18,20,21,26,30,,,,,1.2,0.8,0.8*2F

$GNGSA,A,2,86,77,76,85,,,,,,,,,1.2,0.8,0.8*2C

$GPRMC,140202.0,A,5133.568530,N,00957.765192,E,0.0,64.2,260619,0.1,W,A*25

$PSTIS,*61

$GNGNS,140204.0,,,,,NN,,,,,,*4E

$GPVTG,,T,,M,,N,,K,N*2C

$GPGSA,A,1,,,,,,,,,,,,,,,*1E

$GNGSA,A,1,,,,,,,,,,,,,,,*00

$GPGGA,,,,,,0,,,,,,,,*66

$GPRMC,,V,,,,,,,,,,N*53

$GLGSV,3,1,09,70,43,106,,86,49,299,,77,23,327,,76,35,262,*6E

$GLGSV,3,2,09,75,11,216,,69,27,033,,84,06,087,,85,56,061,*6C

$GLGSV,3,3,09,71,14,156,*5D

$GPGSV,4,1,13,07,10,296,,08,39,295,,10,55,137,,11,01,268,*70

$GPGSV,4,2,13,13,03,012,,15,12,043,,16,42,195,,18,13,250,*7F

$GPGSV,4,3,13,20,54,084,,21,32,070,,26,17,180,,27,79,292,*7F

$GPGSV,4,4,13,30,07,326,*48

$GNGNS,140203.8,,,,,NN,,,,,,*41

$GPVTG,,T,,M,,N,,K,N*2C

$GPGSA,A,1,,,,,,,,,,,,,,,*1E

$GNGSA,A,1,,,,,,,,,,,,,,,*00

$GPGGA,,,,,,0,,,,,,,,*66

$GPRMC,,V,,,,,,,,,,N*53

$GLGSV,3,1,09,86,49,299,25,85,56,061,20,70,43,106,,77,23,327,*63

$GLGSV,3,2,09,76,35,262,,75,11,216,,69,27,033,,84,06,087,*64

$GLGSV,3,3,09,71,14,156,*5D

$GPGSV,4,1,13,08,39,295,31,18,13,250,27,07,10,296,,10,55,137,*76

$GPGSV,4,2,13,11,01,268,,13,03,012,,15,12,043,,16,42,195,*7E

$GPGSV,4,3,13,20,54,084,,21,32,070,,26,17,180,,27,79,292,*7F

$GPGSV,4,4,13,30,07,326,*48

$GPGGA,140205.0,5133.568527,N,00957.765191,E,1,02,2.5,233.3,M,47.0,M,,*50

$GNGNS,140205.0,5133.568527,N,00957.765191,E,AA,04,2.5,233.3,47.0,,*62

$GPVTG,64.2,T,64.3,M,0.0,N,0.0,K,A*22

$GPGSA,A,2,08,18,,,,,,,,,,,2.7,2.5,1.0*31

$GNGSA,A,2,08,18,,,,,,,,,,,2.7,2.5,1.0*2F

$GNGSA,A,2,86,85,,,,,,,,,,,2.7,2.5,1.0*2D

$GPRMC,140205.0,A,5133.568527,N,00957.765191,E,0.0,64.2,260619,0.1,W,A*27

$PSTIS,*61

$GLGSV,3,1,09,86,49,299,26,76,35,262,20,85,56,061,20,70,43,106,*64

$GLGSV,3,2,09,77,23,327,,75,11,216,,69,27,033,,84,06,087,*62

$GLGSV,3,3,09,71,14,156,*5D

$GPGSV,4,1,13,08,39,295,32,18,13,250,27,20,54,084,24,26,17,180,23*79

$GPGSV,4,2,13,07,10,296,,10,55,137,,11,01,268,,13,03,012,*7D

$GPGSV,4,3,13,15,12,043,,16,42,195,,21,32,070,,27,79,292,*77

$GPGSV,4,4,13,30,07,326,*48

$GPGGA,140206.0,5133.568531,N,00957.765207,E,1,04,1.4,233.3,M,47.0,M,,*5C

$GNGNS,140206.0,5133.568531,N,00957.765207,E,AA,06,1.4,233.3,47.0,,*6A

$GPVTG,64.2,T,64.3,M,0.0,N,0.0,K,A*22

$GPGSA,A,2,08,18,20,26,,,,,,,,,1.7,1.4,1.0*36

$GNGSA,A,2,08,18,20,26,,,,,,,,,1.7,1.4,1.0*28

$GNGSA,A,2,86,76,,,,,,,,,,,1.7,1.4,1.0*20

$GPRMC,140206.0,A,5133.568531,N,00957.765207,E,0.0,64.2,260619,0.1,W,A*2F

$PSTIS,*61

$GLGSV,3,1,09,86,49,299,29,77,23,327,18,76,35,262,25,85,56,061,21*66

$GLGSV,3,2,09,70,43,106,,75,11,216,,69,27,033,,84,06,087,*62

$GLGSV,3,3,09,71,14,156,*5D

$GPGSV,4,1,13,07,10,296,21,08,39,295,33,16,42,195,19,18,13,250,29*79

$GPGSV,4,2,13,20,54,084,26,21,32,070,19,26,17,180,22,10,55,137,*74

$GPGSV,4,3,13,11,01,268,,13,03,012,,15,12,043,,27,79,292,*71

$GPGSV,4,4,13,30,07,326,*48

$GPGGA,140207.0,5133.568827,N,00957.765906,E,1,07,0.9,232.4,M,47.0,M,,*54

$GNGNS,140207.0,5133.568827,N,00957.765906,E,AA,11,0.9,232.4,47.0,,*67

