$GPGGA,140139.53,5133.5029,N,00957.6254,E,0,,100.000,281.486,M,,M,0,*4F

$GNGSA,A,1,,,,,,,,,,,,,,,,,,,,,100.000,100.000,100.000*2F

$GPGSA,A,1,,,,,,,,,,,,,,,,,,,,,100.000,100.000,100.000*31

$GLGSA,A,1,,,,,,,,,,,,,,,,,,,,,100.000,100.000,100.000*2D

$BDGSA,A,1,,,,,,,,,,,,,,,,,,,,,100.000,100.000,100.000*20

$QZGSA,A,1,,,,,,,,,,,,,,,,,,,,,100.000,100.000,100.000*2D

$GPGSV,5,1,19,7,11,297,,8,40,296,,10,56,137,,15,13,44,*4E

$GPGSV,5,2,19,16,43,195,,18,14,251,,20,55,85,,21,33,70,*7A

$GPGSV,5,3,19,26,18,180,,27,80,294,,30,8,326,*7D

$GLGSV,5,4,19,69,27,34,,70,43,108,,71,14,156,,75,12,216,*5D

$GLGSV,5,5,19,77,24,328,,84,6,88,,85,57,62,,86,50,300,*5B

$GPRMC,140139.53,V,5133.5029,N,00957.6254,E,0.000,0.000,260619,,E,N*05

$GPGGA,140140.54,5133.4971,N,00957.6411,E,0,7,1.539,281.571,M,,M,0,*75

$GNGSA,A,1,10,16,20,69,71,75,85,,,,,,,,,,,,,,2.299,1.539,1.708*2C

$GPGSA,A,1,10,16,20,,,,,,,,,,,,,,,,,,2.299,1.539,1.708*34

$GLGSA,A,1,69,71,75,85,,,,,,,,,,,,,,,,,2.299,1.539,1.708*2A

$BDGSA,A,1,,,,,,,,,,,,,,,,,,,,,2.299,1.539,1.708*21

$QZGSA,A,1,,,,,,,,,,,,,,,,,,,,,2.299,1.539,1.708*2C

$GPGSV,5,1,19,7,11,297,10,8,40,296,16,10,56,137,28,15,13,44,*42

$GPGSV,5,2,19,16,43,195,28,18,14,251,15,20,55,85,29,21,33,70,*7F

$GPGSV,5,3,19,26,18,180,20,27,80,294,20,30,8,326,*7D

$GLGSV,5,4,19,69,27,34,36,70,43,108,25,71,14,156,34,75,12,216,34*5F

$GLGSV,5,5,19,77,24,328,28,84,6,88,,85,57,62,37,86,50,300,22*55

$GPRMC,140140.54,V,5133.4971,N,00957.6411,E,0.485,0.000,260619,,E,N*07

$GPGGA,140158.96,5133.4655,N,00957.6907,E,1,8,1.052,283.867,M,,M,0,*7F

$GNGSA,A,3,8,10,16,20,69,71,75,85,,,,,,,,,,,,,1.971,1.052,1.667*18

$GPGSA,A,3,8,10,16,20,,,,,,,,,,,,,,,,,1.971,1.052,1.667*00

$GLGSA,A,3,69,71,75,85,,,,,,,,,,,,,,,,,1.971,1.052,1.667*26

$BDGSA,A,3,,,,,,,,,,,,,,,,,,,,,1.971,1.052,1.667*2D

$QZGSA,A,3,,,,,,,,,,,,,,,,,,,,,1.971,1.052,1.667*20

$GPGSV,5,1,19,7,11,297,25,8,40,296,29,10,56,137,34,15,13,44,*45

$GPGSV,5,2,19,16,43,195,34,18,14,251,24,20,55,85,34,21,33,70,20*7E

$GPGSV,5,3,19,26,18,180,32,27,80,294,35,30,8,326,18*73

$GLGSV,5,4,19,69,27,34,36,70,43,108,27,71,14,156,33,75,12,216,34*5A

$GLGSV,5,5,19,77,24,328,29,84,6,88,,85,57,62,36,86,50,300,28*5F

$GPRMC,140158.96,A,5133.4655,N,00957.6907,E,0.445,0.000,260619,,E,A*17

$GPGGA,140159.16,5133.5016,N,00957.6275,E,1,12,0.868,275.809,M,,M,0,*42

$GNGSA,A,3,7,8,10,16,18,20,26,27,69,71,75,85,,,,,,,,,1.535,0.868,1.267*2F

$GPGSA,A,3,7,8,10,16,18,20,26,27,,,,,,,,,,,,,1.535,0.868,1.267*37

$GLGSA,A,3,69,71,75,85,,,,,,,,,,,,,,,,,1.535,0.868,1.267*2E

$BDGSA,A,3,,,,,,,,,,,,,,,,,,,,,1.535,0.868,1.267*25

$QZGSA,A,3,,,,,,,,,,,,,,,,,,,,,1.535,0.868,1.267*28

$GPGSV,5,1,19,7,11,297,25,8,40,296,29,10,56,137,34,15,13,44,*45

$GPGSV,5,2,19,16,43,195,34,18,14,251,24,20,55,85,34,21,33,70,24*7A

$GPGSV,5,3,19,26,18,180,32,27,80,294,35,30,8,326,18*73

$GLGSV,5,4,19,69,27,34,36,70,43,108,27,71,14,156,33,75,12,216,34*5A

$GLGSV,5,5,19,77,24,328,29,84,6,88,,85,57,62,36,86,50,300,28*5F

$GPRMC,140159.16,A,5133.5016,N,00957.6275,E,0.442,0.000,260619,,E,A*17

$GPGGA,140200.16,5133.5012,N,00957.6268,E,1,17,0.653,284.711,M,,M,0,*4E

$GNGSA,A,3,7,8,10,16,18,20,21,26,27,30,69,70,71,75,77,85,86,,,,1.221,0.653,1.031*23

$GPGSA,A,3,7,8,10,16,18,20,21,26,27,30,,,,,,,,,,,1.221,0.653,1.031*32

$GLGSA,A,3,69,70,71,75,77,85,86,,,,,,,,,,,,,,1.221,0.653,1.031*22

$BDGSA,A,3,,,,,,,,,,,,,,,,,,,,,1.221,0.653,1.031*20

$QZGSA,A,3,,,,,,,,,,,,,,,,,,,,,1.221,0.653,1.031*2D

$GPGSV,5,1,19,7,11,297,34,8,40,296,38,10,56,137,42,15,13,44,*44

$GPGSV,5,2,19,16,43,195,36,18,14,251,32,20,55,85,35,21,33,70,24*7E

$GPGSV,5,3,19,26,18,180,32,27,80,294,39,30,8,326,20*74

$GLGSV,5,4,19,69,27,34,35,70,43,108,31,71,14,156,22,75,12,216,36*5C

$GLGSV,5,5,19,77,24,328,27,84,6,88,,85,57,62,35,86,50,300,30*5B

$GPRMC,140200.16,A,5133.5012,N,00957.6268,E,0.383,0.000,260619,,E,A*1A

$GPGGA,140201.16,5133.5014,N,00957.6256,E,1,15,0.738,283.663,M,,M,0,*49

$GNGSA,A,3,7,8,10,16,18,20,26,27,69,70,71,75,77,85,86,,,,,,1.372,0.738,1.156*28

$GPGSA,A,3,7,8,10,16,18,20,26,27,,,,,,,,,,,,,1.372,0.738,1.156*39

$GLGSA,A,3,69,70,71,75,77,85,86,,,,,,,,,,,,,,1.372,0.738,1.156*29

$BDGSA,A,3,,,,,,,,,,,,,,,,,,,,,1.372,0.738,1.156*2B

$QZGSA,A,3,,,,,,,,,,,,,,,,,,,,,1.372,0.738,1.156*26

$GPGSV,5,1,19,7,11,297,34,8,40,296,38,10,56,137,41,15,13,44,*47

$GPGSV,5,2,19,16,43,195,38,18,14,251,33,20,55,85,35,21,33,70,20*75

$GPGSV,5,3,19,26,18,180,32,27,80,294,43,30,8,326,17*7D

$GLGSV,5,4,19,69,27,34,33,70,43,107,30,71,14,156,29,75,12,216,36*5F

$GLGSV,5,5,19,77,24,328,26,84,6,88,,85,57,62,37,86,50,300,26*5F

$GPRMC,140201.16,A,5133.5014,N,00957.6256,E,0.514,0.000,260619,,E,A*18

$GPGGA,140202.00,5133.5017,N,00957.6248,E,1,17,0.653,283.036,M,,M,0,*49

$GNGSA,A,3,7,8,10,16,18,20,21,26,27,30,69,70,71,75,77,85,86,,,,1.220,0.653,1.031*22

$GPGSA,A,3,7,8,10,16,18,20,21,26,27,30,,,,,,,,,,,1.220,0.653,1.031*33

$GLGSA,A,3,69,70,71,75,77,85,86,,,,,,,,,,,,,,1.220,0.653,1.031*23

$BDGSA,A,3,,,,,,,,,,,,,,,,,,,,,1.220,0.653,1.031*21

$QZGSA,A,3,,,,,,,,,,,,,,,,,,,,,1.220,0.653,1.031*2C

$GPGSV,5,1,19,7,11,297,36,8,40,296,38,10,56,137,38,15,13,44,*4B

$GPGSV,5,2,19,16,43,195,39,18,14,251,32,20,55,85,37,21,33,70,18*7C

$GPGSV,5,3,19,26,18,180,35,27,80,294,41,30,8,326,15*7A

$GLGSV,5,4,19,69,27,34,31,70,43,107,26,71,14,156,28,75,12,216,34*59

$GLGSV,5,5,19,77,24,328,25,84,6,88,,85,57,62,38,86,50,300,27*52

$GPRMC,140202.00,A,5133.5017,N,00957.6248,E,0.755,0.000,260619,,E,A*17

$GPGGA,140203.00,5133.5017,N,00957.6248,E,1,15,0.695,283.036,M,,M,0,*40

$GNGSA,A,3,7,8,10,16,18,20,21,26,27,30,69,71,75,77,85,,,,,,1.301,0.695,1.100*20

$GPGSA,A,3,7,8,10,16,18,20,21,26,27,30,,,,,,,,,,,1.301,0.695,1.100*38

$GLGSA,A,3,69,71,75,77,85,,,,,,,,,,,,,,,,1.301,0.695,1.100*21

$BDGSA,A,3,,,,,,,,,,,,,,,,,,,,,1.301,0.695,1.100*2A

$QZGSA,A,3,,,,,,,,,,,,,,,,,,,,,1.301,0.695,1.100*27

$GPGSV,5,1,19,7,11,297,38,8,40,296,37,10,56,137,38,15,13,44,11*4A

$GPGSV,5,2,19,16,43,195,40,18,14,251,32,20,55,85,36,21,33,70,18*73

$GPGSV,5,3,19,26,18,180,34,27,80,294,40,30,8,326,15*7A

$GLGSV,5,4,19,69,27,34,31,70,43,107,26,71,14,156,29,75,12,216,34*58

$GLGSV,5,5,19,77,24,328,24,84,6,88,,85,57,62,38,86,50,300,27*53

$GPRMC,140203.00,A,5133.5017,N,00957.6248,E,0.000,0.000,260619,,E,A*11

$GPGGA,140204.00,5133.5017,N,00957.6248,E,1,16,0.631,283.036,M,,M,0,*4A

$GNGSA,A,3,7,8,10,15,16,18,20,21,26,27,30,69,71,75,77,85,,,,,1.177,0.631,0.994*2D

$GPGSA,A,3,7,8,10,15,16,18,20,21,26,27,30,,,,,,,,,,1.177,0.631,0.994*35

$GLGSA,A,3,69,71,75,77,85,,,,,,,,,,,,,,,,1.177,0.631,0.994*28

$BDGSA,A,3,,,,,,,,,,,,,,,,,,,,,1.177,0.631,0.994*23

$QZGSA,A,3,,,,,,,,,,,,,,,,,,,,,1.177,0.631,0.994*2E

$GPGSV,8,1,27,4,5,,,7,11,297,37,8,40,296,37,10,56,137,39*43

$GPGSV,8,2,27,15,13,44,18,16,43,195,40,18,14,251,32,20,55,85,36*71

$GPGSV,8,3,27,21,33,70,19,26,18,180,35,27,80,294,40,30,8,326,14*76

$GLGSV,8,4,27,69,27,34,32,70,44,107,27,71,14,156,29,75,12,216,33*5A

$GLGSV,8,5,27,76,35,264,,77,24,328,24,84,6,88,,85,57,62,38*59

$GLGSV,8,6,27,86,50,300,27*53

$BDGSV,8,7,27,203,23,140,,205,17,123,,206,22,57,,209,21,86,*66

$BDGSV,8,8,27,211,23,99,,214,41,75,*6E

$GPRMC,140204.00,A,5133.5017,N,00957.6248,E,0.000,0.000,260619,,E,A*16

$GPGGA,140205.00,5133.5017,N,00957.6248,E,1,16,0.631,283.036,M,,M,0,*4B

$GNGSA,A,3,7,8,10,15,16,18,20,21,26,27,30,69,71,75,77,85,,,,,1.177,0.631,0.994*2D

$GPGSA,A,3,7,8,10,15,16,18,20,21,26,27,30,,,,,,,,,,1.177,0.631,0.994*35

$GLGSA,A,3,69,71,75,77,85,,,,,,,,,,,,,,,,1.177,0.631,0.994*28

$BDGSA,A,3,,,,,,,,,,,,,,,,,,,,,1.177,0.631,0.994*23

$QZGSA,A,3,,,,,,,,,,,,,,,,,,,,,1.177,0.631,0.994*2E

$GPGSV,8,1,27,4,5,,,7,11,297,37,8,40,296,37,10,56,137,40*4D

$GPGSV,8,2,27,15,13,44,17,16,43,195,41,18,14,251,32,20,55,85,37*7E

$GPGSV,8,3,27,21,33,70,16,26,18,180,36,27,80,294,40,30,8,326,8*47

$GLGSV,8,4,27,69,27,34,34,70,44,107,26,71,14,156,31,75,12,216,34*53

$GLGSV,8,5,27,76,35,264,,77,24,328,26,84,6,88,,85,57,62,39*5A

$GLGSV,8,6,27,86,50,300,27*53

$BDGSV,8,7,27,203,23,140,,205,17,123,,206,22,57,,209,21,86,*66

$BDGSV,8,8,27,211,23,99,,214,41,75,*6E

$GPRMC,140205.00,A,5133.5017,N,00957.6248,E,0.000,0.000,260619,,E,A*17

$GPGGA,140206.00,5133.5017,N,00957.6248,E,1,14,0.685,283.036,M,,M,0,*45

$GNGSA,A,3,7,8,10,15,16,18,20,26,27,69,71,75,77,85,,,,,,,1.244,0.685,1.038*2F

$GPGSA,A,3,7,8,10,15,16,18,20,26,27,,,,,,,,,,,,1.244,0.685,1.038*37

$GLGSA,A,3,69,71,75,77,85,,,,,,,,,,,,,,,,1.244,0.685,1.038*2A

$BDGSA,A,3,,,,,,,,,,,,,,,,,,,,,1.244,0.685,1.038*21

$QZGSA,A,3,,,,,,,,,,,,,,,,,,,,,1.244,0.685,1.038*2C

$GPGSV,8,1,27,4,5,,,7,11,297,36,8,40,296,38,10,56,137,36*42

$GPGSV,8,2,27,15,13,44,16,16,43,195,40,18,14,251,32,20,55,85,38*71

$GPGSV,8,3,27,21,33,70,,26,18,180,36,27,80,294,39,30,8,326,*76

$GLGSV,8,4,27,69,27,34,35,70,44,107,27,71,14,156,30,75,12,216,33*55

$GLGSV,8,5,27,76,35,264,,77,24,328,26,84,6,88,,85,57,62,38*5B

$GLGSV,8,6,27,86,50,300,25*51

$BDGSV,8,7,27,203,23,140,,205,17,123,,206,22,57,,209,21,86,*66

$BDGSV,8,8,27,211,23,99,,214,41,75,*6E

$GPRMC,140206.00,A,5133.5017,N,00957.6248,E,0.000,0.000,260619,,E,A*14

$GPGGA,140207.00,5133.5017,N,00957.6248,E,1,14,0.685,283.036,M,,M,0,*44

$GNGSA,A,3,7,8,10,15,16,18,20,26,27,69,71,75,77,85,,,,,,,1.244,0.685,1.038*2F

$GPGSA,A,3,7,8,10,15,16,18,20,26,27,,,,,,,,,,,,1.244,0.685,1.038*37

$GLGSA,A,3,69,71,75,77,85,,,,,,,,,,,,,,,,1.244,0.685,1.038*2A

$BDGSA,A,3,,,,,,,,,,,,,,,,,,,,,1.244,0.685,1.038*21

$QZGSA,A,3,,,,,,,,,,,,,,,,,,,,,1.244,0.685,1.038*2C

$GPGSV,8,1,27,4,5,,,7,11,297,37,8,40,296,38,10,56,137,33*46

$GPGSV,8,2,27,15,13,44,15,16,43,195,39,18,14,251,33,20,55,85,38*7D

$GPGSV,8,3,27,21,33,70,,26,18,180,29,27,80,294,38,30,8,326,*79

$GLGSV,8,4,27,69,27,34,33,70,44,107,27,71,14,156,30,75,12,216,32*52

$GLGSV,8,5,27,76,35,264,,77,24,328,26,84,6,88,,85,57,62,38*5B

$GLGSV,8,6,27,86,50,300,28*5C

$BDGSV,8,7,27,203,23,140,,205,17,123,,206,22,57,,209,21,86,*66

$BDGSV,8,8,27,211,23,99,,214,41,75,*6E

$GPRMC,140207.00,A,5133.5017,N,00957.6248,E,0.000,0.000,260619,,E,A*15

$GPGGA,140208.00,5133.5017,N,00957.6248,E,1,15,0.662,283.036,M,,M,0,*43

$GNGSA,A,3,7,8,10,15,16,18,20,26,27,30,69,71,75,77,85,,,,,,1.197,0.662,0.997*25

$GPGSA,A,3,7,8,10,15,16,18,20,26,27,30,,,,,,,,,,,1.197,0.662,0.997*3D

$GLGSA,A,3,69,71,75,77,85,,,,,,,,,,,,,,,,1.197,0.662,0.997*23

$BDGSA,A,3,,,,,,,,,,,,,,,,,,,,,1.197,0.662,0.997*28

$QZGSA,A,3,,,,,,,,,,,,,,,,,,,,,1.197,0.662,0.997*25

$GPGSV,8,1,27,4,5,,,7,11,297,37,8,40,296,39,10,56,137,40*43

$GPGSV,8,2,27,15,13,44,14,16,43,195,40,18,14,251,33,20,55,85,38*72

$GPGSV,8,3,27,21,33,70,17,26,18,180,32,27,80,294,37,30,8,326,8*42

$GLGSV,8,4,27,69,27,34,33,70,44,107,25,71,14,156,26,75,12,216,31*54

$GLGSV,8,5,27,76,35,264,,77,24,328,25,84,6,88,,85,57,62,39*59

$GLGSV,8,6,27,86,50,300,28*5C

$BDGSV,8,7,27,203,23,140,,205,17,123,,206,22,57,,209,21,86,*66

$BDGSV,8,8,27,211,23,99,,214,41,75,*6E

$GPRMC,140208.00,A,5133.5017,N,00957.6248,E,0.000,0.000,260619,,E,A*1A

$GPGGA,140209.00,5133.5017,N,00957.6248,E,1,15,0.655,283.036,M,,M,0,*46

$GNGSA,A,3,7,8,10,15,16,18,20,21,26,27,69,71,75,77,85,,,,,,1.224,0.655,1.033*2C

$GPGSA,A,3,7,8,10,15,16,18,20,21,26,27,,,,,,,,,,,1.224,0.655,1.033*34

$GLGSA,A,3,69,71,75,77,85,,,,,,,,,,,,,,,,1.224,0.655,1.033*2A

$BDGSA,A,3,,,,,,,,,,,,,,,,,,,,,1.224,0.655,1.033*21

$QZGSA,A,3,,,,,,,,,,,,,,,,,,,,,1.224,0.655,1.033*2C

$GPGSV,8,1,27,4,5,,,7,11,297,37,8,40,296,38,10,56,137,40*42

$GPGSV,8,2,27,15,13,44,13,16,43,195,38,18,14,251,32,20,55,85,39*7A

$GPGSV,8,3,27,21,33,70,20,26,18,180,32,27,80,294,39,30,8,326,10*71

$GLGSV,8,4,27,69,27,34,34,70,44,107,24,71,14,156,26,75,12,216,30*53

$GLGSV,8,5,27,76,35,264,,77,24,328,23,84,6,88,,85,57,62,39*5F

$GLGSV,8,6,27,86,50,300,30*55

$BDGSV,8,7,27,203,23,140,,205,17,123,,206,22,57,,209,21,86,*66

$BDGSV,8,8,27,211,23,99,,214,41,75,*6E

$GPRMC,140209.00,A,5133.5017,N,00957.6248,E,0.000,0.000,260619,,E,A*1B

$GPGGA,140210.00,5133.5017,N,00957.6248,E,1,15,0.655,283.036,M,,M,0,*4E

$GNGSA,A,3,7,8,10,15,16,18,20,21,26,27,69,71,75,77,85,,,,,,1.224,0.655,1.033*2C

$GPGSA,A,3,7,8,10,15,16,18,20,21,26,27,,,,,,,,,,,1.224,0.655,1.033*34

$GLGSA,A,3,69,71,75,77,85,,,,,,,,,,,,,,,,1.224,0.655,1.033*2A

$BDGSA,A,3,,,,,,,,,,,,,,,,,,,,,1.224,0.655,1.033*21

$QZGSA,A,3,,,,,,,,,,,,,,,,,,,,,1.224,0.655,1.033*2C

$GPGSV,8,1,27,4,5,,,7,11,297,37,8,40,296,38,10,56,137,39*4C

$GPGSV,8,2,27,15,13,44,13,16,43,195,38,18,14,251,31,20,55,85,39*79

$GPGSV,8,3,27,21,33,70,19,26,18,180,33,27,80,294,38,30,8,326,8*42

$GLGSV,8,4,27,69,27,34,35,70,44,107,28,71,14,156,25,75,12,216,30*5D

$GLGSV,8,5,27,76,35,264,,77,24,328,26,84,6,88,,85,57,62,40*54

$GLGSV,8,6,27,86,50,300,30*55

$BDGSV,8,7,27,203,23,140,,205,17,123,,206,22,57,,209,21,86,*66

$BDGSV,8,8,27,211,23,99,,214,41,75,*6E

$GPRMC,140210.00,A,5133.5017,N,00957.6248,E,0.000,0.000,260619,,E,A*13

$GPGGA,140211.00,5133.5017,N,00957.6248,E,1,15,0.655,283.036,M,,M,0,*4F

$GNGSA,A,3,7,8,10,15,16,18,20,21,26,27,69,71,75,77,85,,,,,,1.224,0.655,1.033*2C

$GPGSA,A,3,7,8,10,15,16,18,20,21,26,27,,,,,,,,,,,1.224,0.655,1.033*34

$GLGSA,A,3,69,71,75,77,85,,,,,,,,,,,,,,,,1.224,0.655,1.033*2A

$BDGSA,A,3,,,,,,,,,,,,,,,,,,,,,1.224,0.655,1.033*21

$QZGSA,A,3,,,,,,,,,,,,,,,,,,,,,1.224,0.655,1.033*2C

$GPGSV,8,1,27,4,5,,,7,11,297,37,8,40,296,38,10,56,137,38*4D

$GPGSV,8,2,27,15,13,44,14,16,43,195,37,18,14,251,31,20,55,85,38*70

$GPGSV,8,3,27,21,33,70,19,26,18,180,32,27,80,294,37,30,8,326,8*4C

$GLGSV,8,4,27,69,27,34,35,70,44,107,27,71,14,156,25,75,12,216,31*53

$GLGSV,8,5,27,76,35,264,,77,24,328,27,84,6,88,,85,57,62,39*5B

$GLGSV,8,6,27,86,50,300,31*54

$BDGSV,8,7,27,203,23,140,,205,17,123,,206,22,57,,209,21,86,*66

$BDGSV,8,8,27,211,23,99,,214,41,75,*6E

$GPRMC,140211.00,A,5133.5017,N,00957.6248,E,0.000,0.000,260619,,E,A*12

$GPGGA,140212.00,5133.5017,N,00957.6248,E,1,15,0.655,283.036,M,,M,0,*4C

$GNGSA,A,3,7,8,10,15,16,18,20,21,26,27,69,71,75,77,85,,,,,,1.224,0.655,1.033*2C

$GPGSA,A,3,7,8,10,15,16,18,20,21,26,27,,,,,,,,,,,1.224,0.655,1.033*34

$GLGSA,A,3,69,71,75,77,85,,,,,,,,,,,,,,,,1.224,0.655,1.033*2A

$BDGSA,A,3,,,,,,,,,,,,,,,,,,,,,1.224,0.655,1.033*21

$QZGSA,A,3,,,,,,,,,,,,,,,,,,,,,1.224,0.655,1.033*2C

$GPGSV,8,1,27,4,5,,,7,11,297,37,8,40,296,38,10,56,137,38*4D

$GPGSV,8,2,27,15,13,44,15,16,43,195,38,18,14,251,32,20,55,85,39*7C

$GPGSV,8,3,27,21,33,70,22,26,18,180,32,27,80,294,39,30,8,326,10*73

$GLGSV,8,4,27,69,27,34,32,70,44,107,26,71,14,156,22,75,12,216,30*53

$GLGSV,8,5,27,76,35,264,,77,24,328,25,84,6,88,,85,57,62,39*59

$GLGSV,8,6,27,86,50,300,31*54

$BDGSV,8,7,27,203,23,140,,205,17,123,,206,22,57,,209,21,86,*66

$BDGSV,8,8,27,211,23,99,,214,41,75,*6E

$GPRMC,140212.00,A,5133.5017,N,00957.6248,E,0.000,0.000,260619,,E,A*11

$GPGGA,140213.00,5133.5017,N,00957.6248,E,1,15,0.655,283.036,M,,M,0,*4D

$GNGSA,A,3,7,8,10,15,16,18,20,21,26,27,69,71,75,77,85,,,,,,1.224,0.655,1.033*2C

$GPGSA,A,3,7,8,10,15,16,18,20,21,26,27,,,,,,,,,,,1.224,0.655,1.033*34

$GLGSA,A,3,69,71,75,77,85,,,,,,,,,,,,,,,,1.224,0.655,1.033*2A

$BDGSA,A,3,,,,,,,,,,,,,,,,,,,,,1.224,0.655,1.033*21

$QZGSA,A,3,,,,,,,,,,,,,,,,,,,,,1.224,0.655,1.033*2C

$GPGSV,8,1,27,4,5,,,7,11,297,37,8,40,296,37,10,56,137,38*42

$GPGSV,8,2,27,15,13,44,15,16,43,195,39,18,14,251,32,20,55,85,39*7D

$GPGSV,8,3,27,21,33,70,27,26,18,180,32,27,80,294,39,30,8,326,10*76

$GLGSV,8,4,27,69,27,34,33,70,44,107,27,71,14,156,25,75,12,216,28*5D

$GLGSV,8,5,27,76,35,264,,77,24,328,25,84,6,88,,85,57,62,40*57

$GLGSV,8,6,27,86,50,300,31*54

$BDGSV,8,7,27,203,23,140,,205,17,123,,206,22,57,,209,21,86,*66

$BDGSV,8,8,27,211,23,99,,214,41,75,*6E

$GPRMC,140213.00,A,5133.5017,N,00957.6248,E,0.000,0.000,260619,,E,A*10

$GPGGA,140214.00,5133.5017,N,00957.6248,E,1,15,0.655,283.036,M,,M,0,*4A

$GNGSA,A,3,7,8,10,15,16,18,20,21,26,27,69,71,75,77,85,,,,,,1.223,0.655,1.033*2B

$GPGSA,A,3,7,8,10,15,16,18,20,21,26,27,,,,,,,,,,,1.223,0.655,1.033*33

$GLGSA,A,3,69,71,75,77,85,,,,,,,,,,,,,,,,1.223,0.655,1.033*2D

$BDGSA,A,3,,,,,,,,,,,,,,,,,,,,,1.223,0.655,1.033*26

$QZGSA,A,3,,,,,,,,,,,,,,,,,,,,,1.223,0.655,1.033*2B

$GPGSV,8,1,27,4,5,,,7,11,297,37,8,40,296,36,10,56,137,38*43

$GPGSV,8,2,27,15,13,44,16,16,43,195,39,18,14,251,32,20,55,85,39*7E

$GPGSV,8,3,27,21,33,70,24,26,18,180,33,27,80,294,39,30,8,326,8*4D

$GLGSV,8,4,27,69,27,34,34,70,44,107,26,71,14,156,27,75,12,216,31*51

$GLGSV,8,5,27,76,35,264,,77,24,328,26,84,6,88,,85,57,62,39*5A

$GLGSV,8,6,27,86,50,300,30*55

$BDGSV,8,7,27,203,23,140,,205,17,123,,206,22,57,,209,21,86,*66

$BDGSV,8,8,27,211,23,99,,214,41,75,*6E

$GPRMC,140214.00,A,5133.5017,N,00957.6248,E,0.000,0.000,260619,,E,A*17

$GPGGA,140215.00,5133.5017,N,00957.6248,E,1,15,0.655,283.036,M,,M,0,*4B

$GNGSA,A,3,7,8,10,15,16,18,20,21,26,27,69,71,75,77,85,,,,,,1.223,0.655,1.033*2B

$GPGSA,A,3,7,8,10,15,16,18,20,21,26,27,,,,,,,,,,,1.223,0.655,1.033*33

$GLGSA,A,3,69,71,75,77,85,,,,,,,,,,,,,,,,1.223,0.655,1.033*2D

$BDGSA,A,3,,,,,,,,,,,,,,,,,,,,,1.223,0.655,1.033*26

$QZGSA,A,3,,,,,,,,,,,,,,,,,,,,,1.223,0.655,1.033*2B

$GPGSV,8,1,27,4,5,,,7,11,297,37,8,40,296,38,10,56,137,39*4C

$GPGSV,8,2,27,15,13,44,16,16,43,195,39,18,14,251,33,20,55,85,39*7F

$GPGSV,8,3,27,21,33,70,20,26,18,180,34,27,80,294,39,30,8,326,10*77

$GLGSV,8,4,27,69,27,34,33,70,44,107,27,71,14,156,26,75,12,216,31*56

$GLGSV,8,5,27,76,35,264,,77,24,328,25,84,6,88,,85,57,62,38*58

$GLGSV,8,6,27,86,50,300,31*54

$BDGSV,8,7,27,203,23,140,,205,17,123,,206,22,57,,209,21,86,*66

$BDGSV,8,8,27,211,23,99,,214,41,75,*6E

$GPRMC,140215.00,A,5133.5017,N,00957.6248,E,0.000,0.000,260619,,E,A*16

$GPGGA,140216.00,5133.5017,N,00957.6248,E,1,15,0.655,283.036,M,,M,0,*48

$GNGSA,A,3,7,8,10,15,16,18,20,21,26,27,69,71,75,77,85,,,,,,1.223,0.655,1.033*2B

$GPGSA,A,3,7,8,10,15,16,18,20,21,26,27,,,,,,,,,,,1.223,0.655,1.033*33

$GLGSA,A,3,69,71,75,77,85,,,,,,,,,,,,,,,,1.223,0.655,1.033*2D

$BDGSA,A,3,,,,,,,,,,,,,,,,,,,,,1.223,0.655,1.033*26

$QZGSA,A,3,,,,,,,,,,,,,,,,,,,,,1.223,0.655,1.033*2B

$GPGSV,8,1,27,4,5,,,7,11,297,38,8,40,296,38,10,56,137,39*43

$GPGSV,8,2,27,15,13,44,17,16,43,195,38,18,14,251,32,20,55,85,38*7F

$GPGSV,8,3,27,21,33,70,23,26,18,180,33,27,80,294,39,30,8,326,10*73

$GLGSV,8,4,27,69,27,34,32,70,44,107,26,71,14,156,27,75,12,216,33*55

$GLGSV,8,5,27,76,35,264,,77,24,328,25,84,6,88,,85,57,62,39*59

$GLGSV,8,6,27,86,50,300,31*54

$BDGSV,8,7,27,203,23,140,,205,17,123,,206,22,57,,209,21,86,*66

$BDGSV,8,8,27,211,23,99,,214,41,75,*6E

$GPRMC,140216.00,A,5133.5017,N,00957.6248,E,0.000,0.000,260619,,E,A*15

$GPGGA,140217.00,5133.5017,N,00957.6248,E,1,15,0.655,283.036,M,,M,0,*49

$GNGSA,A,3,7,8,10,15,16,18,20,21,26,27,69,71,75,77,85,,,,,,1.223,0.655,1.033*2B

$GPGSA,A,3,7,8,10,15,16,18,20,21,26,27,,,,,,,,,,,1.223,0.655,1.033*33

$GLGSA,A,3,69,71,75,77,85,,,,,,,,,,,,,,,,1.223,0.655,1.033*2D

$BDGSA,A,3,,,,,,,,,,,,,,,,,,,,,1.223,0.655,1.033*26

$QZGSA,A,3,,,,,,,,,,,,,,,,,,,,,1.223,0.655,1.033*2B

$GPGSV,8,1,27,4,5,,,7,11,297,37,8,40,296,38,10,56,137,39*4C

$GPGSV,8,2,27,15,13,43,18,16,43,195,38,18,14,251,31,20,55,85,39*75

$GPGSV,8,3,27,21,33,70,26,26,18,180,31,27,80,294,39,30,8,326,8*4D

$GLGSV,8,4,27,69,27,34,33,70,44,107,25,71,14,156,22,75,12,216,32*53

$GLGSV,8,5,27,76,35,264,,77,24,328,24,84,6,88,,85,57,62,39*58

$GLGSV,8,6,27,86,50,300,30*55

$BDGSV,8,7,27,203,23,140,,205,17,123,,206,22,57,,209,21,86,*66

$BDGSV,8,8,27,211,23,99,,214,41,75,*6E

$GPRMC,140217.00,A,5133.5017,N,00957.6248,E,0.000,0.000,260619,,E,A*14

$GPGGA,140218.00,5133.5017,N,00957.6248,E,1,15,0.655,283.036,M,,M,0,*46

$GNGSA,A,3,7,8,10,15,16,18,20,21,26,27,69,71,75,77,85,,,,,,1.223,0.655,1.033*2B

$GPGSA,A,3,7,8,10,15,16,18,20,21,26,27,,,,,,,,,,,1.223,0.655,1.033*33

$GLGSA,A,3,69,71,75,77,85,,,,,,,,,,,,,,,,1.223,0.655,1.033*2D

$BDGSA,A,3,,,,,,,,,,,,,,,,,,,,,1.223,0.655,1.033*26

$QZGSA,A,3,,,,,,,,,,,,,,,,,,,,,1.223,0.655,1.033*2B

$GPGSV,8,1,27,4,5,,,7,11,297,37,8,40,296,38,10,56,137,38*4D

$GPGSV,8,2,27,15,13,43,25,16,43,195,38,18,14,251,31,20,55,85,38*7A

$GPGSV,8,3,27,21,33,70,24,26,18,180,30,27,80,294,38,30,8,326,8*4F

$GLGSV,8,4,27,69,27,34,31,70,44,107,23,71,14,156,19,75,12,216,33*5E

$GLGSV,8,5,27,76,35,264,,77,24,328,24,84,6,88,,85,57,62,38*59

$GLGSV,8,6,27,86,50,300,29*5D

$BDGSV,8,7,27,203,23,140,,205,17,123,,206,22,57,,209,21,86,*66

$BDGSV,8,8,27,211,23,99,,214,41,75,*6E

$GPRMC,140218.00,A,5133.5017,N,00957.6248,E,0.000,0.000,260619,,E,A*1B

$GPGGA,140219.00,5133.5017,N,00957.6248,E,1,15,0.655,283.036,M,,M,0,*47

$GNGSA,A,3,7,8,10,15,16,18,20,21,26,27,69,71,75,77,85,,,,,,1.223,0.655,1.033*2B

$GPGSA,A,3,7,8,10,15,16,18,20,21,26,27,,,,,,,,,,,1.223,0.655,1.033*33

$GLGSA,A,3,69,71,75,77,85,,,,,,,,,,,,,,,,1.223,0.655,1.033*2D

$BDGSA,A,3,,,,,,,,,,,,,,,,,,,,,1.223,0.655,1.033*26

$QZGSA,A,3,,,,,,,,,,,,,,,,,,,,,1.223,0.655,1.033*2B

$GPGSV,8,1,27,4,5,,,7,11,297,37,8,40,296,38,10,56,137,38*4D

$GPGSV,8,2,27,15,13,43,22,16,43,195,38,18,14,251,31,20,55,85,39*7C

$GPGSV,8,3,27,21,33,70,22,26,18,180,30,27,80,294,39,30,8,326,10*71

$GLGSV,8,4,27,69,27,34,32,70,44,107,23,71,14,156,20,75,12,216,32*56

$GLGSV,8,5,27,76,35,264,,77,24,328,23,84,6,88,,85,57,62,38*5E

$GLGSV,8,6,27,86,50,300,28*5C

$BDGSV,8,7,27,203,23,140,,205,17,123,,206,22,57,,209,21,86,*66

$BDGSV,8,8,27,211,23,99,,214,41,75,*6E

$GPRMC,140219.00,A,5133.5017,N,00957.6248,E,0.000,0.000,260619,,E,A*1A

$GPGGA,140220.00,5133.5017,N,00957.6248,E,1,15,0.655,283.036,M,,M,0,*4D

$GNGSA,A,3,7,8,10,15,16,18,20,21,26,27,69,71,75,77,85,,,,,,1.223,0.655,1.033*2B

$GPGSA,A,3,7,8,10,15,16,18,20,21,26,27,,,,,,,,,,,1.223,0.655,1.033*33

$GLGSA,A,3,69,71,75,77,85,,,,,,,,,,,,,,,,1.223,0.655,1.033*2D

$BDGSA,A,3,,,,,,,,,,,,,,,,,,,,,1.223,0.655,1.033*26

$QZGSA,A,3,,,,,,,,,,,,,,,,,,,,,1.223,0.655,1.033*2B

$GPGSV,8,1,27,4,5,,,7,11,297,36,8,40,296,38,10,56,137,39*4D

$GPGSV,8,2,27,15,13,43,21,16,43,195,38,18,14,251,31,20,55,85,39*7F

$GPGSV,8,3,27,21,33,70,24,26,18,180,30,27,80,294,39,30,8,326,8*4E

$GLGSV,8,4,27,69,27,34,32,70,44,107,25,71,14,156,19,75,12,216,31*59

$GLGSV,8,5,27,76,35,264,,77,24,328,24,84,6,88,,85,57,62,37*56

$GLGSV,8,6,27,86,50,300,29*5D

$BDGSV,8,7,27,203,23,140,,205,17,123,,206,22,57,,209,21,86,*66

$BDGSV,8,8,27,211,23,99,,214,41,75,*6E

$GPRMC,140220.00,A,5133.5017,N,00957.6248,E,0.000,0.000,260619,,E,A*10

$GPGGA,140221.00,5133.5017,N,00957.6248,E,1,15,0.655,283.036,M,,M,0,*4C

$GNGSA,A,3,7,8,10,15,16,18,20,21,26,27,69,71,75,77,85,,,,,,1.223,0.655,1.033*2B

$GPGSA,A,3,7,8,10,15,16,18,20,21,26,27,,,,,,,,,,,1.223,0.655,1.033*33

$GLGSA,A,3,69,71,75,77,85,,,,,,,,,,,,,,,,1.223,0.655,1.033*2D

$BDGSA,A,3,,,,,,,,,,,,,,,,,,,,,1.223,0.655,1.033*26

$QZGSA,A,3,,,,,,,,,,,,,,,,,,,,,1.223,0.655,1.033*2B

$GPGSV,8,1,27,4,5,,,7,11,297,36,8,40,296,38,10,56,137,37*43

$GPGSV,8,2,27,15,13,43,21,16,43,195,39,18,14,251,32,20,55,85,39*7D

$GPGSV,8,3,27,21,33,70,26,26,18,180,30,27,80,294,38,30,8,326,8*4D

$GLGSV,8,4,27,69,27,34,32,70,44,107,24,71,14,156,19,75,12,216,30*59

$GLGSV,8,5,27,76,35,264,,77,24,328,23,84,6,88,,85,57,62,38*5E

$GLGSV,8,6,27,86,50,300,30*55

$BDGSV,8,7,27,203,23,140,,205,17,123,,206,22,57,,209,21,86,*66

$BDGSV,8,8,27,211,23,99,,214,41,75,23*6F

$GPRMC,140221.00,A,5133.5017,N,00957.6248,E,0.000,0.000,260619,,E,A*11

$GPGGA,140222.00,5133.5017,N,00957.6248,E,1,15,0.655,283.036,M,,M,0,*4F

$GNGSA,A,3,7,8,10,15,16,18,20,21,26,27,69,71,75,77,85,,,,,,1.223,0.655,1.033*2B

$GPGSA,A,3,7,8,10,15,16,18,20,21,26,27,,,,,,,,,,,1.223,0.655,1.033*33

$GLGSA,A,3,69,71,75,77,85,,,,,,,,,,,,,,,,1.223,0.655,1.033*2D

$BDGSA,A,3,,,,,,,,,,,,,,,,,,,,,1.223,0.655,1.033*26

$QZGSA,A,3,,,,,,,,,,,,,,,,,,,,,1.223,0.655,1.033*2B

$GPGSV,8,1,27,4,5,,,7,11,297,36,8,40,296,37,10,56,137,37*4C

$GPGSV,8,2,27,15,13,43,23,16,43,195,39,18,14,251,31,20,55,85,40*72

$GPGSV,8,3,27,21,33,70,25,26,18,180,30,27,80,294,38,30,8,326,8*4E

$GLGSV,8,4,27,69,27,34,34,70,44,107,26,71,14,156,31,75,12,216,33*54

$GLGSV,8,5,27,76,35,264,,77,24,328,25,84,6,88,,85,57,62,38*58

$GLGSV,8,6,27,86,50,300,31*54

$BDGSV,8,7,27,203,23,140,,205,17,123,,206,22,57,,209,21,86,*66

$BDGSV,8,8,27,211,23,99,,214,41,75,23*6F

$GPRMC,140222.00,A,5133.5017,N,00957.6248,E,0.000,0.000,260619,,E,A*12

$GPGGA,140223.00,5133.5017,N,00957.6248,E,1,15,0.655,283.036,M,,M,0,*4E

$GNGSA,A,3,7,8,10,15,16,18,20,21,26,27,69,71,75,77,85,,,,,,1.223,0.655,1.033*2B

$GPGSA,A,3,7,8,10,15,16,18,20,21,26,27,,,,,,,,,,,1.223,0.655,1.033*33

$GLGSA,A,3,69,71,75,77,85,,,,,,,,,,,,,,,,1.223,0.655,1.033*2D

$BDGSA,A,3,,,,,,,,,,,,,,,,,,,,,1.223,0.655,1.033*26

$QZGSA,A,3,,,,,,,,,,,,,,,,,,,,,1.223,0.655,1.033*2B

$GPGSV,8,1,27,4,5,,,7,11,297,37,8,40,296,38,10,56,137,36*43

$GPGSV,8,2,27,15,13,43,24,16,43,195,39,18,14,251,33,20,55,84,39*78

$GPGSV,8,3,27,21,33,70,21,26,18,180,29,27,80,294,38,30,8,326,11*7A

$GLGSV,8,4,27,69,27,34,33,70,44,107,23,71,14,156,21,75,12,216,32*56

$GLGSV,8,5,27,76,35,264,,77,24,328,23,84,6,88,,85,57,62,38*5E

$GLGSV,8,6,27,86,50,300,31*54

$BDGSV,8,7,27,203,23,140,,205,17,123,,206,22,57,,209,21,86,*66

$BDGSV,8,8,27,211,23,99,,214,41,75,23*6F

$GPRMC,140223.00,A,5133.5017,N,00957.6248,E,0.000,0.000,260619,,E,A*13

$GPGGA,140224.00,5133.5017,N,00957.6248,E,1,15,0.655,283.036,M,,M,0,*49

$GNGSA,A,3,7,8,10,15,16,18,20,21,26,27,69,71,75,77,85,,,,,,1.223,0.655,1.033*2B

$GPGSA,A,3,7,8,10,15,16,18,20,21,26,27,,,,,,,,,,,1.223,0.655,1.033*33

$GLGSA,A,3,69,71,75,77,85,,,,,,,,,,,,,,,,1.223,0.655,1.033*2D

$BDGSA,A,3,,,,,,,,,,,,,,,,,,,,,1.223,0.655,1.033*26

$QZGSA,A,3,,,,,,,,,,,,,,,,,,,,,1.223,0.655,1.033*2B

$GPGSV,8,1,27,4,5,,,7,11,297,35,8,40,296,37,10,56,137,37*4F

$GPGSV,8,2,27,15,13,43,24,16,43,195,40,18,14,251,31,20,55,84,40*7A

$GPGSV,8,3,27,21,33,70,18,26,18,180,29,27,80,294,37,30,8,326,14*7A

$GLGSV,8,4,27,69,27,34,34,70,44,107,26,71,14,156,31,75,12,216,35*52

$GLGSV,8,5,27,76,35,264,,77,24,328,25,84,6,88,,85,57,62,38*58

$GLGSV,8,6,27,86,50,300,30*55

$BDGSV,8,7,27,203,23,140,,205,17,123,,206,22,57,,209,21,86,*66

$BDGSV,8,8,27,211,23,99,,214,41,75,23*6F

$GPRMC,140224.00,A,5133.5017,N,00957.6248,E,0.000,0.000,260619,,E,A*14

$GPGGA,140225.00,5133.5017,N,00957.6248,E,1,15,0.655,283.036,M,,M,0,*48

$GNGSA,A,3,7,8,10,15,16,18,20,21,26,27,69,71,75,77,85,,,,,,1.223,0.655,1.033*2B

$GPGSA,A,3,7,8,10,15,16,18,20,21,26,27,,,,,,,,,,,1.223,0.655,1.033*33

$GLGSA,A,3,69,71,75,77,85,,,,,,,,,,,,,,,,1.223,0.655,1.033*2D

$BDGSA,A,3,,,,,,,,,,,,,,,,,,,,,1.223,0.655,1.033*26

$QZGSA,A,3,,,,,,,,,,,,,,,,,,,,,1.223,0.655,1.033*2B

$GPGSV,8,1,27,4,5,,,7,11,297,34,8,40,296,37,10,56,137,36*4F

$GPGSV,8,2,27,15,13,43,23,16,43,195,41,18,14,251,26,20,55,84,39*74

$GPGSV,8,3,27,21,33,70,20,26,18,180,26,27,80,294,37,30,8,326,15*7F

$GLGSV,8,4,27,69,27,34,34,70,44,107,26,71,14,156,33,75,11,216,37*51

$GLGSV,8,5,27,76,35,264,,77,24,328,27,84,6,88,,85,57,62,37*55

$GLGSV,8,6,27,86,50,300,31*54

$BDGSV,8,7,27,203,23,140,,205,17,123,,206,22,57,,209,21,86,*66

$BDGSV,8,8,27,211,23,99,,214,41,75,*6E

$GPRMC,140225.00,A,5133.5017,N,00957.6248,E,0.000,0.000,260619,,E,A*15

$GPGGA,140226.00,5133.5017,N,00957.6248,E,1,15,0.655,283.036,M,,M,0,*4B

$GNGSA,A,3,7,8,10,15,16,18,20,21,26,27,69,71,75,77,85,,,,,,1.223,0.655,1.033*2B

$GPGSA,A,3,7,8,10,15,16,18,20,21,26,27,,,,,,,,,,,1.223,0.655,1.033*33

$GLGSA,A,3,69,71,75,77,85,,,,,,,,,,,,,,,,1.223,0.655,1.033*2D

$BDGSA,A,3,,,,,,,,,,,,,,,,,,,,,1.223,0.655,1.033*26

$QZGSA,A,3,,,,,,,,,,,,,,,,,,,,,1.223,0.655,1.033*2B

$GPGSV,8,1,27,4,5,,,7,11,297,34,8,40,296,38,10,56,137,36*40

$GPGSV,8,2,27,15,13,43,21,16,43,195,40,18,14,251,27,20,55,84,39*76

$GPGSV,8,3,27,21,33,70,20,26,18,180,27,27,80,294,37,30,8,326,14*7F

$GLGSV,8,4,27,69,27,34,34,70,44,107,27,71,14,156,33,75,11,216,37*50

$GLGSV,8,5,27,76,35,264,,77,24,328,28,84,6,88,,85,57,62,36*5B

$GLGSV,8,6,27,86,50,300,32*57

$BDGSV,8,7,27,203,23,140,,205,17,123,,206,22,57,,209,21,86,*66

$BDGSV,8,8,27,211,23,99,,214,41,75,*6E

$GPRMC,140226.00,A,5133.5017,N,00957.6248,E,0.000,0.000,260619,,E,A*16

$GPGGA,140227.00,5133.5017,N,00957.6248,E,1,15,0.655,283.036,M,,M,0,*4A

$GNGSA,A,3,7,8,10,15,16,18,20,21,26,27,69,71,75,77,85,,,,,,1.223,0.655,1.033*2B

$GPGSA,A,3,7,8,10,15,16,18,20,21,26,27,,,,,,,,,,,1.223,0.655,1.033*33

$GLGSA,A,3,69,71,75,77,85,,,,,,,,,,,,,,,,1.223,0.655,1.033*2D

$BDGSA,A,3,,,,,,,,,,,,,,,,,,,,,1.223,0.655,1.033*26

$QZGSA,A,3,,,,,,,,,,,,,,,,,,,,,1.223,0.655,1.033*2B

$GPGSV,8,1,27,4,5,,,7,11,297,34,8,40,296,38,10,56,137,36*40

$GPGSV,8,2,27,15,13,43,24,16,43,195,41,18,14,251,29,20,55,84,39*7C

$GPGSV,8,3,27,21,33,70,19,26,18,180,26,27,80,294,38,30,8,326,14*7B

$GLGSV,8,4,27,69,27,34,34,70,44,107,27,71,14,156,33,75,11,216,36*51

$GLGSV,8,5,27,76,35,264,,77,24,328,27,84,6,88,,85,57,62,35*57

$GLGSV,8,6,27,86,50,300,33*56

$BDGSV,8,7,27,203,23,140,,205,17,123,,206,22,57,,209,21,86,*66

$BDGSV,8,8,27,211,23,99,,214,41,75,*6E

$GPRMC,140227.00,A,5133.5017,N,00957.6248,E,0.000,0.000,260619,,E,A*17

$GPGGA,140228.00,5133.5017,N,00957.6248,E,1,15,0.655,283.036,M,,M,0,*45

$GNGSA,A,3,7,8,10,15,16,18,20,21,26,27,69,71,75,77,85,,,,,,1.223,0.655,1.033*2B

$GPGSA,A,3,7,8,10,15,16,18,20,21,26,27,,,,,,,,,,,1.223,0.655,1.033*33

$GLGSA,A,3,69,71,75,77,85,,,,,,,,,,,,,,,,1.223,0.655,1.033*2D

$BDGSA,A,3,,,,,,,,,,,,,,,,,,,,,1.223,0.655,1.033*26

$QZGSA,A,3,,,,,,,,,,,,,,,,,,,,,1.223,0.655,1.033*2B

$GPGSV,8,1,27,4,5,,,7,11,297,34,8,40,296,38,10,56,137,36*40

$GPGSV,8,2,27,15,13,43,24,16,43,195,41,18,14,251,28,20,55,84,39*7D

$GPGSV,8,3,27,21,33,70,18,26,18,180,25,27,80,294,38,30,8,326,13*7E

$GLGSV,8,4,27,69,27,34,34,70,44,107,26,71,14,156,34,75,11,216,36*57

$GLGSV,8,5,27,76,35,264,,77,24,328,26,84,6,88,,85,57,62,35*56

$GLGSV,8,6,27,86,50,300,33*56

$BDGSV,8,7,27,203,23,140,,205,17,123,,206,22,57,,209,21,86,*66

$BDGSV,8,8,27,211,23,99,,214,41,75,23*6F

$GPRMC,140228.00,A,5133.5017,N,00957.6248,E,0.000,0.000,260619,,E,A*18

$GPGGA,140229.00,5133.5017,N,00957.6248,E,1,15,0.655,283.036,M,,M,0,*44

$GNGSA,A,3,7,8,10,15,16,18,20,21,26,27,69,71,75,77,85,,,,,,1.223,0.655,1.033*2B

$GPGSA,A,3,7,8,10,15,16,18,20,21,26,27,,,,,,,,,,,1.223,0.655,1.033*33

$GLGSA,A,3,69,71,75,77,85,,,,,,,,,,,,,,,,1.223,0.655,1.033*2D

$BDGSA,A,3,,,,,,,,,,,,,,,,,,,,,1.223,0.655,1.033*26

$QZGSA,A,3,,,,,,,,,,,,,,,,,,,,,1.223,0.655,1.033*2B

$GPGSV,8,1,27,4,5,,,7,11,297,33,8,40,296,38,10,56,137,38*49

$GPGSV,8,2,27,15,13,43,23,16,43,195,41,18,14,251,26,20,55,84,39*74

$GPGSV,8,3,27,21,33,70,19,26,18,180,26,27,80,294,38,30,8,326,10*7F

$GLGSV,8,4,27,69,27,34,33,70,44,107,28,71,14,156,32,75,11,216,36*58

$GLGSV,8,5,27,76,35,264,,77,24,328,26,84,6,88,,85,57,62,35*56

$GLGSV,8,6,27,86,50,300,33*56

$BDGSV,8,7,27,203,23,140,,205,17,123,,206,22,57,,209,21,86,*66

$BDGSV,8,8,27,211,23,99,,214,41,75,23*6F

$GPRMC,140229.00,A,5133.5017,N,00957.6248,E,0.000,0.000,260619,,E,A*19

$GPGGA,140230.00,5133.5017,N,00957.6248,E,1,15,0.655,283.036,M,,M,0,*4C

$GNGSA,A,3,7,8,10,15,16,18,20,21,26,27,69,71,75,77,85,,,,,,1.223,0.655,1.033*2B

$GPGSA,A,3,7,8,10,15,16,18,20,21,26,27,,,,,,,,,,,1.223,0.655,1.033*33

$GLGSA,A,3,69,71,75,77,85,,,,,,,,,,,,,,,,1.223,0.655,1.033*2D

$BDGSA,A,3,,,,,,,,,,,,,,,,,,,,,1.223,0.655,1.033*26

$QZGSA,A,3,,,,,,,,,,,,,,,,,,,,,1.223,0.655,1.033*2B

$GPGSV,8,1,27,4,5,,,7,11,297,34,8,40,296,38,10,56,137,37*41

$GPGSV,8,2,27,15,13,43,21,16,43,195,37,18,14,251,28,20,55,84,40*77

$GPGSV,8,3,27,21,33,70,19,26,18,180,25,27,80,294,38,30,8,326,8*45

$GLGSV,8,4,27,69,27,34,33,70,44,107,22,71,14,156,30,75,11,216,34*52

$GLGSV,8,5,27,76,35,264,,77,24,328,27,84,6,88,,85,57,62,35*57

$GLGSV,8,6,27,86,50,300,34*51

$BDGSV,8,7,27,203,23,140,,205,17,123,,206,22,57,,209,21,86,*66

$BDGSV,8,8,27,211,23,99,,214,41,75,23*6F

$GPRMC,140230.00,A,5133.5017,N,00957.6248,E,0.000,0.000,260619,,E,A*11

$GPGGA,140231.00,5133.5017,N,00957.6248,E,1,15,0.655,283.036,M,,M,0,*4D

$GNGSA,A,3,7,8,10,15,16,18,20,21,26,27,69,71,75,77,85,,,,,,1.223,0.655,1.033*2B

$GPGSA,A,3,7,8,10,15,16,18,20,21,26,27,,,,,,,,,,,1.223,0.655,1.033*33

$GLGSA,A,3,69,71,75,77,85,,,,,,,,,,,,,,,,1.223,0.655,1.033*2D

$BDGSA,A,3,,,,,,,,,,,,,,,,,,,,,1.223,0.655,1.033*26

$QZGSA,A,3,,,,,,,,,,,,,,,,,,,,,1.223,0.655,1.033*2B

$GPGSV,8,1,27,4,5,,,7,11,297,32,8,40,296,39,10,56,137,35*44

$GPGSV,8,2,27,15,13,43,18,16,43,195,36,18,14,251,30,20,55,84,40*75

$GPGSV,8,3,27,21,33,70,19,26,18,180,27,27,80,294,38,30,8,326,8*47

$GLGSV,8,4,27,69,27,34,34,70,44,107,24,71,14,156,30,75,11,216,36*51

$GLGSV,8,5,27,76,35,264,,77,24,328,30,84,6,88,,85,57,62,35*51

$GLGSV,8,6,27,86,50,300,35*50

$BDGSV,8,7,27,203,23,140,23,205,17,123,,206,22,57,,209,21,86,*67

$BDGSV,8,8,27,211,23,99,,214,41,75,23*6F

$GPRMC,140231.00,A,5133.5017,N,00957.6248,E,0.000,0.000,260619,,E,A*10

$GPGGA,140232.00,5133.5017,N,00957.6248,E,1,15,0.655,283.036,M,,M,0,*4E

$GNGSA,A,3,7,8,10,15,16,18,20,21,26,27,69,71,75,77,85,,,,,,1.223,0.655,1.033*2B

$GPGSA,A,3,7,8,10,15,16,18,20,21,26,27,,,,,,,,,,,1.223,0.655,1.033*33

$GLGSA,A,3,69,71,75,77,85,,,,,,,,,,,,,,,,1.223,0.655,1.033*2D

$BDGSA,A,3,,,,,,,,,,,,,,,,,,,,,1.223,0.655,1.033*26

$QZGSA,A,3,,,,,,,,,,,,,,,,,,,,,1.223,0.655,1.033*2B

$GPGSV,8,1,27,4,5,,,7,11,297,30,8,40,296,38,10,56,137,39*4B

$GPGSV,8,2,27,15,13,43,19,16,43,195,38,18,14,251,30,20,55,84,38*75

$GPGSV,8,3,27,21,33,70,19,26,18,180,24,27,80,294,37,30,8,326,9*4A

$GLGSV,8,4,27,69,27,34,33,70,44,107,22,71,14,156,32,75,11,216,36*52

$GLGSV,8,5,27,76,35,264,,77,24,328,30,84,6,88,,85,57,62,36*52

$GLGSV,8,6,27,86,50,300,34*51

$BDGSV,8,7,27,203,23,140,21,205,17,123,,206,22,57,,209,21,86,*65

$BDGSV,8,8,27,211,23,99,,214,41,75,14*6B

$GPRMC,140232.00,A,5133.5017,N,00957.6248,E,0.000,0.000,260619,,E,A*13

$GPGGA,140233.00,5133.5017,N,00957.6248,E,1,16,0.631,283.036,M,,M,0,*4E

$GNGSA,A,3,7,8,10,15,16,18,20,21,26,27,30,69,71,75,77,85,,,,,1.177,0.631,0.994*2D

$GPGSA,A,3,7,8,10,15,16,18,20,21,26,27,30,,,,,,,,,,1.177,0.631,0.994*35

$GLGSA,A,3,69,71,75,77,85,,,,,,,,,,,,,,,,1.177,0.631,0.994*28

$BDGSA,A,3,,,,,,,,,,,,,,,,,,,,,1.177,0.631,0.994*23

$QZGSA,A,3,,,,,,,,,,,,,,,,,,,,,1.177,0.631,0.994*2E

$GPGSV,8,1,27,4,5,,,7,11,297,28,8,40,296,38,10,56,137,41*4D

$GPGSV,8,2,27,15,13,43,20,16,43,195,37,18,14,251,29,20,55,84,38*78

$GPGSV,8,3,27,21,33,71,19,26,18,180,31,27,80,294,36,30,8,326,10*76

$GLGSV,8,4,27,69,27,34,34,70,44,107,21,71,14,156,33,75,11,216,37*56

$GLGSV,8,5,27,76,35,264,,77,24,328,31,84,6,88,,85,57,62,35*50

$GLGSV,8,6,27,86,50,300,34*51

$BDGSV,8,7,27,203,23,140,19,205,17,123,,206,22,57,,209,21,86,*6E

$BDGSV,8,8,27,211,23,99,,214,41,75,20*6C

$GPRMC,140233.00,A,5133.5017,N,00957.6248,E,0.000,0.000,260619,,E,A*12

$GPGGA,140234.00,5133.5017,N,00957.6248,E,1,16,0.631,283.036,M,,M,0,*49

$GNGSA,A,3,7,8,10,15,16,18,20,21,26,27,30,69,71,75,77,85,,,,,1.177,0.631,0.994*2D

$GPGSA,A,3,7,8,10,15,16,18,20,21,26,27,30,,,,,,,,,,1.177,0.631,0.994*35

$GLGSA,A,3,69,71,75,77,85,,,,,,,,,,,,,,,,1.177,0.631,0.994*28

$BDGSA,A,3,,,,,,,,,,,,,,,,,,,,,1.177,0.631,0.994*23

$QZGSA,A,3,,,,,,,,,,,,,,,,,,,,,1.177,0.631,0.994*2E

$GPGSV,8,1,27,4,5,,,7,11,297,29,8,40,296,38,10,56,137,41*4C

$GPGSV,8,2,27,15,13,43,19,16,43,195,37,18,14,251,29,20,55,84,38*72

$GPGSV,8,3,27,21,33,71,23,26,18,180,31,27,80,294,36,30,8,326,8*46

$GLGSV,8,4,27,69,27,34,34,70,44,107,23,71,14,156,33,75,11,216,35*56

$GLGSV,8,5,27,76,35,264,,77,24,328,31,84,6,88,,85,57,62,36*53

$GLGSV,8,6,27,86,50,300,34*51

$BDGSV,8,7,27,203,23,140,19,205,17,123,,206,22,57,,209,21,86,*6E

$BDGSV,8,8,27,211,23,99,,214,41,75,23*6F

$GPRMC,140234.00,A,5133.5017,N,00957.6248,E,0.000,0.000,260619,,E,A*15

$GPGGA,140235.00,5133.5017,N,00957.6248,E,1,16,0.631,283.036,M,,M,0,*48

$GNGSA,A,3,7,8,10,15,16,18,20,21,26,27,30,69,71,75,77,85,,,,,1.177,0.631,0.994*2D

$GPGSA,A,3,7,8,10,15,16,18,20,21,26,27,30,,,,,,,,,,1.177,0.631,0.994*35

$GLGSA,A,3,69,71,75,77,85,,,,,,,,,,,,,,,,1.177,0.631,0.994*28

$BDGSA,A,3,,,,,,,,,,,,,,,,,,,,,1.177,0.631,0.994*23

$QZGSA,A,3,,,,,,,,,,,,,,,,,,,,,1.177,0.631,0.994*2E

$GPGSV,8,1,27,4,5,,,7,11,297,29,8,40,296,38,10,56,137,41*4C

$GPGSV,8,2,27,15,13,43,18,16,43,195,37,18,14,251,29,20,55,84,38*73

$GPGSV,8,3,27,21,33,71,19,26,18,180,29,27,80,294,37,30,8,326,8*47

$GLGSV,8,4,27,69,27,34,34,70,44,107,22,71,14,156,33,75,11,216,35*57

$GLGSV,8,5,27,76,35,264,,77,24,328,30,84,6,88,,85,57,62,36*52

$GLGSV,8,6,27,86,50,300,35*50

$BDGSV,8,7,27,203,23,140,,205,17,123,23,206,22,57,,209,21,86,*67

$BDGSV,8,8,27,211,23,99,23,214,41,75,21*6C

$GPRMC,140235.00,A,5133.5017,N,00957.6248,E,0.000,0.000,260619,,E,A*14

$GPGGA,140236.00,5133.5017,N,00957.6248,E,1,16,0.631,283.036,M,,M,0,*4B

$GNGSA,A,3,7,8,10,15,16,18,20,21,26,27,30,69,71,75,77,85,,,,,1.177,0.631,0.994*2D

$GPGSA,A,3,7,8,10,15,16,18,20,21,26,27,30,,,,,,,,,,1.177,0.631,0.994*35

$GLGSA,A,3,69,71,75,77,85,,,,,,,,,,,,,,,,1.177,0.631,0.994*28

$BDGSA,A,3,,,,,,,,,,,,,,,,,,,,,1.177,0.631,0.994*23

$QZGSA,A,3,,,,,,,,,,,,,,,,,,,,,1.177,0.631,0.994*2E

$GPGSV,8,1,27,4,5,,,7,11,297,26,8,40,296,38,10,56,137,42*40

$GPGSV,8,2,27,15,13,43,19,16,43,195,37,18,14,251,30,20,55,84,38*7A

$GPGSV,8,3,27,21,33,71,19,26,18,180,30,27,80,294,38,30,8,326,8*40

$GLGSV,8,4,27,69,27,34,34,70,44,107,23,71,14,156,32,75,11,216,35*57

$GLGSV,8,5,27,76,35,264,,77,24,327,29,84,6,88,,85,57,62,36*55

$GLGSV,8,6,27,86,50,300,35*50

$BDGSV,8,7,27,203,23,140,,205,17,123,16,206,22,57,,209,21,86,23*60

$BDGSV,8,8,27,211,23,99,23,214,41,75,22*6F

$GPRMC,140236.00,A,5133.5017,N,00957.6248,E,0.000,0.000,260619,,E,A*17

$GPGGA,140237.00,5133.5017,N,00957.6248,E,1,16,0.631,283.036,M,,M,0,*4A

$GNGSA,A,3,7,8,10,15,16,18,20,21,26,27,30,69,71,75,77,85,,,,,1.177,0.631,0.994*2D

$GPGSA,A,3,7,8,10,15,16,18,20,21,26,27,30,,,,,,,,,,1.177,0.631,0.994*35

$GLGSA,A,3,69,71,75,77,85,,,,,,,,,,,,,,,,1.177,0.631,0.994*28

$BDGSA,A,3,,,,,,,,,,,,,,,,,,,,,1.177,0.631,0.994*23

$QZGSA,A,3,,,,,,,,,,,,,,,,,,,,,1.177,0.631,0.994*2E

$GPGSV,8,1,27,4,5,,,7,11,297,28,8,40,296,38,10,56,137,42*4E

$GPGSV,8,2,27,15,13,43,22,16,43,195,38,18,14,251,30,20,55,84,38*7D

$GPGSV,8,3,27,21,33,71,22,26,18,180,31,27,80,294,39,30,8,326,9*49

$GLGSV,8,4,27,69,27,34,33,70,44,107,22,71,14,156,32,75,11,216,35*51

$GLGSV,8,5,27,76,35,264,,77,24,327,29,84,6,88,,85,57,62,37*54

$GLGSV,8,6,27,86,50,300,35*50

$BDGSV,8,7,27,203,23,140,,205,17,123,16,206,22,57,,209,21,86,23*60

$BDGSV,8,8,27,211,23,99,23,214,41,75,23*6E

$GPRMC,140237.00,A,5133.5017,N,00957.6248,E,0.000,0.000,260619,,E,A*16

$GPGGA,140238.00,5133.5017,N,00957.6248,E,1,16,0.631,283.036,M,,M,0,*45

$GNGSA,A,3,7,8,10,15,16,18,20,21,26,27,30,69,71,75,77,85,,,,,1.177,0.631,0.994*2D

$GPGSA,A,3,7,8,10,15,16,18,20,21,26,27,30,,,,,,,,,,1.177,0.631,0.994*35

$GLGSA,A,3,69,71,75,77,85,,,,,,,,,,,,,,,,1.177,0.631,0.994*28

$BDGSA,A,3,,,,,,,,,,,,,,,,,,,,,1.177,0.631,0.994*23

$QZGSA,A,3,,,,,,,,,,,,,,,,,,,,,1.177,0.631,0.994*2E

$GPGSV,8,1,27,4,5,,,7,11,297,28,8,40,296,38,10,56,137,42*4E

$GPGSV,8,2,27,15,13,43,20,16,43,195,37,18,14,251,30,20,55,84,38*70

$GPGSV,8,3,27,21,33,71,24,26,18,180,31,27,80,294,39,30,8,326,12*75

$GLGSV,8,4,27,69,27,34,33,70,44,107,23,71,14,156,31,75,11,216,35*53

$GLGSV,8,5,27,76,35,264,,77,24,327,30,84,6,88,,85,57,62,36*5D

$GLGSV,8,6,27,86,50,300,36*53

$BDGSV,8,7,27,203,23,140,,205,17,123,16,206,22,57,,209,21,86,8*59

$BDGSV,8,8,27,211,23,99,23,214,41,75,24*69

$GPRMC,140238.00,A,5133.5017,N,00957.6248,E,0.000,0.000,260619,,E,A*19

$GPGGA,140239.00,5133.5017,N,00957.6248,E,1,16,0.631,283.036,M,,M,0,*44

$GNGSA,A,3,7,8,10,15,16,18,20,21,26,27,30,69,71,75,77,85,,,,,1.177,0.631,0.994*2D

$GPGSA,A,3,7,8,10,15,16,18,20,21,26,27,30,,,,,,,,,,1.177,0.631,0.994*35

$GLGSA,A,3,69,71,75,77,85,,,,,,,,,,,,,,,,1.177,0.631,0.994*28

$BDGSA,A,3,,,,,,,,,,,,,,,,,,,,,1.177,0.631,0.994*23

$QZGSA,A,3,,,,,,,,,,,,,,,,,,,,,1.177,0.631,0.994*2E

$GPGSV,8,1,27,4,5,,,7,11,297,30,8,40,296,38,10,56,137,41*44

$GPGSV,8,2,27,15,13,43,19,16,43,195,37,18,14,251,30,20,55,84,39*7B

$GPGSV,8,3,27,21,33,71,22,26,18,180,32,27,80,294,39,30,8,326,14*76

$GLGSV,8,4,27,69,27,34,32,70,44,107,24,71,14,156,31,75,11,216,35*55

$GLGSV,8,5,27,76,35,264,,77,24,327,30,84,6,88,,85,57,62,35*5E

$GLGSV,8,6,27,86,50,300,36*53

$BDGSV,8,7,27,203,23,140,23,205,17,123,10,206,22,57,,209,21,86,8*5E

$BDGSV,8,8,27,211,23,99,,214,41,75,24*68

$GPRMC,140239.00,A,5133.5017,N,00957.6248,E,0.000,0.000,260619,,E,A*18

$GPGGA,140240.00,5133.5017,N,00957.6248,E,1,16,0.631,283.036,M,,M,0,*4A

$GNGSA,A,3,7,8,10,15,16,18,20,21,26,27,30,69,71,75,77,85,,,,,1.177,0.631,0.994*2D

$GPGSA,A,3,7,8,10,15,16,18,20,21,26,27,30,,,,,,,,,,1.177,0.631,0.994*35

$GLGSA,A,3,69,71,75,77,85,,,,,,,,,,,,,,,,1.177,0.631,0.994*28

$BDGSA,A,3,,,,,,,,,,,,,,,,,,,,,1.177,0.631,0.994*23

$QZGSA,A,3,,,,,,,,,,,,,,,,,,,,,1.177,0.631,0.994*2E

$GPGSV,8,1,27,4,5,,,7,11,297,29,8,40,296,38,10,56,137,41*4C

$GPGSV,8,2,27,15,13,43,18,16,43,195,37,18,14,251,31,20,55,84,39*7B

$GPGSV,8,3,27,21,33,71,17,26,18,180,31,27,80,294,39,30,8,326,15*72

$GLGSV,8,4,27,69,27,34,33,70,44,107,23,71,14,156,32,75,11,216,35*50

$GLGSV,8,5,27,76,35,264,,77,24,327,30,84,6,88,,85,57,62,35*5E

$GLGSV,8,6,27,86,50,300,36*53

$BDGSV,8,7,27,203,23,140,8,205,17,123,10,206,22,57,,209,21,86,8*67

$BDGSV,8,8,27,211,23,99,,214,41,75,23*6F

$GPRMC,140240.00,A,5133.5017,N,00957.6248,E,0.000,0.000,260619,,E,A*16

$GPGGA,140241.00,5133.5017,N,00957.6248,E,1,16,0.631,283.036,M,,M,0,*4B

$GNGSA,A,3,7,8,10,15,16,18,20,21,26,27,30,69,71,75,77,85,,,,,1.177,0.631,0.994*2D

$GPGSA,A,3,7,8,10,15,16,18,20,21,26,27,30,,,,,,,,,,1.177,0.631,0.994*35

$GLGSA,A,3,69,71,75,77,85,,,,,,,,,,,,,,,,1.177,0.631,0.994*28

$BDGSA,A,3,,,,,,,,,,,,,,,,,,,,,1.177,0.631,0.994*23

$QZGSA,A,3,,,,,,,,,,,,,,,,,,,,,1.177,0.631,0.994*2E

$GPGSV,8,1,27,4,5,,,7,11,297,29,8,40,296,38,10,56,137,42*4F

$GPGSV,8,2,27,15,13,43,20,16,43,195,37,18,14,251,31,20,55,84,39*70

$GPGSV,8,3,27,21,33,71,17,26,18,180,30,27,80,294,38,30,8,326,17*70

$GLGSV,8,4,27,69,27,34,34,70,44,107,26,71,14,156,32,75,11,216,36*51

$GLGSV,8,5,27,76,35,264,,77,24,327,30,84,6,88,,85,57,62,35*5E

$GLGSV,8,6,27,86,50,300,35*50

$BDGSV,8,7,27,203,23,140,8,205,17,123,10,206,22,57,,209,21,86,*5F

$BDGSV,8,8,27,211,23,99,,214,41,75,24*68

$GPRMC,140241.00,A,5133.5017,N,00957.6248,E,0.000,0.000,260619,,E,A*17

$GPGGA,140242.00,5133.5017,N,00957.6248,E,1,16,0.631,283.036,M,,M,0,*48

$GNGSA,A,3,7,8,10,15,16,18,20,21,26,27,30,69,71,75,77,85,,,,,1.177,0.631,0.994*2D

$GPGSA,A,3,7,8,10,15,16,18,20,21,26,27,30,,,,,,,,,,1.177,0.631,0.994*35

$GLGSA,A,3,69,71,75,77,85,,,,,,,,,,,,,,,,1.177,0.631,0.994*28

$BDGSA,A,3,,,,,,,,,,,,,,,,,,,,,1.177,0.631,0.994*23

$QZGSA,A,3,,,,,,,,,,,,,,,,,,,,,1.177,0.631,0.994*2E

$GPGSV,8,1,27,4,5,,,7,11,297,31,8,40,296,39,10,56,137,41*44

$GPGSV,8,2,27,15,13,43,19,16,43,195,37,18,14,251,33,20,55,84,39*78

$GPGSV,8,3,27,21,33,71,20,26,18,180,29,27,80,294,39,30,8,326,17*7D

$GLGSV,8,4,27,69,27,34,35,70,44,107,26,71,14,156,33,75,11,216,35*52

$GLGSV,8,5,27,76,35,264,,77,24,327,30,84,6,88,,85,57,62,34*5F

$GLGSV,8,6,27,86,50,300,34*51

$BDGSV,8,7,27,203,23,140,8,205,17,123,10,206,22,57,23,209,21,86,*5E

$BDGSV,8,8,27,211,23,99,23,214,41,75,24*69

$GPRMC,140242.00,A,5133.5017,N,00957.6248,E,0.000,0.000,260619,,E,A*14

$GPGGA,140243.00,5133.5017,N,00957.6248,E,1,16,0.631,283.036,M,,M,0,*49

$GNGSA,A,3,7,8,10,15,16,18,20,21,26,27,30,69,71,75,77,85,,,,,1.177,0.631,0.994*2D

$GPGSA,A,3,7,8,10,15,16,18,20,21,26,27,30,,,,,,,,,,1.177,0.631,0.994*35

$GLGSA,A,3,69,71,75,77,85,,,,,,,,,,,,,,,,1.177,0.631,0.994*28

$BDGSA,A,3,,,,,,,,,,,,,,,,,,,,,1.177,0.631,0.994*23

$QZGSA,A,3,,,,,,,,,,,,,,,,,,,,,1.177,0.631,0.994*2E

$GPGSV,8,1,27,4,5,,,7,11,297,32,8,40,296,40,10,56,137,41*49

$GPGSV,8,2,27,15,13,43,18,16,43,195,37,18,14,251,32,20,55,84,38*79

$GPGSV,8,3,27,21,33,71,19,26,18,180,29,27,80,294,39,30,8,326,17*77

$GLGSV,8,4,27,69,27,34,34,70,44,107,26,71,14,156,32,75,11,216,35*52

$GLGSV,8,5,27,76,35,264,,77,24,327,30,84,6,88,,85,57,62,33*58

$GLGSV,8,6,27,86,50,300,34*51

$BDGSV,8,7,27,203,23,140,,205,17,123,10,206,22,57,23,209,21,86,*66

$BDGSV,8,8,27,211,23,99,20,214,41,75,22*6C

$GPRMC,140243.00,A,5133.5017,N,00957.6248,E,0.000,0.000,260619,,E,A*15

$GPGGA,140244.00,5133.5017,N,00957.6248,E,1,16,0.631,283.036,M,,M,0,*4E

$GNGSA,A,3,7,8,10,15,16,18,20,21,26,27,30,69,71,75,77,85,,,,,1.177,0.631,0.994*2D

$GPGSA,A,3,7,8,10,15,16,18,20,21,26,27,30,,,,,,,,,,1.177,0.631,0.994*35

$GLGSA,A,3,69,71,75,77,85,,,,,,,,,,,,,,,,1.177,0.631,0.994*28

$BDGSA,A,3,,,,,,,,,,,,,,,,,,,,,1.177,0.631,0.994*23

$QZGSA,A,3,,,,,,,,,,,,,,,,,,,,,1.177,0.631,0.994*2E

$GPGSV,8,1,27,4,5,,,7,11,297,33,8,40,296,41,10,56,137,42*4A

$GPGSV,8,2,27,15,13,43,18,16,43,195,38,18,14,251,31,20,55,84,38*75

$GPGSV,8,3,27,21,33,71,19,26,18,180,29,27,80,294,40,30,8,326,18*76

$GLGSV,8,4,27,69,27,33,33,70,44,107,26,71,15,156,31,75,11,216,35*50

$GLGSV,8,5,27,76,35,264,,77,24,327,32,84,6,88,,85,57,62,34*5D

$GLGSV,8,6,27,86,50,300,33*56

$BDGSV,8,7,27,203,23,140,,205,17,123,10,206,22,57,23,209,21,86,*66

$BDGSV,8,8,27,211,23,99,16,214,41,75,22*69

$GPRMC,140244.00,A,5133.5017,N,00957.6248,E,0.000,0.000,260619,,E,A*12

$GPGGA,140245.00,5133.5017,N,00957.6248,E,1,16,0.631,283.036,M,,M,0,*4F

$GNGSA,A,3,7,8,10,15,16,18,20,21,26,27,30,69,71,75,77,85,,,,,1.177,0.631,0.994*2D

$GPGSA,A,3,7,8,10,15,16,18,20,21,26,27,30,,,,,,,,,,1.177,0.631,0.994*35

$GLGSA,A,3,69,71,75,77,85,,,,,,,,,,,,,,,,1.177,0.631,0.994*28

$BDGSA,A,3,,,,,,,,,,,,,,,,,,,,,1.177,0.631,0.994*23

$QZGSA,A,3,,,,,,,,,,,,,,,,,,,,,1.177,0.631,0.994*2E

$GPGSV,8,1,27,4,5,,,7,11,297,33,8,40,296,41,10,56,137,41*49

$GPGSV,8,2,27,15,13,43,19,16,43,195,38,18,14,251,31,20,55,84,39*75

$GPGSV,8,3,27,21,33,71,22,26,18,180,29,27,80,294,39,30,8,326,18*70

$GLGSV,8,4,27,69,27,33,34,70,44,107,25,71,15,156,31,75,11,216,35*54

$GLGSV,8,5,27,76,35,264,,77,24,327,32,84,6,88,,85,57,62,34*5D

$GLGSV,8,6,27,86,50,300,34*51

$BDGSV,8,7,27,203,23,140,23,205,17,123,,206,22,57,23,209,21,86,*66

$BDGSV,8,8,27,211,23,99,16,214,41,75,22*69

$GPRMC,140245.00,A,5133.5017,N,00957.6248,E,0.000,0.000,260619,,E,A*13

$GPGGA,140246.00,5133.5017,N,00957.6248,E,1,16,0.631,283.036,M,,M,0,*4C

$GNGSA,A,3,7,8,10,15,16,18,20,21,26,27,30,69,71,75,77,85,,,,,1.177,0.631,0.994*2D

$GPGSA,A,3,7,8,10,15,16,18,20,21,26,27,30,,,,,,,,,,1.177,0.631,0.994*35

$GLGSA,A,3,69,71,75,77,85,,,,,,,,,,,,,,,,1.177,0.631,0.994*28

$BDGSA,A,3,,,,,,,,,,,,,,,,,,,,,1.177,0.631,0.994*23

$QZGSA,A,3,,,,,,,,,,,,,,,,,,,,,1.177,0.631,0.994*2E

$GPGSV,8,1,27,4,5,,,7,11,297,32,8,40,296,40,10,56,137,41*49

$GPGSV,8,2,27,15,13,43,22,16,43,195,36,18,14,251,32,20,55,84,39*70

$GPGSV,8,3,27,21,33,71,20,26,18,180,27,27,80,294,39,30,8,326,18*7C

$GLGSV,8,4,27,69,27,33,34,70,44,107,26,71,15,156,30,75,11,216,36*55

$GLGSV,8,5,27,76,35,264,,77,24,327,31,84,6,88,,85,57,62,35*5F

$GLGSV,8,6,27,86,50,300,34*51

$BDGSV,8,7,27,203,23,140,15,205,17,123,,206,22,57,,209,21,86,*62

$BDGSV,8,8,27,211,23,99,,214,41,75,20*6C

$GPRMC,140246.00,A,5133.5017,N,00957.6248,E,0.000,0.000,260619,,E,A*10

$GPGGA,140247.00,5133.5017,N,00957.6248,E,1,16,0.631,283.036,M,,M,0,*4D

$GNGSA,A,3,7,8,10,15,16,18,20,21,26,27,30,69,71,75,77,85,,,,,1.177,0.631,0.994*2D

$GPGSA,A,3,7,8,10,15,16,18,20,21,26,27,30,,,,,,,,,,1.177,0.631,0.994*35

$GLGSA,A,3,69,71,75,77,85,,,,,,,,,,,,,,,,1.177,0.631,0.994*28

$BDGSA,A,3,,,,,,,,,,,,,,,,,,,,,1.177,0.631,0.994*23

$QZGSA,A,3,,,,,,,,,,,,,,,,,,,,,1.177,0.631,0.994*2E

$GPGSV,8,1,27,4,5,,,7,11,297,33,8,40,296,39,10,56,137,39*49

$GPGSV,8,2,27,15,13,43,20,16,43,195,37,18,14,251,33,20,55,84,37*7C

$GPGSV,8,3,27,21,33,71,21,26,18,180,31,27,80,294,40,30,8,326,19*75

$GLGSV,8,4,27,69,27,33,33,70,44,107,25,71,15,156,26,75,11,216,35*55

$GLGSV,8,5,27,76,35,264,,77,24,327,29,84,6,88,,85,57,62,34*57

$GLGSV,8,6,27,86,50,300,34*51

$BDGSV,8,7,27,203,23,140,14,205,17,123,23,206,22,57,,209,21,86,23*63

$BDGSV,8,8,27,211,23,99,,214,41,75,19*66

$GPRMC,140247.00,A,5133.5017,N,00957.6248,E,0.000,0.000,260619,,E,A*11

$GPGGA,140248.00,5133.5017,N,00957.6248,E,1,16,0.631,283.036,M,,M,0,*42

$GNGSA,A,3,7,8,10,15,16,18,20,21,26,27,30,69,71,75,77,85,,,,,1.177,0.631,0.994*2D

$GPGSA,A,3,7,8,10,15,16,18,20,21,26,27,30,,,,,,,,,,1.177,0.631,0.994*35

$GLGSA,A,3,69,71,75,77,85,,,,,,,,,,,,,,,,1.177,0.631,0.994*28

$BDGSA,A,3,,,,,,,,,,,,,,,,,,,,,1.177,0.631,0.994*23

$QZGSA,A,3,,,,,,,,,,,,,,,,,,,,,1.177,0.631,0.994*2E

$GPGSV,8,1,27,4,5,,,7,11,297,32,8,40,296,38,10,56,137,39*49

$GPGSV,8,2,27,15,13,43,19,16,43,195,36,18,14,251,32,20,55,84,38*79

$GPGSV,8,3,27,21,33,71,20,26,18,180,29,27,80,294,40,30,8,326,23*74

$GLGSV,8,4,27,69,27,33,32,70,44,107,27,71,15,156,32,75,11,216,38*5E

$GLGSV,8,5,27,76,35,264,,77,24,327,30,84,6,88,,85,57,62,34*5F

$GLGSV,8,6,27,86,50,300,34*51

$BDGSV,8,7,27,203,23,140,14,205,17,123,16,206,22,57,,209,21,86,23*65

$BDGSV,8,8,27,211,23,99,,214,41,75,17*68

$GPRMC,140248.00,A,5133.5017,N,00957.6248,E,0.000,0.000,260619,,E,A*1E

$GPGGA,140249.00,5133.5017,N,00957.6248,E,1,16,0.631,283.036,M,,M,0,*43

$GNGSA,A,3,7,8,10,15,16,18,20,21,26,27,30,69,71,75,77,85,,,,,1.177,0.631,0.994*2D

$GPGSA,A,3,7,8,10,15,16,18,20,21,26,27,30,,,,,,,,,,1.177,0.631,0.994*35

$GLGSA,A,3,69,71,75,77,85,,,,,,,,,,,,,,,,1.177,0.631,0.994*28

$BDGSA,A,3,,,,,,,,,,,,,,,,,,,,,1.177,0.631,0.994*23

$QZGSA,A,3,,,,,,,,,,,,,,,,,,,,,1.177,0.631,0.994*2E

$GPGSV,8,1,27,4,5,,,7,11,297,31,8,40,296,38,10,56,137,39*4A

$GPGSV,8,2,27,15,13,43,20,16,43,195,35,18,14,251,32,20,55,84,38*70

$GPGSV,8,3,27,21,33,71,20,26,18,180,28,27,80,294,39,30,8,326,20*78

$GLGSV,8,4,27,69,27,33,32,70,44,107,24,71,15,156,33,75,11,216,37*53

$GLGSV,8,5,27,76,35,264,,77,24,327,30,84,6,88,,85,57,62,34*5F

$GLGSV,8,6,27,86,50,300,33*56

$BDGSV,8,7,27,203,23,140,,205,17,123,16,206,22,57,,209,21,86,23*60

$BDGSV,8,8,27,211,23,99,,214,41,75,18*67

$GPRMC,140249.00,A,5133.5017,N,00957.6248,E,0.000,0.000,260619,,E,A*1F

$GPGGA,140250.00,5133.5017,N,00957.6248,E,1,16,0.631,283.036,M,,M,0,*4B

$GNGSA,A,3,7,8,10,15,16,18,20,21,26,27,30,69,71,75,77,85,,,,,1.177,0.631,0.994*2D

$GPGSA,A,3,7,8,10,15,16,18,20,21,26,27,30,,,,,,,,,,1.177,0.631,0.994*35

$GLGSA,A,3,69,71,75,77,85,,,,,,,,,,,,,,,,1.177,0.631,0.994*28

$BDGSA,A,3,,,,,,,,,,,,,,,,,,,,,1.177,0.631,0.994*23

$QZGSA,A,3,,,,,,,,,,,,,,,,,,,,,1.177,0.631,0.994*2E

$GPGSV,8,1,27,4,5,,,7,11,297,33,8,40,296,39,10,56,137,38*48

$GPGSV,8,2,27,15,13,43,19,16,43,195,36,18,14,251,31,20,55,84,39*7B

$GPGSV,8,3,27,21,33,71,19,26,18,180,29,27,81,294,39,30,8,326,21*73

$GLGSV,8,4,27,69,27,33,32,70,44,107,25,71,15,156,33,75,11,216,35*50

$GLGSV,8,5,27,76,35,264,,77,24,327,31,84,6,88,,85,57,62,34*5E

$GLGSV,8,6,27,86,50,300,33*56

$BDGSV,8,7,27,203,23,140,,205,17,123,16,206,22,57,,209,21,86,23*60

$BDGSV,8,8,27,211,23,99,,214,41,75,16*69

$GPRMC,140250.00,A,5133.5017,N,00957.6248,E,0.000,0.000,260619,,E,A*17

$GPGGA,140251.00,5133.5017,N,00957.6248,E,1,16,0.631,283.036,M,,M,0,*4A

$GNGSA,A,3,7,8,10,15,16,18,20,21,26,27,30,69,71,75,77,85,,,,,1.177,0.631,0.994*2D

$GPGSA,A,3,7,8,10,15,16,18,20,21,26,27,30,,,,,,,,,,1.177,0.631,0.994*35

$GLGSA,A,3,69,71,75,77,85,,,,,,,,,,,,,,,,1.177,0.631,0.994*28

$BDGSA,A,3,,,,,,,,,,,,,,,,,,,,,1.177,0.631,0.994*23

$QZGSA,A,3,,,,,,,,,,,,,,,,,,,,,1.177,0.631,0.994*2E

$GPGSV,8,1,27,4,5,,,7,11,297,33,8,40,296,39,10,56,137,39*49

$GPGSV,8,2,27,15,13,43,18,16,43,195,35,18,14,251,31,20,55,84,38*78

$GPGSV,8,3,27,21,33,71,18,26,18,180,29,27,81,294,38,30,8,326,19*78

$GLGSV,8,4,27,69,27,33,34,70,44,107,26,71,15,156,33,75,11,216,36*56

$GLGSV,8,5,27,76,35,264,,77,24,327,31,84,6,88,,85,57,62,33*59

$GLGSV,8,6,27,86,50,300,34*51

$BDGSV,8,7,27,203,23,140,,205,17,123,22,206,22,57,,209,21,86,*66

$BDGSV,8,8,27,211,23,99,,214,41,75,14*6B

$GPRMC,140251.00,A,5133.5017,N,00957.6248,E,0.000,0.000,260619,,E,A*16

$GPGGA,140252.00,5133.5017,N,00957.6248,E,1,16,0.631,283.036,M,,M,0,*49

$GNGSA,A,3,7,8,10,15,16,18,20,21,26,27,30,69,71,75,77,85,,,,,1.177,0.631,0.994*2D

$GPGSA,A,3,7,8,10,15,16,18,20,21,26,27,30,,,,,,,,,,1.177,0.631,0.994*35

$GLGSA,A,3,69,71,75,77,85,,,,,,,,,,,,,,,,1.177,0.631,0.994*28

$BDGSA,A,3,,,,,,,,,,,,,,,,,,,,,1.177,0.631,0.994*23

$QZGSA,A,3,,,,,,,,,,,,,,,,,,,,,1.177,0.631,0.994*2E

$GPGSV,8,1,27,4,5,,,7,11,297,33,8,40,296,40,10,56,137,39*47

$GPGSV,8,2,27,15,13,43,18,16,43,195,36,18,14,251,32,20,55,84,39*79

$GPGSV,8,3,27,21,33,71,17,26,18,180,30,27,81,294,39,30,8,326,20*74

$GLGSV,8,4,27,69,27,33,33,70,44,107,26,71,15,156,33,75,11,216,37*50

$GLGSV,8,5,27,76,35,264,,77,24,327,31,84,6,88,,85,57,62,33*59

$GLGSV,8,6,27,86,50,300,33*56

$BDGSV,8,7,27,203,23,140,,205,17,123,15,206,22,57,,209,21,86,*62

$BDGSV,8,8,27,211,23,99,,214,41,75,13*6C

$GPRMC,140252.00,A,5133.5017,N,00957.6248,E,0.000,0.000,260619,,E,A*15

$GPGGA,140253.00,5133.5017,N,00957.6248,E,1,16,0.631,283.036,M,,M,0,*48

$GNGSA,A,3,7,8,10,15,16,18,20,21,26,27,30,69,71,75,77,85,,,,,1.177,0.631,0.994*2D

$GPGSA,A,3,7,8,10,15,16,18,20,21,26,27,30,,,,,,,,,,1.177,0.631,0.994*35

$GLGSA,A,3,69,71,75,77,85,,,,,,,,,,,,,,,,1.177,0.631,0.994*28

$BDGSA,A,3,,,,,,,,,,,,,,,,,,,,,1.177,0.631,0.994*23

$QZGSA,A,3,,,,,,,,,,,,,,,,,,,,,1.177,0.631,0.994*2E

$GPGSV,8,1,27,4,5,,,7,11,297,33,8,40,296,40,10,56,137,39*47

$GPGSV,8,2,27,15,13,43,18,16,43,195,36,18,14,251,32,20,55,84,39*79

$GPGSV,8,3,27,21,33,71,18,26,18,180,29,27,81,294,39,30,8,326,20*73

$GLGSV,8,4,27,69,27,33,32,70,44,107,25,71,15,156,33,75,11,216,36*53

$GLGSV,8,5,27,76,35,264,,77,24,327,32,84,6,88,,85,57,62,33*5A

$GLGSV,8,6,27,86,50,300,33*56

$BDGSV,8,7,27,203,23,140,,205,17,123,16,206,22,57,23,209,21,86,*60

$BDGSV,8,8,27,211,23,99,,214,41,75,13*6C

$GPRMC,140253.00,A,5133.5017,N,00957.6248,E,0.000,0.000,260619,,E,A*14

$GPGGA,140254.00,5133.5017,N,00957.6248,E,1,16,0.631,283.036,M,,M,0,*4F

$GNGSA,A,3,7,8,10,15,16,18,20,21,26,27,30,69,71,75,77,85,,,,,1.177,0.631,0.994*2D

$GPGSA,A,3,7,8,10,15,16,18,20,21,26,27,30,,,,,,,,,,1.177,0.631,0.994*35

$GLGSA,A,3,69,71,75,77,85,,,,,,,,,,,,,,,,1.177,0.631,0.994*28

$BDGSA,A,3,,,,,,,,,,,,,,,,,,,,,1.177,0.631,0.994*23

$QZGSA,A,3,,,,,,,,,,,,,,,,,,,,,1.177,0.631,0.994*2E

$GPGSV,8,1,27,4,5,,,7,11,297,34,8,40,296,40,10,56,137,39*40

$GPGSV,8,2,27,15,13,43,19,16,43,195,36,18,14,251,32,20,55,84,39*78

$GPGSV,8,3,27,21,33,71,18,26,18,180,30,27,81,294,38,30,8,326,22*78

$GLGSV,8,4,27,69,27,33,31,70,44,107,25,71,15,156,33,75,11,216,35*53

$GLGSV,8,5,27,76,35,264,,77,24,327,31,84,6,88,,85,57,62,33*59

$GLGSV,8,6,27,86,50,300,33*56

$BDGSV,8,7,27,203,23,140,23,205,17,123,16,206,22,57,23,209,21,86,*61

$BDGSV,8,8,27,211,23,99,,214,41,75,12*6D

$GPRMC,140254.00,A,5133.5017,N,00957.6248,E,0.000,0.000,260619,,E,A*13

$GPGGA,140255.00,5133.5017,N,00957.6248,E,1,16,0.631,283.036,M,,M,0,*4E

$GNGSA,A,3,7,8,10,15,16,18,20,21,26,27,30,69,71,75,77,85,,,,,1.177,0.631,0.994*2D

$GPGSA,A,3,7,8,10,15,16,18,20,21,26,27,30,,,,,,,,,,1.177,0.631,0.994*35

$GLGSA,A,3,69,71,75,77,85,,,,,,,,,,,,,,,,1.177,0.631,0.994*28

$BDGSA,A,3,,,,,,,,,,,,,,,,,,,,,1.177,0.631,0.994*23

$QZGSA,A,3,,,,,,,,,,,,,,,,,,,,,1.177,0.631,0.994*2E

$GPGSV,8,1,27,4,5,,,7,11,297,33,8,40,296,40,10,56,137,39*47

$GPGSV,8,2,27,15,13,43,19,16,43,195,36,18,14,251,32,20,55,84,39*78

$GPGSV,8,3,27,21,33,71,19,26,18,180,31,27,81,294,39,30,8,326,20*7B

$GLGSV,8,4,27,69,27,33,31,70,44,107,26,71,15,156,33,75,11,216,35*50

$GLGSV,8,5,27,76,35,264,,77,24,327,31,84,6,88,,85,57,62,33*59

$GLGSV,8,6,27,86,50,300,34*51

$BDGSV,8,7,27,203,23,140,15,205,17,123,16,206,22,57,23,209,21,86,*64

$BDGSV,8,8,27,211,23,99,,214,41,75,11*6E

$GPRMC,140255.00,A,5133.5017,N,00957.6248,E,0.000,0.000,260619,,E,A*12

$GPGGA,140256.00,5133.5017,N,00957.6248,E,1,16,0.631,283.036,M,,M,0,*4D

$GNGSA,A,3,7,8,10,15,16,18,20,21,26,27,30,69,71,75,77,85,,,,,1.177,0.631,0.994*2D

$GPGSA,A,3,7,8,10,15,16,18,20,21,26,27,30,,,,,,,,,,1.177,0.631,0.994*35

$GLGSA,A,3,69,71,75,77,85,,,,,,,,,,,,,,,,1.177,0.631,0.994*28

$BDGSA,A,3,,,,,,,,,,,,,,,,,,,,,1.177,0.631,0.994*23

$QZGSA,A,3,,,,,,,,,,,,,,,,,,,,,1.177,0.631,0.994*2E

$GPGSV,8,1,27,4,5,,,7,11,297,33,8,40,296,40,10,56,137,38*46

$GPGSV,8,2,27,15,13,43,19,16,43,195,37,18,14,251,31,20,55,84,39*7A

$GPGSV,8,3,27,21,33,71,22,26,18,180,31,27,81,294,38,30,8,326,20*72

$GLGSV,8,4,27,69,27,33,32,70,44,107,25,71,15,156,33,75,11,216,34*51

$GLGSV,8,5,27,76,35,264,,77,24,327,31,84,6,88,,85,57,62,32*58

$GLGSV,8,6,27,86,50,300,35*50

$BDGSV,8,7,27,203,23,140,8,205,17,123,16,206,22,57,23,209,21,86,*58

$BDGSV,8,8,27,211,23,99,,214,41,75,11*6E

$GPRMC,140256.00,A,5133.5017,N,00957.6248,E,0.000,0.000,260619,,E,A*11

$GPGGA,140257.00,5133.5017,N,00957.6248,E,1,16,0.631,283.036,M,,M,0,*4C

$GNGSA,A,3,7,8,10,15,16,18,20,21,26,27,30,69,71,75,77,85,,,,,1.177,0.631,0.994*2D

$GPGSA,A,3,7,8,10,15,16,18,20,21,26,27,30,,,,,,,,,,1.177,0.631,0.994*35

$GLGSA,A,3,69,71,75,77,85,,,,,,,,,,,,,,,,1.177,0.631,0.994*28

$BDGSA,A,3,,,,,,,,,,,,,,,,,,,,,1.177,0.631,0.994*23

$QZGSA,A,3,,,,,,,,,,,,,,,,,,,,,1.177,0.631,0.994*2E

$GPGSV,8,1,27,4,5,,,7,11,297,33,8,40,296,40,10,56,137,38*46

$GPGSV,8,2,27,15,13,43,19,16,43,195,37,18,14,251,31,20,55,84,39*7A

$GPGSV,8,3,27,21,33,71,24,26,18,180,31,27,81,294,37,30,8,326,19*71

$GLGSV,8,4,27,69,27,33,31,70,44,107,25,71,15,156,34,75,11,216,34*55

$GLGSV,8,5,27,76,35,264,,77,24,327,31,84,6,88,,85,57,62,33*59

$GLGSV,8,6,27,86,50,300,35*50

$BDGSV,8,7,27,203,23,140,8,205,17,123,15,206,22,57,,209,21,86,*5A

$BDGSV,8,8,27,211,23,99,23,214,41,75,10*6E

$GPRMC,140257.00,A,5133.5017,N,00957.6248,E,0.000,0.000,260619,,E,A*10

$GPGGA,140258.00,5133.5017,N,00957.6248,E,1,16,0.631,283.036,M,,M,0,*43

$GNGSA,A,3,7,8,10,15,16,18,20,21,26,27,30,69,71,75,77,85,,,,,1.177,0.631,0.994*2D

$GPGSA,A,3,7,8,10,15,16,18,20,21,26,27,30,,,,,,,,,,1.177,0.631,0.994*35

$GLGSA,A,3,69,71,75,77,85,,,,,,,,,,,,,,,,1.177,0.631,0.994*28

$BDGSA,A,3,,,,,,,,,,,,,,,,,,,,,1.177,0.631,0.994*23

$QZGSA,A,3,,,,,,,,,,,,,,,,,,,,,1.177,0.631,0.994*2E

$GPGSV,8,1,27,4,5,,,7,11,297,32,8,40,296,40,10,56,137,38*47

$GPGSV,8,2,27,15,13,43,19,16,43,195,37,18,14,251,30,20,55,84,39*7B

$GPGSV,8,3,27,21,33,71,21,26,18,180,31,27,81,294,37,30,8,326,18*75

$GLGSV,8,4,27,69,27,33,30,70,44,107,26,71,15,156,34,75,11,216,34*57

$GLGSV,8,5,27,76,35,264,,77,24,327,31,84,6,88,,85,57,62,32*58

$GLGSV,8,6,27,86,50,300,35*50

$BDGSV,8,7,27,203,23,140,,205,17,123,15,206,22,57,,209,21,86,23*63

$BDGSV,8,8,27,211,23,99,23,214,41,75,8*57

$GPRMC,140258.00,A,5133.5017,N,00957.6248,E,0.000,0.000,260619,,E,A*1F

$GPGGA,140259.00,5133.5017,N,00957.6248,E,1,16,0.631,283.036,M,,M,0,*42

$GNGSA,A,3,7,8,10,15,16,18,20,21,26,27,30,69,71,75,77,85,,,,,1.177,0.631,0.994*2D

$GPGSA,A,3,7,8,10,15,16,18,20,21,26,27,30,,,,,,,,,,1.177,0.631,0.994*35

$GLGSA,A,3,69,71,75,77,85,,,,,,,,,,,,,,,,1.177,0.631,0.994*28

$BDGSA,A,3,,,,,,,,,,,,,,,,,,,,,1.177,0.631,0.994*23

$QZGSA,A,3,,,,,,,,,,,,,,,,,,,,,1.177,0.631,0.994*2E

$GPGSV,8,1,27,4,5,,,7,11,297,33,8,40,296,40,10,56,137,37*49

$GPGSV,8,2,27,15,13,43,19,16,43,195,36,18,14,251,30,20,55,84,39*7A

$GPGSV,8,3,27,21,33,71,21,26,18,180,30,27,81,293,36,30,8,326,18*72

$GLGSV,8,4,27,69,27,33,29,70,44,107,26,71,15,156,34,75,11,216,34*5F

$GLGSV,8,5,27,76,35,264,,77,24,327,29,84,6,88,,85,57,63,32*50

$GLGSV,8,6,27,86,50,300,34*51

$BDGSV,8,7,27,203,23,140,,205,17,123,15,206,22,57,,209,21,86,12*61

$BDGSV,8,8,27,211,23,100,23,214,41,75,8*66

$GPRMC,140259.00,A,5133.5017,N,00957.6248,E,0.000,0.000,260619,,E,A*1E

$GPGGA,140300.00,5133.5017,N,00957.6248,E,1,16,0.631,283.036,M,,M,0,*4F

$GNGSA,A,3,7,8,10,15,16,18,20,21,26,27,30,69,71,75,77,85,,,,,1.177,0.631,0.994*2D

$GPGSA,A,3,7,8,10,15,16,18,20,21,26,27,30,,,,,,,,,,1.177,0.631,0.994*35

$GLGSA,A,3,69,71,75,77,85,,,,,,,,,,,,,,,,1.177,0.631,0.994*28

$BDGSA,A,3,,,,,,,,,,,,,,,,,,,,,1.177,0.631,0.994*23

$QZGSA,A,3,,,,,,,,,,,,,,,,,,,,,1.177,0.631,0.994*2E

$GPGSV,8,1,27,4,5,,,7,11,297,33,8,40,296,40,10,56,137,38*46

$GPGSV,8,2,27,15,13,43,19,16,43,195,36,18,14,251,30,20,55,84,39*7A

$GPGSV,8,3,27,21,33,71,21,26,18,180,31,27,81,293,37,30,8,326,20*79

$GLGSV,8,4,27,69,27,33,31,70,44,107,27,71,15,156,35,75,11,216,33*51

$GLGSV,8,5,27,76,35,264,,77,24,327,30,84,6,88,,85,57,63,32*58

$GLGSV,8,6,27,86,50,300,34*51

$BDGSV,8,7,27,203,23,140,,205,17,123,15,206,22,57,,209,21,86,8*5A

$BDGSV,8,8,27,211,23,100,23,214,41,75,8*66

$GPRMC,140300.00,A,5133.5017,N,00957.6248,E,0.000,0.000,260619,,E,A*13

$GPGGA,140301.00,5133.5017,N,00957.6248,E,1,16,0.631,283.036,M,,M,0,*4E

$GNGSA,A,3,7,8,10,15,16,18,20,21,26,27,30,69,71,75,77,85,,,,,1.177,0.631,0.994*2D

$GPGSA,A,3,7,8,10,15,16,18,20,21,26,27,30,,,,,,,,,,1.177,0.631,0.994*35

$GLGSA,A,3,69,71,75,77,85,,,,,,,,,,,,,,,,1.177,0.631,0.994*28

$BDGSA,A,3,,,,,,,,,,,,,,,,,,,,,1.177,0.631,0.994*23

$QZGSA,A,3,,,,,,,,,,,,,,,,,,,,,1.177,0.631,0.994*2E

$GPGSV,8,1,27,4,5,,,7,11,297,32,8,40,296,39,10,56,137,37*46

