$GPGGA,141419.92,5133.4554,N,00957.6044,E,0,,100.000,282.813,M,,M,0,*4A

$GNGSA,A,1,,,,,,,,,,,,,,,,,,,,,100.000,100.000,100.000*2F

$GPGGA,141419.92,5133.4554,N,00957.6044,E,0,,100.000,282.813,M,,M,0,*4A

$GNGSA,A,1,,,,,,,,,,,,,,,,,,,,,100.000,100.000,100.000*2F

$GPGSA,A,1,,,,,,,,,,,,,,,,,,,,,100.000,100.000,100.000*31

$GLGSA,A,1,,,,,,,,,,,,,,,,,,,,,100.000,100.000,100.000*2D

$BDGSA,A,1,,,,,,,,,,,,,,,,,,,,,100.000,100.000,100.000*20

$QZGSA,A,1,,,,,,,,,,,,,,,,,,,,,100.000,100.000,100.000*2D

$GPGSV,5,1,19,7,9,293,,8,45,297,,10,60,128,,11,6,272,*7B

$GPGSV,5,2,19,15,12,39,,16,37,193,,18,19,254,,20,53,76,*74

$GPGSV,5,3,19,21,28,73,,26,13,179,,27,86,272,,30,8,322,*77

$GLGSV,5,4,19,69,23,29,,70,47,99,,71,21,154,,75,6,214,*5B

$GLGSV,5,5,19,77,26,321,,85,52,71,,86,55,308,*60

$GPRMC,141419.92,V,5133.4554,N,00957.6044,E,0.000,0.000,260619,,E,N*03

$GPGSA,A,1,,,,,,,,,,,,,,,,,,,,,100.000,100.000,100.000*31

$GLGSA,A,1,,,,,,,,,,,,,,,,,,,,,100.000,100.000,100.000*2D

$BDGSA,A,1,,,,,,,,,,,,,,,,,,,,,100.000,100.000,100.000*20

$QZGSA,A,1,,,,,,,,,,,,,,,,,,,,,100.000,100.000,100.000*2D

$GPGSV,5,1,19,7,9,293,,8,45,297,,10,60,128,,11,6,272,*7B

$GPGSV,5,2,19,15,12,39,,16,37,193,,18,19,254,,20,53,76,*74

$GPGSV,5,3,19,21,28,73,,26,13,179,,27,86,272,,30,8,322,*77

$GLGSV,5,4,19,69,23,29,,70,47,99,,71,21,154,,75,6,214,*5B

$GLGSV,5,5,19,77,26,321,,85,52,71,,86,55,308,*60

$GPRMC,141419.92,V,5133.4554,N,00957.6044,E,0.000,0.000,260619,,E,N*03

$GPGGA,141419.92,5133.4554,N,00957.6044,E,0,,100.000,282.813,M,,M,0,*4A

$GNGSA,A,1,,,,,,,,,,,,,,,,,,,,,100.000,100.000,100.000*2F

$GPGSA,A,1,,,,,,,,,,,,,,,,,,,,,100.000,100.000,100.000*31

$GLGSA,A,1,,,,,,,,,,,,,,,,,,,,,100.000,100.000,100.000*2D

$BDGSA,A,1,,,,,,,,,,,,,,,,,,,,,100.000,100.000,100.000*20

$QZGSA,A,1,,,,,,,,,,,,,,,,,,,,,100.000,100.000,100.000*2D

$GPGSV,5,1,19,7,9,293,,8,45,297,,10,60,128,,11,6,272,*7B

$GPGSV,5,2,19,15,12,39,,16,37,193,,18,19,254,,20,53,76,*74

$GPGSV,5,3,19,21,28,73,,26,13,179,,27,86,272,,30,8,322,*77

$GLGSV,5,4,19,69,23,29,,70,47,99,,71,21,154,,75,6,214,*5B

$GLGSV,5,5,19,77,26,321,,85,52,71,,86,55,308,*60

$GPRMC,141419.92,V,5133.4554,N,00957.6044,E,0.000,0.000,260619,,E,N*03

$GPGGA,141420.92,5133.4531,N,00957.6066,E,0,7,1.528,283.070,M,,M,0,*77

$GNGSA,A,1,8,10,16,20,75,85,86,,,,,,,,,,,,,,3.077,1.528,2.671*1C

$GPGSA,A,1,8,10,16,20,,,,,,,,,,,,,,,,,3.077,1.528,2.671*03

$GLGSA,A,1,75,85,86,,,,,,,,,,,,,,,,,,3.077,1.528,2.671*22

$BDGSA,A,1,,,,,,,,,,,,,,,,,,,,,3.077,1.528,2.671*2E

$QZGSA,A,1,,,,,,,,,,,,,,,,,,,,,3.077,1.528,2.671*23

$GPGSV,5,1,19,7,9,293,,8,45,297,30,10,60,128,30,11,6,272,*7B

$GPGSV,5,2,19,15,12,39,19,16,37,193,29,18,19,254,,20,53,76,31*75

$GPGSV,5,3,19,21,28,73,,26,13,179,20,27,86,272,20,30,8,322,*77

$GLGSV,5,4,19,69,23,29,26,70,47,99,,71,21,154,28,75,6,214,35*53

$GLGSV,5,5,19,77,26,321,,85,52,71,35,86,55,308,34*61

$GPRMC,141420.92,V,5133.4531,N,00957.6066,E,0.242,0.000,260619,,E,N*0E

$GPGGA,141420.92,5133.4531,N,00957.6066,E,0,7,1.528,283.070,M,,M,0,*77

$GNGSA,A,1,8,10,16,20,75,85,86,,,,,,,,,,,,,,3.077,1.528,2.671*1C

$GPGSA,A,1,8,10,16,20,,,,,,,,,,,,,,,,,3.077,1.528,2.671*03

$GLGSA,A,1,75,85,86,,,,,,,,,,,,,,,,,,3.077,1.528,2.671*22

$BDGSA,A,1,,,,,,,,,,,,,,,,,,,,,3.077,1.528,2.671*2E

$QZGSA,A,1,,,,,,,,,,,,,,,,,,,,,3.077,1.528,2.671*23

$GPGSV,5,1,19,7,9,293,,8,45,297,30,10,60,128,30,11,6,272,*7B

$GPGSV,5,2,19,15,12,39,19,16,37,193,29,18,19,254,,20,53,76,31*75

$GPGSV,5,3,19,21,28,73,,26,13,179,20,27,86,272,20,30,8,322,*77

$GLGSV,5,4,19,69,23,29,26,70,47,99,,71,21,154,28,75,6,214,35*53

$GLGSV,5,5,19,77,26,321,,85,52,71,35,86,55,308,34*61

$GPRMC,141420.92,V,5133.4531,N,00957.6066,E,0.242,0.000,260619,,E,N*0E

$GPGGA,141420.92,5133.4531,N,00957.6066,E,0,7,1.528,283.070,M,,M,0,*77

$GNGSA,A,1,8,10,16,20,75,85,86,,,,,,,,,,,,,,3.077,1.528,2.671*1C

$GPGSA,A,1,8,10,16,20,,,,,,,,,,,,,,,,,3.077,1.528,2.671*03

$GLGSA,A,1,75,85,86,,,,,,,,,,,,,,,,,,3.077,1.528,2.671*22

$BDGSA,A,1,,,,,,,,,,,,,,,,,,,,,3.077,1.528,2.671*2E

$QZGSA,A,1,,,,,,,,,,,,,,,,,,,,,3.077,1.528,2.671*23

$GPGSV,5,1,19,7,9,293,,8,45,297,30,10,60,128,30,11,6,272,*7B

$GPGSV,5,2,19,15,12,39,19,16,37,193,29,18,19,254,,20,53,76,31*75

$GPGSV,5,3,19,21,28,73,,26,13,179,20,27,86,272,20,30,8,322,*77

$GLGSV,5,4,19,69,23,29,26,70,47,99,,71,21,154,28,75,6,214,35*53

$GLGSV,5,5,19,77,26,321,,85,52,71,35,86,55,308,34*61

$GPRMC,141420.92,V,5133.4531,N,00957.6066,E,0.242,0.000,260619,,E,N*0E

$GPGGA,141439.24,5133.4853,N,00957.6230,E,1,8,1.043,278.948,M,,M,0,*7A

$GNGSA,A,3,8,10,15,16,20,75,85,86,,,,,,,,,,,,,1.678,1.043,1.315*1D

$GPGSA,A,3,8,10,15,16,20,,,,,,,,,,,,,,,,1.678,1.043,1.315*02

$GLGSA,A,3,75,85,86,,,,,,,,,,,,,,,,,,1.678,1.043,1.315*27

$BDGSA,A,3,,,,,,,,,,,,,,,,,,,,,1.678,1.043,1.315*2B

$QZGSA,A,3,,,,,,,,,,,,,,,,,,,,,1.678,1.043,1.315*26

$GPGSV,5,1,19,7,9,293,22,8,45,297,36,10,60,128,35,11,6,272,*78

$GPGSV,5,2,19,15,12,39,24,16,37,193,32,18,19,254,,20,53,76,37*77

$GPGSV,5,3,19,21,28,73,19,26,13,179,33,27,86,272,36,30,8,322,*7A

$GLGSV,5,4,19,69,23,29,27,70,47,99,,71,21,154,29,75,6,214,35*53

$GLGSV,5,5,19,77,26,321,,85,52,71,36,86,55,308,35*63

$GPRMC,141439.24,A,5133.4853,N,00957.6230,E,0.286,0.000,260619,,E,A*13

$GPGGA,141439.24,5133.4853,N,00957.6230,E,1,8,1.043,278.948,M,,M,0,*7A

$GNGSA,A,3,8,10,15,16,20,75,85,86,,,,,,,,,,,,,1.678,1.043,1.315*1D

$GPGSA,A,3,8,10,15,16,20,,,,,,,,,,,,,,,,1.678,1.043,1.315*02

$GLGSA,A,3,75,85,86,,,,,,,,,,,,,,,,,,1.678,1.043,1.315*27

$BDGSA,A,3,,,,,,,,,,,,,,,,,,,,,1.678,1.043,1.315*2B

$QZGSA,A,3,,,,,,,,,,,,,,,,,,,,,1.678,1.043,1.315*26

$GPGSV,5,1,19,7,9,293,22,8,45,297,36,10,60,128,35,11,6,272,*78

$GPGSV,5,2,19,15,12,39,24,16,37,193,32,18,19,254,,20,53,76,37*77

$GPGSV,5,3,19,21,28,73,19,26,13,179,33,27,86,272,36,30,8,322,*7A

$GLGSV,5,4,19,69,23,29,27,70,47,99,,71,21,154,29,75,6,214,35*53

$GLGSV,5,5,19,77,26,321,,85,52,71,36,86,55,308,35*63

$GPRMC,141439.24,A,5133.4853,N,00957.6230,E,0.286,0.000,260619,,E,A*13

$GPGGA,141439.44,5133.4520,N,00957.6019,E,1,10,0.969,292.371,M,,M,0,*41

$GNGSA,A,3,8,10,15,16,20,26,27,75,85,86,,,,,,,,,,,1.484,0.969,1.125*1C

$GPGSA,A,3,8,10,15,16,20,26,27,,,,,,,,,,,,,,1.484,0.969,1.125*03

$GLGSA,A,3,75,85,86,,,,,,,,,,,,,,,,,,1.484,0.969,1.125*27

$BDGSA,A,3,,,,,,,,,,,,,,,,,,,,,1.484,0.969,1.125*2B

$QZGSA,A,3,,,,,,,,,,,,,,,,,,,,,1.484,0.969,1.125*26

$GPGSV,5,1,19,7,9,293,22,8,45,297,36,10,60,128,35,11,6,272,*78

$GPGSV,5,2,19,15,12,39,24,16,37,193,32,18,19,254,,20,53,76,37*77

$GPGSV,5,3,19,21,28,73,19,26,13,179,33,27,86,272,36,30,8,322,*7A

$GLGSV,5,4,19,69,23,29,27,70,47,99,,71,21,154,29,75,6,214,35*53

$GLGSV,5,5,19,77,26,321,,85,52,71,36,86,55,308,35*63

$GPRMC,141439.44,A,5133.4520,N,00957.6019,E,0.133,0.000,260619,,E,A*18

$GPGGA,141439.44,5133.4520,N,00957.6019,E,1,10,0.969,292.371,M,,M,0,*41

$GNGSA,A,3,8,10,15,16,20,26,27,75,85,86,,,,,,,,,,,1.484,0.969,1.125*1C

$GPGSA,A,3,8,10,15,16,20,26,27,,,,,,,,,,,,,,1.484,0.969,1.125*03

$GLGSA,A,3,75,85,86,,,,,,,,,,,,,,,,,,1.484,0.969,1.125*27

$BDGSA,A,3,,,,,,,,,,,,,,,,,,,,,1.484,0.969,1.125*2B

$QZGSA,A,3,,,,,,,,,,,,,,,,,,,,,1.484,0.969,1.125*26

$GPGSV,5,1,19,7,9,293,22,8,45,297,36,10,60,128,35,11,6,272,*78

$GPGSV,5,2,19,15,12,39,24,16,37,193,32,18,19,254,,20,53,76,37*77

$GPGSV,5,3,19,21,28,73,19,26,13,179,33,27,86,272,36,30,8,322,*7A

$GLGSV,5,4,19,69,23,29,27,70,47,99,,71,21,154,29,75,6,214,35*53

$GLGSV,5,5,19,77,26,321,,85,52,71,36,86,55,308,35*63

$GPRMC,141439.44,A,5133.4520,N,00957.6019,E,0.133,0.000,260619,,E,A*18

$GPGGA,141439.24,5133.4853,N,00957.6230,E,1,8,1.043,278.948,M,,M,0,*7A

$GNGSA,A,3,8,10,15,16,20,75,85,86,,,,,,,,,,,,,1.678,1.043,1.315*1D

$GPGSA,A,3,8,10,15,16,20,,,,,,,,,,,,,,,,1.678,1.043,1.315*02

$GLGSA,A,3,75,85,86,,,,,,,,,,,,,,,,,,1.678,1.043,1.315*27

$BDGSA,A,3,,,,,,,,,,,,,,,,,,,,,1.678,1.043,1.315*2B

$QZGSA,A,3,,,,,,,,,,,,,,,,,,,,,1.678,1.043,1.315*26

$GPGSV,5,1,19,7,9,293,22,8,45,297,36,10,60,128,35,11,6,272,*78

$GPGSV,5,2,19,15,12,39,24,16,37,193,32,18,19,254,,20,53,76,37*77

$GPGSV,5,3,19,21,28,73,19,26,13,179,33,27,86,272,36,30,8,322,*7A

$GLGSV,5,4,19,69,23,29,27,70,47,99,,71,21,154,29,75,6,214,35*53

$GLGSV,5,5,19,77,26,321,,85,52,71,36,86,55,308,35*63

$GPRMC,141439.24,A,5133.4853,N,00957.6230,E,0.286,0.000,260619,,E,A*13

$GPGGA,141439.44,5133.4520,N,00957.6019,E,1,10,0.969,292.371,M,,M,0,*41

$GNGSA,A,3,8,10,15,16,20,26,27,75,85,86,,,,,,,,,,,1.484,0.969,1.125*1C

$GPGSA,A,3,8,10,15,16,20,26,27,,,,,,,,,,,,,,1.484,0.969,1.125*03

$GLGSA,A,3,75,85,86,,,,,,,,,,,,,,,,,,1.484,0.969,1.125*27

$BDGSA,A,3,,,,,,,,,,,,,,,,,,,,,1.484,0.969,1.125*2B

$QZGSA,A,3,,,,,,,,,,,,,,,,,,,,,1.484,0.969,1.125*26

$GPGSV,5,1,19,7,9,293,22,8,45,297,36,10,60,128,35,11,6,272,*78

$GPGSV,5,2,19,15,12,39,24,16,37,193,32,18,19,254,,20,53,76,37*77

$GPGSV,5,3,19,21,28,73,19,26,13,179,33,27,86,272,36,30,8,322,*7A

$GLGSV,5,4,19,69,23,29,27,70,47,99,,71,21,154,29,75,6,214,35*53

$GLGSV,5,5,19,77,26,321,,85,52,71,36,86,55,308,35*63

$GPRMC,141439.44,A,5133.4520,N,00957.6019,E,0.133,0.000,260619,,E,A*18

$GPGGA,141440.44,5133.4535,N,00957.5999,E,1,13,0.759,292.084,M,,M,0,*4E

$GNGSA,A,3,7,8,10,16,20,21,26,27,69,71,75,85,86,,,,,,,,1.316,0.759,1.076*23

$GPGSA,A,3,7,8,10,16,20,21,26,27,,,,,,,,,,,,,1.316,0.759,1.076*35

$GLGSA,A,3,69,71,75,85,86,,,,,,,,,,,,,,,,1.316,0.759,1.076*28

$BDGSA,A,3,,,,,,,,,,,,,,,,,,,,,1.316,0.759,1.076*2D

$QZGSA,A,3,,,,,,,,,,,,,,,,,,,,,1.316,0.759,1.076*20

$GPGSV,5,1,19,7,9,293,21,8,45,297,38,10,60,128,37,11,6,272,*77

$GPGSV,5,2,19,15,12,39,25,16,37,193,35,18,19,254,,20,53,76,39*7F

$GPGSV,5,3,19,21,28,73,20,26,13,179,33,27,86,271,39,30,8,322,*7C

$GLGSV,5,4,19,69,23,29,26,70,47,99,,71,21,154,28,75,6,214,37*51

$GLGSV,5,5,19,77,26,321,,85,52,71,35,86,55,308,36*63

$GPRMC,141440.44,A,5133.4535,N,00957.5999,E,0.280,0.000,260619,,E,A*1B

$GPGGA,141440.44,5133.4535,N,00957.5999,E,1,13,0.759,292.084,M,,M,0,*4E

$GNGSA,A,3,7,8,10,16,20,21,26,27,69,71,75,85,86,,,,,,,,1.316,0.759,1.076*23

$GPGSA,A,3,7,8,10,16,20,21,26,27,,,,,,,,,,,,,1.316,0.759,1.076*35

$GLGSA,A,3,69,71,75,85,86,,,,,,,,,,,,,,,,1.316,0.759,1.076*28

$BDGSA,A,3,,,,,,,,,,,,,,,,,,,,,1.316,0.759,1.076*2D

$QZGSA,A,3,,,,,,,,,,,,,,,,,,,,,1.316,0.759,1.076*20

$GPGSV,5,1,19,7,9,293,21,8,45,297,38,10,60,128,37,11,6,272,*77

$GPGSV,5,2,19,15,12,39,25,16,37,193,35,18,19,254,,20,53,76,39*7F

$GPGSV,5,3,19,21,28,73,20,26,13,179,33,27,86,271,39,30,8,322,*7C

$GLGSV,5,4,19,69,23,29,26,70,47,99,,71,21,154,28,75,6,214,37*51

$GLGSV,5,5,19,77,26,321,,85,52,71,35,86,55,308,36*63

$GPRMC,141440.44,A,5133.4535,N,00957.5999,E,0.280,0.000,260619,,E,A*1B

$GPGGA,141440.44,5133.4535,N,00957.5999,E,1,13,0.759,292.084,M,,M,0,*4E

$GNGSA,A,3,7,8,10,16,20,21,26,27,69,71,75,85,86,,,,,,,,1.316,0.759,1.076*23

$GPGSA,A,3,7,8,10,16,20,21,26,27,,,,,,,,,,,,,1.316,0.759,1.076*35

$GLGSA,A,3,69,71,75,85,86,,,,,,,,,,,,,,,,1.316,0.759,1.076*28

$BDGSA,A,3,,,,,,,,,,,,,,,,,,,,,1.316,0.759,1.076*2D

$QZGSA,A,3,,,,,,,,,,,,,,,,,,,,,1.316,0.759,1.076*20

$GPGSV,5,1,19,7,9,293,21,8,45,297,38,10,60,128,37,11,6,272,*77

$GPGSV,5,3,19,21,28,73,20,26,13,179,33,27,86,271,39,30,8,322,*7C

$GLGSV,5,5,19,77,26,321,,85,52,71,35,86,55,308,36*63

$GPRMC,141440.44,A,5133.4535,N,00957.5999,E,0.280,0.000,260619,,E,A*1B

$GPGGA,141441.44,5133.4545,N,00957.5980,E,1,15,0.699,290.046,M,,M,0,*47

$GNGSA,A,3,7,8,10,15,16,20,21,26,27,30,69,71,75,85,86,,,,,,1.181,0.699,0.951*28

$GPGSA,A,3,7,8,10,15,16,20,21,26,27,30,,,,,,,,,,,1.181,0.699,0.951*3E

$GLGSA,A,3,69,71,75,85,86,,,,,,,,,,,,,,,,1.181,0.699,0.951*24

$BDGSA,A,3,,,,,,,,,,,,,,,,,,,,,1.181,0.699,0.951*21

$QZGSA,A,3,,,,,,,,,,,,,,,,,,,,,1.181,0.699,0.951*2C

$GPGSV,5,1,19,7,9,293,20,8,45,297,37,10,60,128,38,11,6,272,*76

$GPGSV,5,2,19,15,12,39,24,16,37,193,34,18,19,254,11,20,53,76,39*7F

$GPGSV,5,3,19,21,28,73,20,26,13,179,32,27,86,271,40,30,8,321,16*77

$GLGSV,5,4,19,69,23,29,27,70,47,99,,71,21,154,29,75,6,214,36*50

$GLGSV,5,5,19,77,26,321,,85,52,71,35,86,55,308,36*63

$GPRMC,141441.44,A,5133.4545,N,00957.5980,E,0.461,0.000,260619,,E,A*1C

$GPGGA,141441.44,5133.4545,N,00957.5980,E,1,15,0.699,290.046,M,,M,0,*47

$GNGSA,A,3,7,8,10,15,16,20,21,26,27,30,69,71,75,85,86,,,,,,1.181,0.699,0.951*28

$GPGSA,A,3,7,8,10,15,16,20,21,26,27,30,,,,,,,,,,,1.181,0.699,0.951*3E

$GLGSA,A,3,69,71,75,85,86,,,,,,,,,,,,,,,,1.181,0.699,0.951*24

$BDGSA,A,3,,,,,,,,,,,,,,,,,,,,,1.181,0.699,0.951*21

$QZGSA,A,3,,,,,,,,,,,,,,,,,,,,,1.181,0.699,0.951*2C

$GPGSV,5,1,19,7,9,293,20,8,45,297,37,10,60,128,38,11,6,272,*76

$GPGSV,5,2,19,15,12,39,24,16,37,193,34,18,19,254,11,20,53,76,39*7F

$GPGSV,5,3,19,21,28,73,20,26,13,179,32,27,86,271,40,30,8,321,16*77

$GLGSV,5,4,19,69,23,29,27,70,47,99,,71,21,154,29,75,6,214,36*50

$GLGSV,5,5,19,77,26,321,,85,52,71,35,86,55,308,36*63

$GPRMC,141441.44,A,5133.4545,N,00957.5980,E,0.461,0.000,260619,,E,A*1C

$GPGGA,141441.44,5133.4545,N,00957.5980,E,1,15,0.699,290.046,M,,M,0,*47

$GNGSA,A,3,7,8,10,15,16,20,21,26,27,30,69,71,75,85,86,,,,,,1.181,0.699,0.951*28

$GPGSA,A,3,7,8,10,15,16,20,21,26,27,30,,,,,,,,,,,1.181,0.699,0.951*3E

$GLGSA,A,3,69,71,75,85,86,,,,,,,,,,,,,,,,1.181,0.699,0.951*24

$BDGSA,A,3,,,,,,,,,,,,,,,,,,,,,1.181,0.699,0.951*21

$QZGSA,A,3,,,,,,,,,,,,,,,,,,,,,1.181,0.699,0.951*2C

$GPGSV,5,1,19,7,9,293,20,8,45,297,37,10,60,128,38,11,6,272,*76

$GPGSV,5,2,19,15,12,39,24,16,37,193,34,18,19,254,11,20,53,76,39*7F

$GPGSV,5,3,19,21,28,73,20,26,13,179,32,27,86,271,40,30,8,321,16*77

$GPGGA,141442.00,5133.4575,N,00957.5965,E,1,15,0.699,287.282,M,,M,0,*40

$GNGSA,A,3,7,8,10,15,16,20,21,26,27,30,69,71,75,85,86,,,,,,1.181,0.699,0.951*28

$GPGSA,A,3,7,8,10,15,16,20,21,26,27,30,,,,,,,,,,,1.181,0.699,0.951*3E

$GLGSA,A,3,69,71,75,85,86,,,,,,,,,,,,,,,,1.181,0.699,0.951*24

$BDGSA,A,3,,,,,,,,,,,,,,,,,,,,,1.181,0.699,0.951*21

$QZGSA,A,3,,,,,,,,,,,,,,,,,,,,,1.181,0.699,0.951*2C

$GPGSV,5,1,19,7,9,293,20,8,45,297,37,10,60,128,38,11,6,272,*76

$GPGSV,5,2,19,15,12,39,24,16,37,193,34,18,19,254,11,20,53,76,39*7F

$GPGSV,5,3,19,21,28,73,19,26,13,179,30,27,86,271,40,30,8,321,16*7F

$GLGSV,5,4,19,69,23,29,27,70,47,99,,71,21,154,29,75,6,214,36*50

$GLGSV,5,5,19,77,26,321,,85,52,71,35,86,55,308,36*63

$GPRMC,141442.00,A,5133.4575,N,00957.5965,E,0.290,0.000,260619,,E,A*1F

$GPGGA,141442.00,5133.4575,N,00957.5965,E,1,15,0.699,287.282,M,,M,0,*40

$GNGSA,A,3,7,8,10,15,16,20,21,26,27,30,69,71,75,85,86,,,,,,1.181,0.699,0.951*28

$GPGSA,A,3,7,8,10,15,16,20,21,26,27,30,,,,,,,,,,,1.181,0.699,0.951*3E

$GLGSA,A,3,69,71,75,85,86,,,,,,,,,,,,,,,,1.181,0.699,0.951*24

$BDGSA,A,3,,,,,,,,,,,,,,,,,,,,,1.181,0.699,0.951*21

$QZGSA,A,3,,,,,,,,,,,,,,,,,,,,,1.181,0.699,0.951*2C

$GPGSV,5,1,19,7,9,293,20,8,45,297,37,10,60,128,38,11,6,272,*76

$GPGSV,5,2,19,15,12,39,24,16,37,193,34,18,19,254,11,20,53,76,39*7F

$GPGSV,5,3,19,21,28,73,19,26,13,179,30,27,86,271,40,30,8,321,16*7F

$GLGSV,5,4,19,69,23,29,27,70,47,99,,71,21,154,29,75,6,214,36*50

$GLGSV,5,5,19,77,26,321,,85,52,71,35,86,55,308,36*63

$GPRMC,141442.00,A,5133.4575,N,00957.5965,E,0.290,0.000,260619,,E,A*1F

$GPGGA,141442.00,5133.4575,N,00957.5965,E,1,15,0.699,287.282,M,,M,0,*40

$GNGSA,A,3,7,8,10,15,16,20,21,26,27,30,69,71,75,85,86,,,,,,1.181,0.699,0.951*28

$GPGSA,A,3,7,8,10,15,16,20,21,26,27,30,,,,,,,,,,,1.181,0.699,0.951*3E

$GLGSA,A,3,69,71,75,85,86,,,,,,,,,,,,,,,,1.181,0.699,0.951*24

$QZGSA,A,3,,,,,,,,,,,,,,,,,,,,,1.181,0.699,0.951*2C

$GPGSV,5,1,19,7,9,293,20,8,45,297,37,10,60,128,38,11,6,272,*76

$GPGSV,5,2,19,15,12,39,24,16,37,193,34,18,19,254,11,20,53,76,39*7F

$GPGSV,5,3,19,21,28,73,19,26,13,179,30,27,86,271,40,30,8,321,16*7F

$GLGSV,5,4,19,69,23,29,27,70,47,99,,71,21,154,29,75,6,214,36*50

$GLGSV,5,5,19,77,26,321,,85,52,71,35,86,55,308,36*63

$GPGGA,141443.00,5133.4575,N,00957.5965,E,1,13,0.711,287.282,M,,M,0,*46

$GNGSA,A,3,7,8,10,15,16,18,20,21,30,69,71,75,85,,,,,,,,1.403,0.711,1.209*27

$GPGSA,A,3,7,8,10,15,16,18,20,21,30,,,,,,,,,,,,1.403,0.711,1.209*3F

$GLGSA,A,3,69,71,75,85,,,,,,,,,,,,,,,,,1.403,0.711,1.209*23

$BDGSA,A,3,,,,,,,,,,,,,,,,,,,,,1.403,0.711,1.209*28

$QZGSA,A,3,,,,,,,,,,,,,,,,,,,,,1.403,0.711,1.209*25

$GPGSV,5,1,19,7,9,293,18,8,46,297,37,10,60,128,35,11,6,272,*73

$GPGSV,5,2,19,15,12,39,24,16,37,193,34,18,19,254,12,20,53,76,38*7D

$GPGSV,5,3,19,21,28,73,20,26,13,179,,27,86,271,,30,8,321,16*72

$GLGSV,5,4,19,69,23,29,28,70,47,99,,71,21,154,30,75,6,214,36*57

$GLGSV,5,5,19,77,26,321,,85,52,71,35,86,55,308,35*60

$GPRMC,141443.00,A,5133.4575,N,00957.5965,E,0.000,0.000,260619,,E,A*15

$GPGGA,141443.00,5133.4575,N,00957.5965,E,1,13,0.711,287.282,M,,M,0,*46

$GNGSA,A,3,7,8,10,15,16,18,20,21,30,69,71,75,85,,,,,,,,1.403,0.711,1.209*27

$GPGSA,A,3,7,8,10,15,16,18,20,21,30,,,,,,,,,,,,1.403,0.711,1.209*3F

$GLGSA,A,3,69,71,75,85,,,,,,,,,,,,,,,,,1.403,0.711,1.209*23

$BDGSA,A,3,,,,,,,,,,,,,,,,,,,,,1.403,0.711,1.209*28

$QZGSA,A,3,,,,,,,,,,,,,,,,,,,,,1.403,0.711,1.209*25

$GPGSV,5,1,19,7,9,293,18,8,46,297,37,10,60,128,35,11,6,272,*73

$GPGSV,5,2,19,15,12,39,24,16,37,193,34,18,19,254,12,20,53,76,38*7D

$GPGSV,5,3,19,21,28,73,20,26,13,179,,27,86,271,,30,8,321,16*72

$GLGSV,5,4,19,69,23,29,28,70,47,99,,71,21,154,30,75,6,214,36*57

$GLGSV,5,5,19,77,26,321,,85,52,71,35,86,55,308,35*60

$GPRMC,141443.00,A,5133.4575,N,00957.5965,E,0.000,0.000,260619,,E,A*15

$GPGGA,141443.00,5133.4575,N,00957.5965,E,1,13,0.711,287.282,M,,M,0,*46

$GNGSA,A,3,7,8,10,15,16,18,20,21,30,69,71,75,85,,,,,,,,1.403,0.711,1.209*27

$GPGSA,A,3,7,8,10,15,16,18,20,21,30,,,,,,,,,,,,1.403,0.711,1.209*3F

$GLGSA,A,3,69,71,75,85,,,,,,,,,,,,,,,,,1.403,0.711,1.209*23

$GPGSV,5,1,19,7,9,293,18,8,46,297,37,10,60,128,35,11,6,272,*73

$GLGSV,5,4,19,69,23,29,28,70,47,99,,71,21,154,30,75,6,214,36*57

$GPRMC,141443.00,A,5133.4575,N,00957.5965,E,0.000,0.000,260619,,E,A*15

$GPGGA,141444.00,5133.4575,N,00957.5965,E,1,13,0.711,287.282,M,,M,0,*41

$GNGSA,A,3,7,8,10,15,16,18,20,21,30,69,71,75,85,,,,,,,,1.403,0.711,1.209*27

$GPGSA,A,3,7,8,10,15,16,18,20,21,30,,,,,,,,,,,,1.403,0.711,1.209*3F

$GLGSA,A,3,69,71,75,85,,,,,,,,,,,,,,,,,1.403,0.711,1.209*23

$BDGSA,A,3,,,,,,,,,,,,,,,,,,,,,1.403,0.711,1.209*28

$QZGSA,A,3,,,,,,,,,,,,,,,,,,,,,1.403,0.711,1.209*25

$GPGSV,8,1,27,4,5,,,7,9,293,18,8,46,297,37,10,60,128,36*70

$GPGSV,8,2,27,11,6,272,,15,12,38,21,16,37,193,33,18,19,254,11*72

$GPGSV,8,3,27,20,53,76,37,21,28,73,19,26,13,179,32,27,86,271,39*7E

$GPGSV,8,4,27,30,8,321,16*7C

$GLGSV,8,5,27,69,23,29,29,70,47,99,23,71,21,154,29,75,6,214,36*5E

$GLGSV,8,6,27,76,31,258,,77,26,321,,85,52,71,36,86,55,308,34*5D

$BDGSV,8,7,27,203,23,140,,205,17,123,,206,23,55,,209,23,85,*64

$GPGSA,A,3,7,8,10,15,16,18,20,21,30,,,,,,,,,,,,1.403,0.711,1.209*3F

$QZGSA,A,3,,,,,,,,,,,,,,,,,,,,,1.403,0.711,1.209*25

$GPGSV,8,1,27,4,5,,,7,9,293,18,8,46,297,37,10,60,128,36*70

$GPGSV,8,2,27,11,6,272,,15,12,38,21,16,37,193,33,18,19,254,11*72

$GPGSV,8,4,27,30,8,321,16*7C

$GLGSV,8,5,27,69,23,29,29,70,47,99,23,71,21,154,29,75,6,214,36*5E

$GLGSV,8,6,27,76,31,258,,77,26,321,,85,52,71,36,86,55,308,34*5D

$BDGSV,8,7,27,203,23,140,,205,17,123,,206,23,55,,209,23,85,*64

$BDGSV,8,8,27,211,19,103,,214,40,68,*58

$GPRMC,141444.00,A,5133.4575,N,00957.5965,E,0.000,0.000,260619,,E,A*12

$GPGGA,141444.00,5133.4575,N,00957.5965,E,1,13,0.711,287.282,M,,M,0,*41

$GNGSA,A,3,7,8,10,15,16,18,20,21,30,69,71,75,85,,,,,,,,1.403,0.711,1.209*27

$GPGSA,A,3,7,8,10,15,16,18,20,21,30,,,,,,,,,,,,1.403,0.711,1.209*3F

$GLGSA,A,3,69,71,75,85,,,,,,,,,,,,,,,,,1.403,0.711,1.209*23

$BDGSA,A,3,,,,,,,,,,,,,,,,,,,,,1.403,0.711,1.209*28

$GPGSV,8,4,27,30,8,321,16*7C

$GPRMC,141444.00,A,5133.4575,N,00957.5965,E,0.000,0.000,260619,,E,A*12

$GPRMC,141444.00,A,5133.4575,N,00957.5965,E,0.000,0.000,260619,,E,A*12

$GPGGA,141445.00,5133.4575,N,00957.5965,E,1,14,0.694,287.282,M,,M,0,*4B

$GNGSA,A,3,7,8,10,15,16,18,20,21,26,27,69,71,75,85,,,,,,,1.218,0.694,1.001*2F

$GPGSA,A,3,7,8,10,15,16,18,20,21,26,27,,,,,,,,,,,1.218,0.694,1.001*37

$GLGSA,A,3,69,71,75,85,,,,,,,,,,,,,,,,,1.218,0.694,1.001*29

$BDGSA,A,3,,,,,,,,,,,,,,,,,,,,,1.218,0.694,1.001*22

$QZGSA,A,3,,,,,,,,,,,,,,,,,,,,,1.218,0.694,1.001*2F

$GPGSV,8,1,27,4,5,,,7,9,293,17,8,46,297,37,10,60,128,34*7D

$GPGSV,8,2,27,11,6,272,,15,12,38,20,16,37,193,33,18,19,254,9*4A

$GPGSV,8,3,27,20,53,76,36,21,28,73,19,26,13,179,33,27,86,271,40*70

$GPGSV,8,4,27,30,8,321,15*7F

$GLGSV,8,5,27,69,23,29,29,70,47,99,23,71,21,154,29,75,6,214,36*5E

$GLGSV,8,6,27,76,31,258,,77,26,321,,85,52,71,36,86,55,308,35*5C

$BDGSV,8,7,27,203,23,140,,205,17,123,,206,23,55,,209,23,85,*64

$BDGSV,8,8,27,211,19,103,,214,40,68,*58

$GPRMC,141445.00,A,5133.4575,N,00957.5965,E,0.000,0.000,260619,,E,A*13

$GPGGA,141445.00,5133.4575,N,00957.5965,E,1,14,0.694,287.282,M,,M,0,*4B

$GNGSA,A,3,7,8,10,15,16,18,20,21,26,27,69,71,75,85,,,,,,,1.218,0.694,1.001*2F

$GPGSA,A,3,7,8,10,15,16,18,20,21,26,27,,,,,,,,,,,1.218,0.694,1.001*37

$BDGSA,A,3,,,,,,,,,,,,,,,,,,,,,1.218,0.694,1.001*22

$QZGSA,A,3,,,,,,,,,,,,,,,,,,,,,1.218,0.694,1.001*2F

$GPGSV,8,1,27,4,5,,,7,9,293,17,8,46,297,37,10,60,128,34*7D

$GPGSV,8,2,27,11,6,272,,15,12,38,20,16,37,193,33,18,19,254,9*4A

$GPGSV,8,3,27,20,53,76,36,21,28,73,19,26,13,179,33,27,86,271,40*70

$GPGSV,8,4,27,30,8,321,15*7F

$GLGSV,8,5,27,69,23,29,29,70,47,99,23,71,21,154,29,75,6,214,36*5E

$GLGSV,8,6,27,76,31,258,,77,26,321,,85,52,71,36,86,55,308,35*5C

$BDGSV,8,7,27,203,23,140,,205,17,123,,206,23,55,,209,23,85,*64

$BDGSV,8,8,27,211,19,103,,214,40,68,*58

$GPRMC,141445.00,A,5133.4575,N,00957.5965,E,0.000,0.000,260619,,E,A*13

$GLGSA,A,3,69,71,75,85,,,,,,,,,,,,,,,,,1.218,0.694,1.001*29

$GPGSV,8,4,27,30,8,321,15*7F

$GLGSV,8,5,27,69,23,29,29,70,47,99,23,71,21,154,29,75,6,214,36*5E

$GLGSV,8,6,27,76,31,258,,77,26,321,,85,52,71,36,86,55,308,35*5C

$BDGSV,8,8,27,211,19,103,,214,40,68,*58

$GPGGA,141446.00,5133.4575,N,00957.5965,E,1,13,0.781,287.282,M,,M,0,*4A

$GNGSA,A,3,8,10,15,16,18,20,21,26,27,69,71,75,85,,,,,,,,1.303,0.781,1.044*17

$GPGSA,A,3,8,10,15,16,18,20,21,26,27,,,,,,,,,,,,1.303,0.781,1.044*0F

$GLGSA,A,3,69,71,75,85,,,,,,,,,,,,,,,,,1.303,0.781,1.044*26

$BDGSA,A,3,,,,,,,,,,,,,,,,,,,,,1.303,0.781,1.044*2D

$QZGSA,A,3,,,,,,,,,,,,,,,,,,,,,1.303,0.781,1.044*20

$GPGSV,8,1,27,4,5,,,7,9,292,19,8,46,297,35,10,60,128,33*77

$GPGSV,8,2,27,11,6,272,,15,12,38,22,16,37,193,33,18,19,254,8*49

$GPGSV,8,3,27,20,53,76,34,21,28,73,21,26,13,179,30,27,86,271,40*7A

$GPGSV,8,4,27,30,8,321,15*7F

$GLGSV,8,5,27,69,23,29,29,70,47,99,23,71,21,154,29,75,6,214,36*5E

$GLGSV,8,6,27,76,31,258,,77,26,321,,85,52,71,34,86,55,308,35*5E

$BDGSV,8,7,27,203,23,140,,205,17,123,,206,23,55,,209,23,85,*64

$BDGSV,8,8,27,211,19,103,,214,40,68,*58

$GPRMC,141446.00,A,5133.4575,N,00957.5965,E,0.000,0.000,260619,,E,A*10

$GPGGA,141446.00,5133.4575,N,00957.5965,E,1,13,0.781,287.282,M,,M,0,*4A

$GNGSA,A,3,8,10,15,16,18,20,21,26,27,69,71,75,85,,,,,,,,1.303,0.781,1.044*17

$GPGSA,A,3,8,10,15,16,18,20,21,26,27,,,,,,,,,,,,1.303,0.781,1.044*0F

$GLGSA,A,3,69,71,75,85,,,,,,,,,,,,,,,,,1.303,0.781,1.044*26

$BDGSA,A,3,,,,,,,,,,,,,,,,,,,,,1.303,0.781,1.044*2D

$QZGSA,A,3,,,,,,,,,,,,,,,,,,,,,1.303,0.781,1.044*20

$GPGSV,8,1,27,4,5,,,7,9,292,19,8,46,297,35,10,60,128,33*77

$GPGSV,8,3,27,20,53,76,34,21,28,73,21,26,13,179,30,27,86,271,40*7A

$GLGSV,8,5,27,69,23,29,29,70,47,99,23,71,21,154,29,75,6,214,36*5E

$BDGSV,8,7,27,203,23,140,,205,17,123,,206,23,55,,209,23,85,*64

$GPRMC,141446.00,A,5133.4575,N,00957.5965,E,0.000,0.000,260619,,E,A*10

$GPGGA,141446.00,5133.4575,N,00957.5965,E,1,13,0.781,287.282,M,,M,0,*4A

$GNGSA,A,3,8,10,15,16,18,20,21,26,27,69,71,75,85,,,,,,,,1.303,0.781,1.044*17

$GPGSA,A,3,8,10,15,16,18,20,21,26,27,,,,,,,,,,,,1.303,0.781,1.044*0F

$GLGSA,A,3,69,71,75,85,,,,,,,,,,,,,,,,,1.303,0.781,1.044*26

$BDGSA,A,3,,,,,,,,,,,,,,,,,,,,,1.303,0.781,1.044*2D

$QZGSA,A,3,,,,,,,,,,,,,,,,,,,,,1.303,0.781,1.044*20

$GPGSV,8,1,27,4,5,,,7,9,292,19,8,46,297,35,10,60,128,33*77

$GPGSV,8,2,27,11,6,272,,15,12,38,22,16,37,193,33,18,19,254,8*49

$BDGSV,8,7,27,203,23,140,,205,17,123,,206,23,55,,209,23,85,*64

$BDGSV,8,8,27,211,19,103,,214,40,68,*58

$GPGGA,141447.00,5133.4575,N,00957.5965,E,1,15,0.652,287.282,M,,M,0,*42

$GNGSA,A,3,7,8,10,15,16,18,20,21,26,27,30,69,71,75,85,,,,,,1.170,0.652,0.971*24

$GPGSA,A,3,7,8,10,15,16,18,20,21,26,27,30,,,,,,,,,,1.170,0.652,0.971*3C

$GLGSA,A,3,69,71,75,85,,,,,,,,,,,,,,,,,1.170,0.652,0.971*21

$BDGSA,A,3,,,,,,,,,,,,,,,,,,,,,1.170,0.652,0.971*2A

$QZGSA,A,3,,,,,,,,,,,,,,,,,,,,,1.170,0.652,0.971*27

$GPGSV,8,1,27,4,5,,,7,9,292,18,8,46,297,34,10,60,128,32*76

$GPGSV,8,2,27,11,6,272,,15,12,38,22,16,37,193,34,18,19,254,8*4E

$GPGSV,8,3,27,20,53,76,34,21,28,73,20,26,12,179,31,27,86,271,41*7A

$GPGSV,8,4,27,30,8,321,14*7E

$GLGSV,8,5,27,69,23,29,28,70,47,99,24,71,21,154,29,75,6,214,37*59

$GLGSV,8,6,27,76,31,258,,77,26,321,,85,52,71,33,86,55,308,35*59

$BDGSV,8,7,27,203,23,140,,205,17,123,,206,23,55,,209,23,85,*64

$BDGSV,8,8,27,211,19,103,,214,40,68,*58

$GPRMC,141447.00,A,5133.4575,N,00957.5965,E,0.000,0.000,260619,,E,A*11

$GPGGA,141447.00,5133.4575,N,00957.5965,E,1,15,0.652,287.282,M,,M,0,*42

$QZGSA,A,3,,,,,,,,,,,,,,,,,,,,,1.170,0.652,0.971*27

$GPGSV,8,1,27,4,5,,,7,9,292,18,8,46,297,34,10,60,128,32*76

$GPGSV,8,2,27,11,6,272,,15,12,38,22,16,37,193,34,18,19,254,8*4E

$GPGSV,8,3,27,20,53,76,34,21,28,73,20,26,12,179,31,27,86,271,41*7A

$GPGSV,8,4,27,30,8,321,14*7E

$GLGSV,8,5,27,69,23,29,28,70,47,99,24,71,21,154,29,75,6,214,37*59

$GLGSV,8,6,27,76,31,258,,77,26,321,,85,52,71,33,86,55,308,35*59

$BDGSV,8,7,27,203,23,140,,205,17,123,,206,23,55,,209,23,85,*64

$BDGSV,8,8,27,211,19,103,,214,40,68,*58

$GPRMC,141447.00,A,5133.4575,N,00957.5965,E,0.000,0.000,260619,,E,A*11

$QZGSA,A,3,,,,,,,,,,,,,,,,,,,,,1.170,0.652,0.971*27

$GPGSV,8,4,27,30,8,321,14*7E

$GPRMC,141447.00,A,5133.4575,N,00957.5965,E,0.000,0.000,260619,,E,A*11

$GPGGA,141448.00,5133.4575,N,00957.5965,E,1,15,0.652,287.282,M,,M,0,*4D

$GNGSA,A,3,7,8,10,15,16,18,20,21,26,27,30,69,71,75,85,,,,,,1.170,0.652,0.971*24

$GPGSA,A,3,7,8,10,15,16,18,20,21,26,27,30,,,,,,,,,,1.170,0.652,0.971*3C

$GLGSA,A,3,69,71,75,85,,,,,,,,,,,,,,,,,1.170,0.652,0.971*21

$BDGSA,A,3,,,,,,,,,,,,,,,,,,,,,1.170,0.652,0.971*2A

$QZGSA,A,3,,,,,,,,,,,,,,,,,,,,,1.170,0.652,0.971*27

$GPGSV,8,1,27,4,5,,,7,9,292,18,8,46,297,35,10,60,128,32*77

$GPGSV,8,2,27,11,6,272,,15,12,38,20,16,37,193,34,18,19,254,10*75

$GPGSV,8,3,27,20,53,76,35,21,28,73,19,26,12,179,33,27,86,271,39*7C

$GPGSV,8,4,27,30,8,321,13*79

$GLGSV,8,5,27,69,23,29,28,70,47,99,22,71,21,154,29,75,6,214,37*5F

$GLGSV,8,6,27,76,31,258,,77,26,321,,85,52,71,34,86,55,308,35*5E

$BDGSV,8,7,27,203,23,140,,205,17,123,,206,23,55,,209,23,85,*64

$BDGSV,8,8,27,211,19,103,,214,40,68,*58

$GPRMC,141448.00,A,5133.4575,N,00957.5965,E,0.000,0.000,260619,,E,A*1E

$GPGSA,A,3,7,8,10,15,16,18,20,21,26,27,30,,,,,,,,,,1.170,0.652,0.971*3C

$GLGSA,A,3,69,71,75,85,,,,,,,,,,,,,,,,,1.170,0.652,0.971*21

$GPGSV,8,1,27,4,5,,,7,9,292,18,8,46,297,35,10,60,128,32*77

$GPGSV,8,2,27,11,6,272,,15,12,38,20,16,37,193,34,18,19,254,10*75

$GLGSV,8,5,27,69,23,29,28,70,47,99,22,71,21,154,29,75,6,214,37*5F

$BDGSV,8,7,27,203,23,140,,205,17,123,,206,23,55,,209,23,85,*64

$GPRMC,141448.00,A,5133.4575,N,00957.5965,E,0.000,0.000,260619,,E,A*1E

$GNGSA,A,3,7,8,10,15,16,18,20,21,26,27,30,69,71,75,85,,,,,,1.170,0.652,0.971*24

$GPGSA,A,3,7,8,10,15,16,18,20,21,26,27,30,,,,,,,,,,1.170,0.652,0.971*3C

$GLGSA,A,3,69,71,75,85,,,,,,,,,,,,,,,,,1.170,0.652,0.971*21

$BDGSA,A,3,,,,,,,,,,,,,,,,,,,,,1.170,0.652,0.971*2A

$QZGSA,A,3,,,,,,,,,,,,,,,,,,,,,1.170,0.652,0.971*27

$GPGSV,8,1,27,4,5,,,7,9,292,18,8,46,297,35,10,60,128,32*77

$GPGSV,8,2,27,11,6,272,,15,12,38,20,16,37,193,34,18,19,254,10*75

$GPGSV,8,3,27,20,53,76,35,21,28,73,19,26,12,179,33,27,86,271,39*7C

$GPGSV,8,4,27,30,8,321,13*79

$GPRMC,141448.00,A,5133.4575,N,00957.5965,E,0.000,0.000,260619,,E,A*1E

$GPGGA,141449.00,5133.4575,N,00957.5965,E,1,15,0.652,287.282,M,,M,0,*4C

$GNGSA,A,3,7,8,10,15,16,18,20,21,26,27,30,69,71,75,85,,,,,,1.170,0.652,0.971*24

$GPGSA,A,3,7,8,10,15,16,18,20,21,26,27,30,,,,,,,,,,1.170,0.652,0.971*3C

$GLGSA,A,3,69,71,75,85,,,,,,,,,,,,,,,,,1.170,0.652,0.971*21

$BDGSA,A,3,,,,,,,,,,,,,,,,,,,,,1.170,0.652,0.971*2A

$QZGSA,A,3,,,,,,,,,,,,,,,,,,,,,1.170,0.652,0.971*27

$GPGSV,8,1,27,4,5,,,7,9,292,17,8,46,297,37,10,60,128,34*7C

$GPGSV,8,2,27,11,6,272,,15,12,38,21,16,37,193,34,18,19,254,10*74

$GPGSV,8,3,27,20,53,76,35,21,28,73,19,26,12,179,32,27,86,271,39*7D

$GPGSV,8,4,27,30,8,321,11*7B

$GLGSV,8,5,27,69,23,29,28,70,47,99,22,71,21,154,29,75,6,214,36*5E

$GLGSV,8,6,27,76,31,258,,77,26,321,,85,52,71,36,86,55,308,35*5C

$BDGSV,8,7,27,203,23,140,,205,17,123,,206,23,55,,209,23,85,*64

$BDGSV,8,8,27,211,19,103,,214,40,68,*58

$GPRMC,141449.00,A,5133.4575,N,00957.5965,E,0.000,0.000,260619,,E,A*1F

$GPGGA,141449.00,5133.4575,N,00957.5965,E,1,15,0.652,287.282,M,,M,0,*4C

$GNGSA,A,3,7,8,10,15,16,18,20,21,26,27,30,69,71,75,85,,,,,,1.170,0.652,0.971*24

$GPGSV,8,2,27,11,6,272,,15,12,38,21,16,37,193,34,18,19,254,10*74

$GPGSV,8,3,27,20,53,76,35,21,28,73,19,26,12,179,32,27,86,271,39*7D

$BDGSV,8,7,27,203,23,140,,205,17,123,,206,23,55,,209,23,85,*64

$GNGSA,A,3,7,8,10,15,16,18,20,21,26,27,30,69,71,75,85,,,,,,1.170,0.652,0.971*24

$GLGSA,A,3,69,71,75,85,,,,,,,,,,,,,,,,,1.170,0.652,0.971*21

$GPGSV,8,4,27,30,8,321,11*7B

$GLGSV,8,6,27,76,31,258,,77,26,321,,85,52,71,36,86,55,308,35*5C

$BDGSV,8,7,27,203,23,140,,205,17,123,,206,23,55,,209,23,85,*64

$GPRMC,141449.00,A,5133.4575,N,00957.5965,E,0.000,0.000,260619,,E,A*1F

$GPGGA,141450.00,5133.4575,N,00957.5965,E,1,16,0.634,287.282,M,,M,0,*47

$GNGSA,A,3,7,8,10,11,15,16,18,20,21,26,27,30,69,71,75,85,,,,,1.150,0.634,0.959*2C

$GPGSA,A,3,7,8,10,11,15,16,18,20,21,26,27,30,,,,,,,,,1.150,0.634,0.959*34

$GLGSA,A,3,69,71,75,85,,,,,,,,,,,,,,,,,1.150,0.634,0.959*29

$GPGGA,141450.00,5133.4575,N,00957.5965,E,1,16,0.634,287.282,M,,M,0,*47

$GNGSA,A,3,7,8,10,11,15,16,18,20,21,26,27,30,69,71,75,85,,,,,1.150,0.634,0.959*2C

$GPGSA,A,3,7,8,10,11,15,16,18,20,21,26,27,30,,,,,,,,,1.150,0.634,0.959*34

$GLGSA,A,3,69,71,75,85,,,,,,,,,,,,,,,,,1.150,0.634,0.959*29

$BDGSA,A,3,,,,,,,,,,,,,,,,,,,,,1.150,0.634,0.959*22

$QZGSA,A,3,,,,,,,,,,,,,,,,,,,,,1.150,0.634,0.959*2F

$GPGSV,8,1,27,4,5,,,7,9,292,17,8,46,297,39,10,60,128,34*72

$GPGSV,8,2,27,11,6,272,13,15,12,38,23,16,37,193,33,18,19,254,10*73

$GPGSV,8,3,27,20,53,76,36,21,28,73,18,26,12,179,34,27,86,271,40*77

$GPGSV,8,4,27,30,8,321,11*7B

$GLGSV,8,5,27,69,23,29,27,70,47,99,24,71,21,154,27,75,6,214,36*59

$GLGSV,8,6,27,76,31,258,,77,26,321,,85,52,71,34,86,55,308,35*5E

$BDGSV,8,7,27,203,23,140,,205,17,123,,206,23,55,,209,23,85,*64

$BDGSV,8,8,27,211,19,103,,214,40,68,*58

$GPRMC,141450.00,A,5133.4575,N,00957.5965,E,0.000,0.000,260619,,E,A*17

$QZGSA,A,3,,,,,,,,,,,,,,,,,,,,,1.150,0.634,0.959*2F

$GPGSV,8,1,27,4,5,,,7,9,292,17,8,46,297,39,10,60,128,34*72

$GPGSV,8,2,27,11,6,272,13,15,12,38,23,16,37,193,33,18,19,254,10*73

$GPGSV,8,3,27,20,53,76,36,21,28,73,18,26,12,179,34,27,86,271,40*77

$GPGGA,141450.00,5133.4575,N,00957.5965,E,1,16,0.634,287.282,M,,M,0,*47

$BDGSA,A,3,,,,,,,,,,,,,,,,,,,,,1.150,0.634,0.959*22

$QZGSA,A,3,,,,,,,,,,,,,,,,,,,,,1.150,0.634,0.959*2F

$GPGSV,8,3,27,20,53,76,36,21,28,73,18,26,12,179,34,27,86,271,40*77

$GLGSV,8,5,27,69,23,29,27,70,47,99,24,71,21,154,27,75,6,214,36*59

$BDGSV,8,8,27,211,19,103,,214,40,68,*58

$GPGGA,141451.00,5133.4575,N,00957.5965,E,1,15,0.656,287.282,M,,M,0,*41

$GPGGA,141451.00,5133.4575,N,00957.5965,E,1,15,0.656,287.282,M,,M,0,*41

$GNGSA,A,3,7,8,10,11,15,16,20,21,26,27,30,69,71,75,85,,,,,,1.163,0.656,0.960*2B

$GPGSA,A,3,7,8,10,11,15,16,20,21,26,27,30,,,,,,,,,,1.163,0.656,0.960*33

$GLGSA,A,3,69,71,75,85,,,,,,,,,,,,,,,,,1.163,0.656,0.960*27

$BDGSA,A,3,,,,,,,,,,,,,,,,,,,,,1.163,0.656,0.960*2C

$QZGSA,A,3,,,,,,,,,,,,,,,,,,,,,1.163,0.656,0.960*21

$GPGSV,8,1,27,4,5,,,7,9,292,18,8,46,297,41,10,60,128,36*70

$GPGSV,8,2,27,11,6,272,13,15,12,38,20,16,37,193,33,18,19,254,10*70

$GPGSV,8,3,27,20,53,76,38,21,28,73,15,26,12,179,33,27,86,271,40*73

$GPGSV,8,4,27,30,8,321,11*7B

$GLGSV,8,5,27,69,23,29,28,70,47,99,24,71,21,154,28,75,6,214,36*59

$GLGSV,8,6,27,76,31,258,,77,26,321,,85,52,71,35,86,55,308,36*5C

$BDGSV,8,7,27,203,23,140,,205,17,123,,206,23,55,,209,23,85,*64

$BDGSV,8,8,27,211,19,103,,214,40,68,*58

$GPRMC,141451.00,A,5133.4575,N,00957.5965,E,0.000,0.000,260619,,E,A*16

$GNGSA,A,3,7,8,10,11,15,16,20,21,26,27,30,69,71,75,85,,,,,,1.163,0.656,0.960*2B

$GLGSA,A,3,69,71,75,85,,,,,,,,,,,,,,,,,1.163,0.656,0.960*27

$QZGSA,A,3,,,,,,,,,,,,,,,,,,,,,1.163,0.656,0.960*21

$GPGSV,8,1,27,4,5,,,7,9,292,18,8,46,297,41,10,60,128,36*70

$GPGSV,8,3,27,20,53,76,38,21,28,73,15,26,12,179,33,27,86,271,40*73

$GPGSV,8,4,27,30,8,321,11*7B

$GLGSV,8,5,27,69,23,29,28,70,47,99,24,71,21,154,28,75,6,214,36*59

$GLGSV,8,6,27,76,31,258,,77,26,321,,85,52,71,35,86,55,308,36*5C

$BDGSV,8,7,27,203,23,140,,205,17,123,,206,23,55,,209,23,85,*64

$BDGSV,8,8,27,211,19,103,,214,40,68,*58

$GPRMC,141451.00,A,5133.4575,N,00957.5965,E,0.000,0.000,260619,,E,A*16

$GPGGA,141451.00,5133.4575,N,00957.5965,E,1,15,0.656,287.282,M,,M,0,*41

$GNGSA,A,3,7,8,10,11,15,16,20,21,26,27,30,69,71,75,85,,,,,,1.163,0.656,0.960*2B

$GPGSA,A,3,7,8,10,11,15,16,20,21,26,27,30,,,,,,,,,,1.163,0.656,0.960*33

$GPGSV,8,4,27,30,8,321,11*7B

$BDGSV,8,8,27,211,19,103,,214,40,68,*58

$GPRMC,141451.00,A,5133.4575,N,00957.5965,E,0.000,0.000,260619,,E,A*16

$GPGGA,141452.00,5133.4575,N,00957.5965,E,1,15,0.656,287.282,M,,M,0,*42

$GNGSA,A,3,7,8,10,11,15,16,20,21,26,27,30,69,71,75,85,,,,,,1.163,0.656,0.960*2B

$GPGSA,A,3,7,8,10,11,15,16,20,21,26,27,30,,,,,,,,,,1.163,0.656,0.960*33

$GLGSA,A,3,69,71,75,85,,,,,,,,,,,,,,,,,1.163,0.656,0.960*27

$BDGSA,A,3,,,,,,,,,,,,,,,,,,,,,1.163,0.656,0.960*2C

$QZGSA,A,3,,,,,,,,,,,,,,,,,,,,,1.163,0.656,0.960*21

$GPGSV,8,1,27,4,5,,,7,9,292,18,8,46,297,40,10,60,128,35*72

$GPGSV,8,2,27,11,6,272,14,15,12,38,20,16,37,193,34,18,19,254,10*70

$GPGSV,8,3,27,20,53,76,37,21,28,73,16,26,12,179,33,27,86,270,41*7F

$GPGSV,8,4,27,30,8,321,13*79

$GLGSV,8,5,27,69,23,29,28,70,47,99,25,71,21,154,28,75,6,214,35*5B

$GLGSV,8,6,27,76,31,258,,77,26,321,,85,52,71,36,86,55,308,36*5F

$BDGSV,8,7,27,203,23,140,,205,17,123,,206,23,55,,209,23,85,*64

$BDGSV,8,8,27,211,19,103,,214,40,68,*58

$GPRMC,141452.00,A,5133.4575,N,00957.5965,E,0.000,0.000,260619,,E,A*15

$GPGGA,141452.00,5133.4575,N,00957.5965,E,1,15,0.656,287.282,M,,M,0,*42

$GNGSA,A,3,7,8,10,11,15,16,20,21,26,27,30,69,71,75,85,,,,,,1.163,0.656,0.960*2B

$GPGSA,A,3,7,8,10,11,15,16,20,21,26,27,30,,,,,,,,,,1.163,0.656,0.960*33

$GLGSA,A,3,69,71,75,85,,,,,,,,,,,,,,,,,1.163,0.656,0.960*27

$BDGSA,A,3,,,,,,,,,,,,,,,,,,,,,1.163,0.656,0.960*2C

$GPGSV,8,1,27,4,5,,,7,9,292,18,8,46,297,40,10,60,128,35*72

$GPGSV,8,2,27,11,6,272,14,15,12,38,20,16,37,193,34,18,19,254,10*70

$GPGSV,8,3,27,20,53,76,37,21,28,73,16,26,12,179,33,27,86,270,41*7F

$GPRMC,141452.00,A,5133.4575,N,00957.5965,E,0.000,0.000,260619,,E,A*15

$GPGSA,A,3,7,8,10,11,15,16,20,21,26,27,30,,,,,,,,,,1.163,0.656,0.960*33

$GLGSA,A,3,69,71,75,85,,,,,,,,,,,,,,,,,1.163,0.656,0.960*27

$GPGSV,8,3,27,20,53,76,37,21,28,73,16,26,12,179,33,27,86,270,41*7F

$GLGSV,8,5,27,69,23,29,28,70,47,99,25,71,21,154,28,75,6,214,35*5B

$BDGSV,8,7,27,203,23,140,,205,17,123,,206,23,55,,209,23,85,*64

$GPGGA,141453.00,5133.4575,N,00957.5965,E,1,15,0.656,287.282,M,,M,0,*43

$GNGSA,A,3,7,8,10,11,15,16,20,21,26,27,30,69,71,75,85,,,,,,1.163,0.656,0.960*2B

$GPGGA,141453.00,5133.4575,N,00957.5965,E,1,15,0.656,287.282,M,,M,0,*43

$GNGSA,A,3,7,8,10,11,15,16,20,21,26,27,30,69,71,75,85,,,,,,1.163,0.656,0.960*2B

$GPGSA,A,3,7,8,10,11,15,16,20,21,26,27,30,,,,,,,,,,1.163,0.656,0.960*33

$GLGSA,A,3,69,71,75,85,,,,,,,,,,,,,,,,,1.163,0.656,0.960*27

$BDGSA,A,3,,,,,,,,,,,,,,,,,,,,,1.163,0.656,0.960*2C

$QZGSA,A,3,,,,,,,,,,,,,,,,,,,,,1.163,0.656,0.960*21

$GPGSV,8,1,27,4,5,,,7,9,292,18,8,46,297,39,10,60,128,35*7C

$GPGSV,8,2,27,11,6,272,14,15,12,38,21,16,37,193,34,18,19,254,10*71

$GPGSV,8,3,27,20,53,76,35,21,28,73,17,26,12,179,34,27,86,270,41*7B

$GPGSV,8,4,27,30,8,321,15*7F

$GLGSV,8,5,27,69,23,29,30,70,47,99,27,71,21,154,28,75,6,214,36*53

$GLGSV,8,6,27,76,31,258,,77,26,321,,85,52,71,35,86,55,308,36*5C

$BDGSV,8,7,27,203,23,140,,205,17,123,,206,23,55,,209,23,85,*64

$BDGSV,8,8,27,211,19,103,,214,40,68,*58

$GPRMC,141453.00,A,5133.4575,N,00957.5965,E,0.000,0.000,260619,,E,A*14

$GPGSA,A,3,7,8,10,11,15,16,20,21,26,27,30,,,,,,,,,,1.163,0.656,0.960*33

$GLGSA,A,3,69,71,75,85,,,,,,,,,,,,,,,,,1.163,0.656,0.960*27

$BDGSA,A,3,,,,,,,,,,,,,,,,,,,,,1.163,0.656,0.960*2C

$QZGSA,A,3,,,,,,,,,,,,,,,,,,,,,1.163,0.656,0.960*21

$GPGSV,8,1,27,4,5,,,7,9,292,18,8,46,297,39,10,60,128,35*7C

$GPGSV,8,2,27,11,6,272,14,15,12,38,21,16,37,193,34,18,19,254,10*71

$GPGSV,8,3,27,20,53,76,35,21,28,73,17,26,12,179,34,27,86,270,41*7B

$GLGSV,8,6,27,76,31,258,,77,26,321,,85,52,71,35,86,55,308,36*5C

$GPRMC,141453.00,A,5133.4575,N,00957.5965,E,0.000,0.000,260619,,E,A*14

$GNGSA,A,3,7,8,10,11,15,16,20,21,26,27,30,69,71,75,85,,,,,,1.163,0.656,0.960*2B

$GPGSA,A,3,7,8,10,11,15,16,20,21,26,27,30,,,,,,,,,,1.163,0.656,0.960*33

$BDGSA,A,3,,,,,,,,,,,,,,,,,,,,,1.163,0.656,0.960*2C

$GPGSV,8,2,27,11,6,272,14,15,12,38,21,16,37,193,34,18,19,254,10*71

$GPGSV,8,4,27,30,8,321,15*7F

$GLGSV,8,5,27,69,23,29,30,70,47,99,27,71,21,154,28,75,6,214,36*53

$BDGSV,8,7,27,203,23,140,,205,17,123,,206,23,55,,209,23,85,*64

$BDGSV,8,8,27,211,19,103,,214,40,68,*58

$GPRMC,141453.00,A,5133.4575,N,00957.5965,E,0.000,0.000,260619,,E,A*14

$GPGGA,141454.00,5133.4575,N,00957.5965,E,1,15,0.656,287.282,M,,M,0,*44

$GNGSA,A,3,7,8,10,11,15,16,20,21,26,27,30,69,71,75,85,,,,,,1.163,0.656,0.960*2B

$GPGSA,A,3,7,8,10,11,15,16,20,21,26,27,30,,,,,,,,,,1.163,0.656,0.960*33

$GLGSA,A,3,69,71,75,85,,,,,,,,,,,,,,,,,1.163,0.656,0.960*27

$BDGSA,A,3,,,,,,,,,,,,,,,,,,,,,1.163,0.656,0.960*2C

$QZGSA,A,3,,,,,,,,,,,,,,,,,,,,,1.163,0.656,0.960*21

$GPGSV,8,1,27,4,5,,,7,9,292,19,8,46,297,39,10,60,128,35*7D

$GPGSV,8,2,27,11,6,272,15,15,12,38,20,16,37,193,33,18,19,254,10*76

$GPGSV,8,3,27,20,53,76,38,21,28,73,17,26,12,179,33,27,86,270,41*71

$GPGSV,8,4,27,30,8,321,16*7C

$GLGSV,8,5,27,69,23,29,29,70,47,99,27,71,21,154,26,75,6,214,36*55

$GLGSV,8,6,27,76,31,258,,77,26,321,,85,52,71,36,86,55,308,35*5C

$BDGSV,8,7,27,203,23,140,,205,17,123,,206,23,55,,209,23,85,*64

$BDGSV,8,8,27,211,19,103,,214,40,68,*58

$GPRMC,141454.00,A,5133.4575,N,00957.5965,E,0.000,0.000,260619,,E,A*13

$GPGSA,A,3,7,8,10,11,15,16,20,21,26,27,30,,,,,,,,,,1.163,0.656,0.960*33

$GPGSV,8,1,27,4,5,,,7,9,292,19,8,46,297,39,10,60,128,35*7D

$GPGSV,8,3,27,20,53,76,38,21,28,73,17,26,12,179,33,27,86,270,41*71

$GPGSV,8,4,27,30,8,321,16*7C

$BDGSV,8,7,27,203,23,140,,205,17,123,,206,23,55,,209,23,85,*64

$BDGSV,8,8,27,211,19,103,,214,40,68,*58

$GPGGA,141454.00,5133.4575,N,00957.5965,E,1,15,0.656,287.282,M,,M,0,*44

$GNGSA,A,3,7,8,10,11,15,16,20,21,26,27,30,69,71,75,85,,,,,,1.163,0.656,0.960*2B

$GLGSA,A,3,69,71,75,85,,,,,,,,,,,,,,,,,1.163,0.656,0.960*27

$BDGSA,A,3,,,,,,,,,,,,,,,,,,,,,1.163,0.656,0.960*2C

$QZGSA,A,3,,,,,,,,,,,,,,,,,,,,,1.163,0.656,0.960*21

$GPGSV,8,1,27,4,5,,,7,9,292,19,8,46,297,39,10,60,128,35*7D

$GPGSV,8,2,27,11,6,272,15,15,12,38,20,16,37,193,33,18,19,254,10*76

$GPGSV,8,3,27,20,53,76,38,21,28,73,17,26,12,179,33,27,86,270,41*71

$GLGSV,8,6,27,76,31,258,,77,26,321,,85,52,71,36,86,55,308,35*5C

$GPGGA,141455.00,5133.4575,N,00957.5965,E,1,15,0.656,287.282,M,,M,0,*45

$GNGSA,A,3,7,8,10,11,15,16,20,21,26,27,30,69,71,75,85,,,,,,1.163,0.656,0.960*2B

$GPGSA,A,3,7,8,10,11,15,16,20,21,26,27,30,,,,,,,,,,1.163,0.656,0.960*33

$GLGSA,A,3,69,71,75,85,,,,,,,,,,,,,,,,,1.163,0.656,0.960*27

$BDGSA,A,3,,,,,,,,,,,,,,,,,,,,,1.163,0.656,0.960*2C

$QZGSA,A,3,,,,,,,,,,,,,,,,,,,,,1.163,0.656,0.960*21

$GPGSV,8,1,27,4,5,,,7,9,292,19,8,46,297,39,10,60,128,34*7C

$GPGSV,8,2,27,11,6,272,15,15,12,38,21,16,37,193,33,18,19,254,10*77

$GPGSV,8,3,27,20,53,76,38,21,28,73,17,26,12,179,33,27,86,270,41*71

$GPGSV,8,4,27,30,8,321,16*7C

$GLGSV,8,5,27,69,23,29,29,70,47,99,26,71,21,154,25,75,6,214,36*57

$GLGSV,8,6,27,76,31,257,,77,26,321,,85,52,71,36,86,55,308,35*53

$BDGSV,8,7,27,203,23,140,,205,17,123,,206,23,55,,209,23,85,*64

$BDGSV,8,8,27,211,19,103,,214,40,68,*58

$GPRMC,141455.00,A,5133.4575,N,00957.5965,E,0.000,0.000,260619,,E,A*12

$GLGSA,A,3,69,71,75,85,,,,,,,,,,,,,,,,,1.163,0.656,0.960*27

$GPGSV,8,1,27,4,5,,,7,9,292,19,8,46,297,39,10,60,128,34*7C

$GPGSV,8,2,27,11,6,272,15,15,12,38,21,16,37,193,33,18,19,254,10*77

$GLGSV,8,6,27,76,31,257,,77,26,321,,85,52,71,36,86,55,308,35*53

$BDGSV,8,7,27,203,23,140,,205,17,123,,206,23,55,,209,23,85,*64

$GPRMC,141455.00,A,5133.4575,N,00957.5965,E,0.000,0.000,260619,,E,A*12

$GPGGA,141455.00,5133.4575,N,00957.5965,E,1,15,0.656,287.282,M,,M,0,*45

$GNGSA,A,3,7,8,10,11,15,16,20,21,26,27,30,69,71,75,85,,,,,,1.163,0.656,0.960*2B

$GPGSA,A,3,7,8,10,11,15,16,20,21,26,27,30,,,,,,,,,,1.163,0.656,0.960*33

$GLGSA,A,3,69,71,75,85,,,,,,,,,,,,,,,,,1.163,0.656,0.960*27

$QZGSA,A,3,,,,,,,,,,,,,,,,,,,,,1.163,0.656,0.960*21

$GPGSV,8,2,27,11,6,272,15,15,12,38,21,16,37,193,33,18,19,254,10*77

$BDGSV,8,7,27,203,23,140,,205,17,123,,206,23,55,,209,23,85,*64

$GPGGA,141456.00,5133.4575,N,00957.5965,E,1,15,0.656,287.282,M,,M,0,*46

$GPGGA,141456.00,5133.4575,N,00957.5965,E,1,15,0.656,287.282,M,,M,0,*46

$GNGSA,A,3,7,8,10,11,15,16,20,21,26,27,30,69,71,75,85,,,,,,1.163,0.656,0.960*2B

$GPGSA,A,3,7,8,10,11,15,16,20,21,26,27,30,,,,,,,,,,1.163,0.656,0.960*33

$GLGSA,A,3,69,71,75,85,,,,,,,,,,,,,,,,,1.163,0.656,0.960*27

$BDGSA,A,3,,,,,,,,,,,,,,,,,,,,,1.163,0.656,0.960*2C

$QZGSA,A,3,,,,,,,,,,,,,,,,,,,,,1.163,0.656,0.960*21

$GPGSV,8,1,27,4,5,,,7,9,292,19,8,46,297,40,10,60,128,33*75

$GPGSV,8,2,27,11,6,272,16,15,12,38,19,16,37,193,33,18,19,254,10*7F

$GPGSV,8,3,27,20,53,76,37,21,28,73,18,26,12,179,34,27,86,270,41*76

$GPGSV,8,4,27,30,8,321,16*7C

$GLGSV,8,5,27,69,23,29,29,70,47,99,27,71,21,154,27,75,6,214,36*54

$GLGSV,8,6,27,76,31,257,,77,26,321,,85,52,71,34,86,55,308,34*50

$BDGSV,8,7,27,203,23,140,,205,17,123,,206,23,55,,209,23,85,*64

$BDGSV,8,8,27,211,19,103,,214,40,68,*58

$GPRMC,141456.00,A,5133.4575,N,00957.5965,E,0.000,0.000,260619,,E,A*11

$GNGSA,A,3,7,8,10,11,15,16,20,21,26,27,30,69,71,75,85,,,,,,1.163,0.656,0.960*2B

$GPGSA,A,3,7,8,10,11,15,16,20,21,26,27,30,,,,,,,,,,1.163,0.656,0.960*33

$GLGSA,A,3,69,71,75,85,,,,,,,,,,,,,,,,,1.163,0.656,0.960*27

$BDGSA,A,3,,,,,,,,,,,,,,,,,,,,,1.163,0.656,0.960*2C

$QZGSA,A,3,,,,,,,,,,,,,,,,,,,,,1.163,0.656,0.960*21

$GPGSV,8,1,27,4,5,,,7,9,292,19,8,46,297,40,10,60,128,33*75

$GPGSV,8,2,27,11,6,272,16,15,12,38,19,16,37,193,33,18,19,254,10*7F

$BDGSV,8,8,27,211,19,103,,214,40,68,*58

$GPGSA,A,3,7,8,10,11,15,16,20,21,26,27,30,,,,,,,,,,1.163,0.656,0.960*33

$BDGSA,A,3,,,,,,,,,,,,,,,,,,,,,1.163,0.656,0.960*2C

$GPGSV,8,2,27,11,6,272,16,15,12,38,19,16,37,193,33,18,19,254,10*7F

$GLGSV,8,6,27,76,31,257,,77,26,321,,85,52,71,34,86,55,308,34*50

$GPGGA,141457.00,5133.4575,N,00957.5965,E,1,15,0.656,287.282,M,,M,0,*47

$GNGSA,A,3,7,8,10,11,15,16,20,21,26,27,30,69,71,75,85,,,,,,1.163,0.656,0.960*2B

$GPGSA,A,3,7,8,10,11,15,16,20,21,26,27,30,,,,,,,,,,1.163,0.656,0.960*33

$GLGSA,A,3,69,71,75,85,,,,,,,,,,,,,,,,,1.163,0.656,0.960*27

$BDGSA,A,3,,,,,,,,,,,,,,,,,,,,,1.163,0.656,0.960*2C

$QZGSA,A,3,,,,,,,,,,,,,,,,,,,,,1.163,0.656,0.960*21

$GPGSV,8,1,27,4,5,,,7,9,292,18,8,46,297,39,10,60,128,32*7B

$GPGSV,8,2,27,11,6,272,16,15,12,38,21,16,37,193,33,18,19,254,10*74

$GPGSV,8,3,27,20,53,76,37,21,28,73,17,26,12,179,31,27,86,270,42*7F

$GPGSV,8,4,27,30,8,321,16*7C

$GLGSV,8,5,27,69,23,29,28,70,47,99,28,71,21,154,27,75,6,214,36*5A

$GLGSV,8,6,27,76,31,257,,77,26,321,,85,52,71,36,86,55,308,34*52

$BDGSV,8,7,27,203,23,140,,205,17,123,,206,23,55,,209,23,85,*64

$BDGSV,8,8,27,211,19,103,,214,40,68,*58

$GPGGA,141457.00,5133.4575,N,00957.5965,E,1,15,0.656,287.282,M,,M,0,*47

$BDGSA,A,3,,,,,,,,,,,,,,,,,,,,,1.163,0.656,0.960*2C

$GPGSV,8,3,27,20,53,76,37,21,28,73,17,26,12,179,31,27,86,270,42*7F

$BDGSV,8,8,27,211,19,103,,214,40,68,*58

$GLGSA,A,3,69,71,75,85,,,,,,,,,,,,,,,,,1.163,0.656,0.960*27

$BDGSA,A,3,,,,,,,,,,,,,,,,,,,,,1.163,0.656,0.960*2C

$QZGSA,A,3,,,,,,,,,,,,,,,,,,,,,1.163,0.656,0.960*21

$GPGSV,8,1,27,4,5,,,7,9,292,18,8,46,297,39,10,60,128,32*7B

$GPGSV,8,3,27,20,53,76,37,21,28,73,17,26,12,179,31,27,86,270,42*7F

$GPGSV,8,4,27,30,8,321,16*7C

$GLGSV,8,5,27,69,23,29,28,70,47,99,28,71,21,154,27,75,6,214,36*5A

$GLGSV,8,6,27,76,31,257,,77,26,321,,85,52,71,36,86,55,308,34*52

$BDGSV,8,7,27,203,23,140,,205,17,123,,206,23,55,,209,23,85,*64

$GPGGA,141458.00,5133.4575,N,00957.5965,E,1,15,0.656,287.282,M,,M,0,*48

$GNGSA,A,3,7,8,10,11,15,16,20,21,26,27,30,69,71,75,85,,,,,,1.163,0.656,0.960*2B

$GPGSA,A,3,7,8,10,11,15,16,20,21,26,27,30,,,,,,,,,,1.163,0.656,0.960*33

$GLGSA,A,3,69,71,75,85,,,,,,,,,,,,,,,,,1.163,0.656,0.960*27

$BDGSA,A,3,,,,,,,,,,,,,,,,,,,,,1.163,0.656,0.960*2C

$QZGSA,A,3,,,,,,,,,,,,,,,,,,,,,1.163,0.656,0.960*21

$GPGSV,8,1,27,4,5,,,7,9,292,18,8,46,297,39,10,60,128,33*7A

$GPGSV,8,2,27,11,6,272,16,15,12,38,23,16,37,193,34,18,19,254,*70

$GPGSV,8,3,27,20,53,76,37,21,28,73,17,26,12,179,32,27,86,270,42*7C

$GPGSV,8,4,27,30,8,321,15*7F

$GLGSV,8,5,27,69,23,29,28,70,47,99,27,71,21,154,28,75,6,214,35*59

$GLGSV,8,6,27,76,31,257,,77,26,321,,85,52,71,36,86,55,308,34*52

$BDGSV,8,7,27,203,23,140,,205,17,123,,206,23,55,,209,23,85,*64

$BDGSV,8,8,27,211,19,103,,214,40,68,*58

$GPRMC,141458.00,A,5133.4575,N,00957.5965,E,0.000,0.000,260619,,E,A*1F

$GPGGA,141458.00,5133.4575,N,00957.5965,E,1,15,0.656,287.282,M,,M,0,*48

$GLGSA,A,3,69,71,75,85,,,,,,,,,,,,,,,,,1.163,0.656,0.960*27

$GPGSV,8,2,27,11,6,272,16,15,12,38,23,16,37,193,34,18,19,254,*70

$GPGSV,8,3,27,20,53,76,37,21,28,73,17,26,12,179,32,27,86,270,42*7C

$GPGSV,8,4,27,30,8,321,15*7F

$GLGSV,8,6,27,76,31,257,,77,26,321,,85,52,71,36,86,55,308,34*52

$BDGSV,8,7,27,203,23,140,,205,17,123,,206,23,55,,209,23,85,*64

$BDGSV,8,8,27,211,19,103,,214,40,68,*58

$GPRMC,141458.00,A,5133.4575,N,00957.5965,E,0.000,0.000,260619,,E,A*1F

$GNGSA,A,3,7,8,10,11,15,16,20,21,26,27,30,69,71,75,85,,,,,,1.163,0.656,0.960*2B

$GPGSV,8,2,27,11,6,272,16,15,12,38,23,16,37,193,34,18,19,254,*70

$BDGSV,8,7,27,203,23,140,,205,17,123,,206,23,55,,209,23,85,*64

$GPGGA,141459.00,5133.4575,N,00957.5965,E,1,15,0.656,287.282,M,,M,0,*49

$GNGSA,A,3,7,8,10,11,15,16,20,21,26,27,30,69,71,75,85,,,,,,1.163,0.656,0.960*2B

$GPGSA,A,3,7,8,10,11,15,16,20,21,26,27,30,,,,,,,,,,1.163,0.656,0.960*33

$GLGSA,A,3,69,71,75,85,,,,,,,,,,,,,,,,,1.163,0.656,0.960*27

$BDGSA,A,3,,,,,,,,,,,,,,,,,,,,,1.163,0.656,0.960*2C

$QZGSA,A,3,,,,,,,,,,,,,,,,,,,,,1.163,0.656,0.960*21

$GPGSV,8,1,27,4,5,,,7,9,292,18,8,46,297,38,10,60,128,33*7B

$GPGSV,8,2,27,11,6,272,15,15,12,38,22,16,37,193,34,18,19,254,8*4A

$GPGSV,8,3,27,20,53,76,37,21,28,73,16,26,12,179,30,27,86,270,41*7C

$GPGSV,8,4,27,30,8,321,15*7F

$GLGSV,8,5,27,69,23,29,28,70,47,99,27,71,21,154,28,75,6,214,36*5A

$GLGSV,8,6,27,76,31,257,,77,26,321,,85,52,71,36,86,55,308,34*52

$BDGSV,8,7,27,203,23,140,,205,17,123,,206,23,55,,209,23,85,*64

$GPGSA,A,3,7,8,10,11,15,16,20,21,26,27,30,,,,,,,,,,1.163,0.656,0.960*33

$BDGSA,A,3,,,,,,,,,,,,,,,,,,,,,1.163,0.656,0.960*2C

$GPGSV,8,2,27,11,6,272,15,15,12,38,22,16,37,193,34,18,19,254,8*4A

$GPGSV,8,3,27,20,53,76,37,21,28,73,16,26,12,179,30,27,86,270,41*7C

$BDGSV,8,7,27,203,23,140,,205,17,123,,206,23,55,,209,23,85,*64

$GPRMC,141459.00,A,5133.4575,N,00957.5965,E,0.000,0.000,260619,,E,A*1E

$GNGSA,A,3,7,8,10,11,15,16,20,21,26,27,30,69,71,75,85,,,,,,1.163,0.656,0.960*2B

$GPGSA,A,3,7,8,10,11,15,16,20,21,26,27,30,,,,,,,,,,1.163,0.656,0.960*33

$GPGSV,8,1,27,4,5,,,7,9,292,18,8,46,297,38,10,60,128,33*7B

$GPGSV,8,2,27,11,6,272,15,15,12,38,22,16,37,193,34,18,19,254,8*4A

$GPGSV,8,4,27,30,8,321,15*7F

$GLGSV,8,5,27,69,23,29,28,70,47,99,27,71,21,154,28,75,6,214,36*5A

$BDGSV,8,7,27,203,23,140,,205,17,123,,206,23,55,,209,23,85,*64

$BDGSV,8,8,27,211,19,103,,214,40,68,*58

$GPGGA,141500.00,5133.4575,N,00957.5965,E,1,16,0.634,287.282,M,,M,0,*43

$GNGSA,A,3,7,8,10,11,15,16,18,20,21,26,27,30,69,71,75,85,,,,,1.149,0.634,0.959*24

$GPGSA,A,3,7,8,10,11,15,16,18,20,21,26,27,30,,,,,,,,,1.149,0.634,0.959*3C

$GLGSA,A,3,69,71,75,85,,,,,,,,,,,,,,,,,1.149,0.634,0.959*21

$BDGSA,A,3,,,,,,,,,,,,,,,,,,,,,1.149,0.634,0.959*2A

$QZGSA,A,3,,,,,,,,,,,,,,,,,,,,,1.149,0.634,0.959*27

$GPGSV,8,1,27,4,5,,,7,9,292,17,8,46,297,39,10,60,128,33*75

$GPGSV,8,2,27,11,6,272,14,15,12,38,22,16,37,193,34,18,19,254,16*74

$GPGSV,8,3,27,20,53,76,37,21,28,73,16,26,12,179,30,27,86,270,41*7C

$GPGSV,8,4,27,30,8,321,16*7C

$GLGSV,8,5,27,69,23,29,28,70,47,99,27,71,21,154,26,75,6,214,35*57

$GLGSV,8,6,27,76,31,257,,77,26,321,,85,52,71,36,86,55,308,34*52

$BDGSV,8,7,27,203,23,140,,205,17,123,,206,23,55,,209,23,85,*64

$BDGSV,8,8,27,211,19,103,,214,40,68,*58

$GPRMC,141500.00,A,5133.4575,N,00957.5965,E,0.000,0.000,260619,,E,A*13

$GNGSA,A,3,7,8,10,11,15,16,18,20,21,26,27,30,69,71,75,85,,,,,1.149,0.634,0.959*24

$GPGSA,A,3,7,8,10,11,15,16,18,20,21,26,27,30,,,,,,,,,1.149,0.634,0.959*3C

$GPGSV,8,2,27,11,6,272,14,15,12,38,22,16,37,193,34,18,19,254,16*74

$GPGSV,8,4,27,30,8,321,16*7C

$GLGSV,8,6,27,76,31,257,,77,26,321,,85,52,71,36,86,55,308,34*52

$BDGSV,8,7,27,203,23,140,,205,17,123,,206,23,55,,209,23,85,*64

$GPRMC,141500.00,A,5133.4575,N,00957.5965,E,0.000,0.000,260619,,E,A*13

$GNGSA,A,3,7,8,10,11,15,16,18,20,21,26,27,30,69,71,75,85,,,,,1.149,0.634,0.959*24

$QZGSA,A,3,,,,,,,,,,,,,,,,,,,,,1.149,0.634,0.959*27

$GPGSV,8,2,27,11,6,272,14,15,12,38,22,16,37,193,34,18,19,254,16*74

$GPGSV,8,4,27,30,8,321,16*7C

$GLGSV,8,5,27,69,23,29,28,70,47,99,27,71,21,154,26,75,6,214,35*57

$BDGSV,8,7,27,203,23,140,,205,17,123,,206,23,55,,209,23,85,*64

$GPRMC,141500.00,A,5133.4575,N,00957.5965,E,0.000,0.000,260619,,E,A*13

$GPGGA,141501.00,5133.4575,N,00957.5965,E,1,16,0.634,287.282,M,,M,0,*42

$GNGSA,A,3,7,8,10,11,15,16,18,20,21,26,27,30,69,71,75,85,,,,,1.149,0.634,0.958*25

$GPGSA,A,3,7,8,10,11,15,16,18,20,21,26,27,30,,,,,,,,,1.149,0.634,0.958*3D

$GLGSA,A,3,69,71,75,85,,,,,,,,,,,,,,,,,1.149,0.634,0.958*20

$BDGSA,A,3,,,,,,,,,,,,,,,,,,,,,1.149,0.634,0.958*2B

$QZGSA,A,3,,,,,,,,,,,,,,,,,,,,,1.149,0.634,0.958*26

$GPGSV,8,1,27,4,5,,,7,9,292,16,8,46,297,36,10,60,128,32*7A

$GPGSV,8,2,27,11,6,272,13,15,12,38,21,16,37,193,34,18,19,254,14*72

$GPGSV,8,3,27,20,53,76,35,21,28,73,17,26,12,179,31,27,86,270,41*7E

$GPGSV,8,4,27,30,8,321,16*7C

$GLGSV,8,5,27,69,23,29,26,70,47,99,27,71,21,154,26,75,6,214,35*59

$GLGSV,8,6,27,76,31,257,,77,26,321,,85,52,71,35,86,55,308,34*51

$BDGSV,8,7,27,203,23,140,,205,17,123,,206,23,55,,209,23,85,*64

$BDGSV,8,8,27,211,19,103,,214,40,68,*58

$GLGSA,A,3,69,71,75,85,,,,,,,,,,,,,,,,,1.149,0.634,0.958*20

$QZGSA,A,3,,,,,,,,,,,,,,,,,,,,,1.149,0.634,0.958*26

$GPGSV,8,3,27,20,53,76,35,21,28,73,17,26,12,179,31,27,86,270,41*7E

$GPGSV,8,4,27,30,8,321,16*7C

$GLGSV,8,5,27,69,23,29,26,70,47,99,27,71,21,154,26,75,6,214,35*59

$BDGSV,8,7,27,203,23,140,,205,17,123,,206,23,55,,209,23,85,*64

$BDGSV,8,8,27,211,19,103,,214,40,68,*58

$GPRMC,141501.00,A,5133.4575,N,00957.5965,E,0.000,0.000,260619,,E,A*12

$GNGSA,A,3,7,8,10,11,15,16,18,20,21,26,27,30,69,71,75,85,,,,,1.149,0.634,0.958*25

$GPGSA,A,3,7,8,10,11,15,16,18,20,21,26,27,30,,,,,,,,,1.149,0.634,0.958*3D

$GPGSV,8,3,27,20,53,76,35,21,28,73,17,26,12,179,31,27,86,270,41*7E

$GPGGA,141502.00,5133.4575,N,00957.5965,E,1,16,0.634,287.282,M,,M,0,*41

$GNGSA,A,3,7,8,10,11,15,16,18,20,21,26,27,30,69,71,75,85,,,,,1.149,0.634,0.958*25

$GPGSA,A,3,7,8,10,11,15,16,18,20,21,26,27,30,,,,,,,,,1.149,0.634,0.958*3D

$GLGSA,A,3,69,71,75,85,,,,,,,,,,,,,,,,,1.149,0.634,0.958*20

$BDGSA,A,3,,,,,,,,,,,,,,,,,,,,,1.149,0.634,0.958*2B

$QZGSA,A,3,,,,,,,,,,,,,,,,,,,,,1.149,0.634,0.958*26

$GPGSV,8,1,27,4,5,,,7,9,292,16,8,46,297,36,10,60,128,34*7C

$GPGSV,8,2,27,11,6,272,12,15,12,38,21,16,37,193,32,18,19,254,13*72

$GPGSV,8,3,27,20,53,76,34,21,28,73,18,26,12,179,30,27,86,270,34*73

$GPGSV,8,4,27,30,8,321,15*7F

$GLGSV,8,5,27,69,23,29,27,70,47,99,27,71,21,154,26,75,6,214,35*58

$GLGSV,8,6,27,76,31,257,,77,26,321,,85,52,71,34,86,55,308,33*57

$BDGSV,8,7,27,203,23,140,,205,17,123,,206,23,55,,209,23,85,*64

$BDGSV,8,8,27,211,19,103,,214,40,68,*58

$GPGGA,141502.00,5133.4575,N,00957.5965,E,1,16,0.634,287.282,M,,M,0,*41

$GPGSA,A,3,7,8,10,11,15,16,18,20,21,26,27,30,,,,,,,,,1.149,0.634,0.958*3D

$GLGSA,A,3,69,71,75,85,,,,,,,,,,,,,,,,,1.149,0.634,0.958*20

$BDGSA,A,3,,,,,,,,,,,,,,,,,,,,,1.149,0.634,0.958*2B

$GPGSV,8,1,27,4,5,,,7,9,292,16,8,46,297,36,10,60,128,34*7C

$GPGSV,8,2,27,11,6,272,12,15,12,38,21,16,37,193,32,18,19,254,13*72

$GPGSV,8,4,27,30,8,321,15*7F

$GLGSV,8,5,27,69,23,29,27,70,47,99,27,71,21,154,26,75,6,214,35*58

$GPGSA,A,3,7,8,10,11,15,16,18,20,21,26,27,30,,,,,,,,,1.149,0.634,0.958*3D

$GPGSV,8,3,27,20,53,76,34,21,28,73,18,26,12,179,30,27,86,270,34*73

$GLGSV,8,5,27,69,23,29,27,70,47,99,27,71,21,154,26,75,6,214,35*58

$GPGGA,141503.00,5133.4575,N,00957.5965,E,1,16,0.634,287.282,M,,M,0,*40

$GNGSA,A,3,7,8,10,11,15,16,18,20,21,26,27,30,69,71,75,85,,,,,1.149,0.634,0.958*25

$GPGSA,A,3,7,8,10,11,15,16,18,20,21,26,27,30,,,,,,,,,1.149,0.634,0.958*3D

$GLGSA,A,3,69,71,75,85,,,,,,,,,,,,,,,,,1.149,0.634,0.958*20

$BDGSA,A,3,,,,,,,,,,,,,,,,,,,,,1.149,0.634,0.958*2B

$QZGSA,A,3,,,,,,,,,,,,,,,,,,,,,1.149,0.634,0.958*26

$GPGSV,8,1,27,4,5,,,7,9,292,17,8,46,297,39,10,60,128,34*72

$GPGSV,8,2,27,11,6,272,13,15,12,38,20,16,37,193,34,18,19,254,15*72

$GPGSV,8,3,27,20,53,76,35,21,28,73,23,26,12,179,32,27,86,270,40*7B

$GPGSV,8,4,27,30,8,321,14*7E

$GLGSV,8,5,27,69,23,29,27,70,47,99,26,71,21,154,26,75,6,214,36*5A

$GLGSV,8,6,27,76,31,257,,77,26,321,,85,52,71,34,86,55,308,33*57

$BDGSV,8,7,27,203,23,140,,205,17,123,,206,23,55,,209,23,85,*64

$GPRMC,141503.00,A,5133.4575,N,00957.5965,E,0.000,0.000,260619,,E,A*10

$GLGSA,A,3,69,71,75,85,,,,,,,,,,,,,,,,,1.149,0.634,0.958*20

$GPGSV,8,1,27,4,5,,,7,9,292,17,8,46,297,39,10,60,128,34*72

$GPGSV,8,3,27,20,53,76,35,21,28,73,23,26,12,179,32,27,86,270,40*7B

$GPGSV,8,4,27,30,8,321,14*7E

$GLGSV,8,6,27,76,31,257,,77,26,321,,85,52,71,34,86,55,308,33*57

$BDGSV,8,7,27,203,23,140,,205,17,123,,206,23,55,,209,23,85,*64

$BDGSV,8,8,27,211,19,103,,214,40,68,*58

$GPGGA,141503.00,5133.4575,N,00957.5965,E,1,16,0.634,287.282,M,,M,0,*40

$GNGSA,A,3,7,8,10,11,15,16,18,20,21,26,27,30,69,71,75,85,,,,,1.149,0.634,0.958*25

$BDGSA,A,3,,,,,,,,,,,,,,,,,,,,,1.149,0.634,0.958*2B

$GLGSV,8,6,27,76,31,257,,77,26,321,,85,52,71,34,86,55,308,33*57

$GPGGA,141504.00,5133.4575,N,00957.5965,E,1,16,0.634,287.282,M,,M,0,*47

$GNGSA,A,3,7,8,10,11,15,16,18,20,21,26,27,30,69,71,75,85,,,,,1.149,0.634,0.958*25

$GPGSA,A,3,7,8,10,11,15,16,18,20,21,26,27,30,,,,,,,,,1.149,0.634,0.958*3D

$GLGSA,A,3,69,71,75,85,,,,,,,,,,,,,,,,,1.149,0.634,0.958*20

$BDGSA,A,3,,,,,,,,,,,,,,,,,,,,,1.149,0.634,0.958*2B

$QZGSA,A,3,,,,,,,,,,,,,,,,,,,,,1.149,0.634,0.958*26

$GPGSV,8,1,27,4,5,,,7,9,292,17,8,46,297,40,10,60,128,36*7E

$GPGSV,8,2,27,11,6,272,12,15,12,38,20,16,37,193,32,18,19,254,15*75

$GPGSV,8,3,27,20,53,76,36,21,28,73,18,26,12,179,33,27,86,269,42*7B

$GPGSV,8,4,27,30,8,321,12*78

$GLGSV,8,5,27,69,23,29,26,70,47,99,26,71,21,154,25,75,6,214,35*5B

$GLGSV,8,6,27,76,31,257,,77,26,321,,85,52,71,35,86,55,308,34*51

$BDGSV,8,7,27,203,23,140,,205,17,123,,206,23,55,,209,23,85,*64

$BDGSV,8,8,27,211,19,103,,214,40,68,*58

$GPRMC,141504.00,A,5133.4575,N,00957.5965,E,0.000,0.000,260619,,E,A*17

$GPGGA,141504.00,5133.4575,N,00957.5965,E,1,16,0.634,287.282,M,,M,0,*47

$BDGSA,A,3,,,,,,,,,,,,,,,,,,,,,1.149,0.634,0.958*2B

$GPGSV,8,1,27,4,5,,,7,9,292,17,8,46,297,40,10,60,128,36*7E

$BDGSV,8,8,27,211,19,103,,214,40,68,*58

$GNGSA,A,3,7,8,10,11,15,16,18,20,21,26,27,30,69,71,75,85,,,,,1.149,0.634,0.958*25

$QZGSA,A,3,,,,,,,,,,,,,,,,,,,,,1.149,0.634,0.958*26

$BDGSV,8,8,27,211,19,103,,214,40,68,*58

$GPGGA,141505.00,5133.4575,N,00957.5965,E,1,16,0.634,287.282,M,,M,0,*46

$GNGSA,A,3,7,8,10,11,15,16,18,20,21,26,27,30,69,71,75,85,,,,,1.149,0.634,0.958*25

$GPGSA,A,3,7,8,10,11,15,16,18,20,21,26,27,30,,,,,,,,,1.149,0.634,0.958*3D

$GLGSA,A,3,69,71,75,85,,,,,,,,,,,,,,,,,1.149,0.634,0.958*20

$BDGSA,A,3,,,,,,,,,,,,,,,,,,,,,1.149,0.634,0.958*2B

$QZGSA,A,3,,,,,,,,,,,,,,,,,,,,,1.149,0.634,0.958*26

$GPGSV,8,1,27,4,5,,,7,9,292,18,8,46,297,40,10,60,128,37*70

$GPGSV,8,2,27,11,6,272,13,15,12,38,19,16,37,193,31,18,19,254,14*7C

$GPGSV,8,3,27,20,53,76,37,21,28,73,16,26,12,179,35,27,86,269,41*71

$GPGSV,8,4,27,30,8,321,9*42

$GLGSV,8,5,27,69,23,29,23,70,47,99,24,71,21,154,24,75,6,214,34*5C

$GLGSV,8,6,27,76,31,257,,77,26,321,,85,52,71,35,86,55,308,34*51

$BDGSV,8,7,27,203,23,140,,205,17,123,,206,23,55,,209,23,85,*64

$BDGSV,8,8,27,211,19,103,,214,40,68,*58

$GPRMC,141505.00,A,5133.4575,N,00957.5965,E,0.000,0.000,260619,,E,A*16

$GPGGA,141505.00,5133.4575,N,00957.5965,E,1,16,0.634,287.282,M,,M,0,*46

$GNGSA,A,3,7,8,10,11,15,16,18,20,21,26,27,30,69,71,75,85,,,,,1.149,0.634,0.958*25

$GPGSA,A,3,7,8,10,11,15,16,18,20,21,26,27,30,,,,,,,,,1.149,0.634,0.958*3D

$GLGSA,A,3,69,71,75,85,,,,,,,,,,,,,,,,,1.149,0.634,0.958*20

$QZGSA,A,3,,,,,,,,,,,,,,,,,,,,,1.149,0.634,0.958*26

$GPGSV,8,1,27,4,5,,,7,9,292,18,8,46,297,40,10,60,128,37*70

$GPGSV,8,3,27,20,53,76,37,21,28,73,16,26,12,179,35,27,86,269,41*71

$GLGSV,8,5,27,69,23,29,23,70,47,99,24,71,21,154,24,75,6,214,34*5C

$GLGSV,8,6,27,76,31,257,,77,26,321,,85,52,71,35,86,55,308,34*51

$GPGSA,A,3,7,8,10,11,15,16,18,20,21,26,27,30,,,,,,,,,1.149,0.634,0.958*3D

$GPGSV,8,2,27,11,6,272,13,15,12,38,19,16,37,193,31,18,19,254,14*7C

$GLGSV,8,6,27,76,31,257,,77,26,321,,85,52,71,35,86,55,308,34*51

$GPRMC,141505.00,A,5133.4575,N,00957.5965,E,0.000,0.000,260619,,E,A*16

$GPGGA,141506.00,5133.4575,N,00957.5965,E,1,16,0.634,287.282,M,,M,0,*45

$GNGSA,A,3,7,8,10,11,15,16,18,20,21,26,27,30,69,71,75,85,,,,,1.149,0.634,0.958*25

$GPGSA,A,3,7,8,10,11,15,16,18,20,21,26,27,30,,,,,,,,,1.149,0.634,0.958*3D

$GLGSA,A,3,69,71,75,85,,,,,,,,,,,,,,,,,1.149,0.634,0.958*20

$BDGSA,A,3,,,,,,,,,,,,,,,,,,,,,1.149,0.634,0.958*2B

$QZGSA,A,3,,,,,,,,,,,,,,,,,,,,,1.149,0.634,0.958*26

$GPGSV,8,1,27,4,5,,,7,9,292,19,8,46,297,40,10,60,128,37*71

$GPGSV,8,2,27,11,6,272,12,15,12,38,19,16,37,193,26,18,19,254,14*7B

$GPGSV,8,3,27,20,53,76,38,21,28,73,19,26,12,179,36,27,86,269,41*72

$GPGSV,8,4,27,30,8,321,8*43

$GLGSV,8,5,27,69,23,29,22,70,47,99,22,71,21,154,23,75,6,214,34*5C

$GLGSV,8,6,27,76,31,257,,77,26,321,,85,52,71,34,86,55,308,34*50

$BDGSV,8,7,27,203,23,140,,205,17,123,,206,23,55,,209,23,85,*64

$BDGSV,8,8,27,211,19,103,,214,40,68,*58

$GPGSA,A,3,7,8,10,11,15,16,18,20,21,26,27,30,,,,,,,,,1.149,0.634,0.958*3D

$GPGSV,8,1,27,4,5,,,7,9,292,19,8,46,297,40,10,60,128,37*71

$GPGSV,8,3,27,20,53,76,38,21,28,73,19,26,12,179,36,27,86,269,41*72

$BDGSV,8,7,27,203,23,140,,205,17,123,,206,23,55,,209,23,85,*64

$GPRMC,141506.00,A,5133.4575,N,00957.5965,E,0.000,0.000,260619,,E,A*15

$GNGSA,A,3,7,8,10,11,15,16,18,20,21,26,27,30,69,71,75,85,,,,,1.149,0.634,0.958*25

$GPGSA,A,3,7,8,10,11,15,16,18,20,21,26,27,30,,,,,,,,,1.149,0.634,0.958*3D

$QZGSA,A,3,,,,,,,,,,,,,,,,,,,,,1.149,0.634,0.958*26

$GPGSV,8,1,27,4,5,,,7,9,292,19,8,46,297,40,10,60,128,37*71

$GPGSV,8,2,27,11,6,272,12,15,12,38,19,16,37,193,26,18,19,254,14*7B

$GPGSV,8,3,27,20,53,76,38,21,28,73,19,26,12,179,36,27,86,269,41*72

$GPGSV,8,4,27,30,8,321,8*43

$GLGSV,8,6,27,76,31,257,,77,26,321,,85,52,71,34,86,55,308,34*50

$BDGSV,8,7,27,203,23,140,,205,17,123,,206,23,55,,209,23,85,*64

$GPRMC,141506.00,A,5133.4575,N,00957.5965,E,0.000,0.000,260619,,E,A*15

$GPGGA,141507.00,5133.4575,N,00957.5965,E,1,16,0.634,287.282,M,,M,0,*44

$GNGSA,A,3,7,8,10,11,15,16,18,20,21,26,27,30,69,71,75,85,,,,,1.149,0.634,0.958*25

$GPGSA,A,3,7,8,10,11,15,16,18,20,21,26,27,30,,,,,,,,,1.149,0.634,0.958*3D

$GLGSA,A,3,69,71,75,85,,,,,,,,,,,,,,,,,1.149,0.634,0.958*20

$BDGSA,A,3,,,,,,,,,,,,,,,,,,,,,1.149,0.634,0.958*2B

$QZGSA,A,3,,,,,,,,,,,,,,,,,,,,,1.149,0.634,0.958*26

$GPGSV,8,1,27,4,5,,,7,9,292,20,8,46,297,40,10,60,128,36*7A

$GPGSV,8,2,27,11,6,272,11,15,12,38,18,16,37,193,20,18,19,254,15*7E

$GPGSV,8,3,27,20,53,76,37,21,28,73,18,26,12,179,36,27,86,269,41*7C

$GPGSV,8,4,27,30,8,321,8*43

$GLGSV,8,5,27,69,23,29,21,70,47,99,24,71,21,154,21,75,6,214,34*5B

$GLGSV,8,6,27,76,31,257,,77,26,321,,85,52,71,34,86,55,308,34*50

$BDGSV,8,7,27,203,23,140,,205,17,123,,206,23,55,,209,23,85,*64

$BDGSV,8,8,27,211,19,103,,214,40,68,*58

$GNGSA,A,3,7,8,10,11,15,16,18,20,21,26,27,30,69,71,75,85,,,,,1.149,0.634,0.958*25

$GLGSA,A,3,69,71,75,85,,,,,,,,,,,,,,,,,1.149,0.634,0.958*20

