$GPGSV,3,1,11,02,27,047,25,12,21,105,24,14,11,244,26,21,15,185,29*79

$GPGSV,3,2,11,23,05,338,35,25,60,106,33,26,23,291,30,29,87,150,40*7C

$GPGSV,3,3,11,31,56,270,41,05,09,085,,32,00,000,*48

$GPGSV,3,1,12,07,12,300,24,08,35,295,33,10,52,143,42,15,13,047,23*7B

$GPGSV,3,2,12,16,47,196,37,18,10,248,33,20,56,092,36,21,37,068,37*71

$GPGSV,3,3,12,26,22,180,36,27,75,295,31,30,07,330,31,13,05,016,*7F

$GLGSV,3,1,09,70,40,112,30,86,47,295,25,77,22,330,26,76,37,268,29*6E

$GLGSV,3,2,09,75,15,217,32,69,30,036,26,85,59,054,32,71,10,156,30*64

$GLGSV,3,3,09,84,09,084,*55

$GAGSV,1,1,0,*74

$PQGSV,1,1,0,*73

$PQGSV,1,1,0,*73

$GNGSA,A,3,07,08,10,15,16,18,20,21,26,27,30,,0.9,0.6,0.7,1*3E

$GNGSA,A,3,69,70,71,75,77,85,86,,,,,,0.9,0.6,0.7,2*35

$GNVTG,,T,,M,0.0,N,0.0,K,A*3D

$GNRMC,135522.00,A,5133.565590,N,00957.699631,E,0.0,,260619,0.0,E,A*0A

$GNGGA,135522.00,5133.565590,N,00957.699631,E,1,12,0.6,234.0,M,47.0,M,,*74

$GPGSV,3,1,11,07,12,300,26,08,35,295,32,10,52,143,42,16,47,196,37*71

$GPGSV,3,2,11,18,10,248,31,20,56,092,36,21,37,068,40,26,22,180,38*78

$GPGSV,3,3,11,27,75,295,34,30,07,330,33,13,05,016,*43

$GLGSV,2,1,08,70,40,112,26,86,47,295,25,77,22,330,25,76,37,268,31*63

$GLGSV,2,2,08,75,15,217,33,85,59,054,34,71,10,156,31,84,09,084,*66

$GAGSV,1,1,0,*74

$PQGSV,1,1,0,*73

$PQGSV,1,1,0,*73

$GNGSA,A,3,07,08,10,16,18,20,21,26,27,30,,,0.9,0.6,0.7,1*3A

$GNGSA,A,3,70,71,75,77,85,86,,,,,,,0.9,0.6,0.7,2*3A

$GNVTG,,T,,M,0.0,N,0.0,K,A*3D

$GNRMC,135523.00,A,5133.565570,N,00957.699585,E,0.0,,260619,0.0,E,A*09

$GNGGA,135523.00,5133.565570,N,00957.699585,E,1,12,0.6,234.0,M,47.0,M,,*77

$GPGSV,3,1,12,07,12,300,30,08,35,295,31,10,52,143,40,16,47,196,38*7B

$GPGSV,3,2,12,18,10,248,32,20,56,092,32,21,37,068,36,26,22,180,36*73

$GPGSV,3,3,12,27,75,295,33,30,07,330,33,13,05,016,,15,13,047,*72

$GLGSV,2,1,06,76,37,268,30,75,15,217,35,69,30,036,27,85,59,054,30*61

$GLGSV,2,2,06,71,10,156,35,84,09,084,*69

$GAGSV,1,1,0,*74

$PQGSV,1,1,0,*73

$PQGSV,1,1,0,*73

$GNGSA,A,3,07,08,10,15,16,18,20,21,26,27,30,,0.9,0.6,0.7,1*3E

$GNGSA,A,3,69,71,75,85,,,,,,,,,0.9,0.6,0.7,2*3C

$GNVTG,,T,,M,0.0,N,0.0,K,A*3D

$GNRMC,135524.00,A,5133.565548,N,00957.699391,E,0.0,,260619,0.0,E,A*06

$GNGGA,135524.00,5133.565548,N,00957.699391,E,1,12,0.6,234.0,M,47.0,M,,*78

$GPGSV,3,1,12,07,12,300,30,08,35,295,33,10,52,143,36,16,47,196,38*78

$GPGSV,3,2,12,18,10,248,30,20,56,092,30,21,37,068,31,26,22,180,35*77

$GPGSV,3,3,12,27,75,295,34,30,07,330,33,13,05,016,,15,13,047,*75

$GLGSV,3,1,09,86,47,295,29,77,22,330,24,76,37,268,27,75,15,217,34*69

$GLGSV,3,2,09,69,30,036,30,85,59,054,36,71,10,156,33,70,40,112,*66

$GLGSV,3,3,09,84,09,084,*55

$GAGSV,1,1,0,*74

$PQGSV,1,1,0,*73

$PQGSV,1,1,0,*73

$GNGSA,A,3,07,08,10,15,16,18,20,21,26,27,30,,0.9,0.6,0.7,1*3E

$GNGSA,A,3,69,70,71,75,77,85,86,,,,,,0.9,0.6,0.7,2*35

$GNVTG,,T,,M,0.0,N,0.0,K,A*3D

$GNRMC,135525.00,A,5133.565441,N,00957.699415,E,0.0,,260619,0.0,E,A*04

$GNGGA,135525.00,5133.565441,N,00957.699415,E,1,12,0.6,234.0,M,47.0,M,,*7A

$GPGSV,3,1,12,07,12,300,29,08,35,295,33,10,52,143,34,15,13,047,26*72

$GPGSV,3,2,12,16,47,196,38,18,10,248,30,20,56,092,38,21,37,068,35*71

$GPGSV,3,3,12,26,22,180,38,27,75,295,33,30,07,330,33,13,05,016,*71

$GLGSV,3,1,09,70,40,112,28,86,47,295,28,77,22,330,28,76,37,268,29*64

$GLGSV,3,2,09,75,15,217,35,69,30,036,30,85,59,054,33,71,10,156,31*64

$GLGSV,3,3,09,84,09,084,*55

$GAGSV,1,1,0,*74

$PQGSV,1,1,0,*73

$PQGSV,1,1,0,*73

$GNGSA,A,3,07,08,10,15,16,18,20,21,26,27,30,,0.9,0.6,0.7,1*3E

$GNGSA,A,3,69,70,71,75,77,85,86,,,,,,0.9,0.6,0.7,2*35

$GNVTG,,T,,M,0.0,N,0.0,K,A*3D

$GNRMC,135526.00,A,5133.565460,N,00957.699442,E,0.0,,260619,0.0,E,A*06

$GNGGA,135526.00,5133.565460,N,00957.699442,E,1,12,0.6,234.0,M,47.0,M,,*78

$GPGSV,3,1,12,07,12,300,29,08,35,295,33,10,52,143,33,15,13,047,28*7B

$GPGSV,3,2,12,16,47,196,40,18,10,248,31,20,56,092,39,21,37,068,36*7D

$GPGSV,3,3,12,26,22,180,39,27,75,295,34,30,07,330,32,13,05,016,*76

$GLGSV,3,1,09,70,40,112,27,86,47,295,29,77,22,330,27,76,37,268,29*65

$GLGSV,3,2,09,75,15,217,35,69,30,036,29,85,59,054,33,71,10,156,31*6C

$GLGSV,3,3,09,84,09,084,*55

$GAGSV,1,1,0,*74

$PQGSV,1,1,0,*73

$PQGSV,1,1,0,*73

$GNGSA,A,3,07,08,10,15,16,18,20,21,26,27,30,,0.9,0.6,0.7,1*3E

$GNGSA,A,3,69,70,71,75,77,85,86,,,,,,0.9,0.6,0.7,2*35

$GNVTG,,T,,M,0.0,N,0.0,K,A*3D

$GNRMC,135527.00,A,5133.565421,N,00957.699511,E,0.0,,260619,0.0,E,A*05

$GNGGA,135527.00,5133.565421,N,00957.699511,E,1,12,0.6,233.0,M,47.0,M,,*7C

$GPGSV,3,1,12,07,12,299,28,08,37,295,32,10,53,142,37,15,13,046,28*7D

$GPGSV,3,2,12,16,46,196,39,18,11,248,30,20,56,091,37,21,36,068,34*7C

$GPGSV,3,3,12,26,21,180,39,27,76,295,33,30,07,329,33,13,04,015,*7A

$GLGSV,3,1,09,70,40,112,27,86,47,295,29,77,22,330,26,76,37,268,29*64

$GLGSV,3,2,09,75,15,217,35,69,30,036,28,85,59,054,32,71,10,156,30*6D

$GLGSV,3,3,09,84,09,084,*55

$GAGSV,1,1,0,*74

$PQGSV,1,1,0,*73

$PQGSV,1,1,0,*73

$GNGSA,A,3,07,08,10,15,16,18,20,21,26,27,30,,0.9,0.6,0.7,1*3E

$GNGSA,A,3,69,70,71,75,77,85,86,,,,,,0.9,0.6,0.7,2*35

$GNVTG,,T,,M,0.0,N,0.0,K,A*3D

$GNRMC,135528.00,A,5133.565435,N,00957.699542,E,0.0,,260619,0.0,E,A*09

$GNGGA,135528.00,5133.565435,N,00957.699542,E,1,12,0.6,233.0,M,47.0,M,,*70

$GPGSV,3,1,12,07,12,299,30,08,37,295,33,10,53,142,37,15,13,046,24*79

$GPGSV,3,2,12,16,46,196,38,18,11,248,31,20,56,091,35,21,36,068,32*78

$GPGSV,3,3,12,26,21,180,38,27,76,295,34,30,07,329,32,13,04,015,*7D

$GLGSV,3,1,09,70,40,112,28,86,47,295,30,77,22,330,26,76,37,268,29*63

$GLGSV,3,2,09,75,15,217,34,69,30,036,25,85,59,054,33,71,10,156,28*69

$GLGSV,3,3,09,84,09,084,*55

$GAGSV,1,1,0,*74

$PQGSV,1,1,0,*73

$PQGSV,1,1,0,*73

$GNGSA,A,3,07,08,10,15,16,18,20,21,26,27,30,,0.9,0.6,0.7,1*3E

$GNGSA,A,3,69,70,71,75,77,85,86,,,,,,0.9,0.6,0.7,2*35

$GNVTG,,T,,M,0.0,N,0.0,K,A*3D

$GNRMC,135529.00,A,5133.565441,N,00957.699556,E,0.0,,260619,0.0,E,A*0E

$GNGGA,135529.00,5133.565441,N,00957.699556,E,1,12,0.6,233.0,M,47.0,M,,*77

$GPGSV,3,1,11,07,12,299,28,08,37,295,29,10,53,142,36,16,46,196,38*7B

$GPGSV,3,2,11,18,11,248,32,20,56,091,36,21,36,068,29,26,21,180,38*74

$GPGSV,3,3,11,27,76,295,35,30,07,329,32,13,04,015,*4A

$GLGSV,2,1,08,70,40,112,30,86,47,295,29,76,37,268,31,75,15,217,35*6B

$GLGSV,2,2,08,69,30,036,27,85,59,054,31,71,10,156,28,84,09,084,*65

$GAGSV,1,1,0,*74

$PQGSV,1,1,0,*73

$PQGSV,1,1,0,*73

$GNGSA,A,3,07,08,10,16,18,20,21,26,27,30,,,0.9,0.6,0.7,1*3A

$GNGSA,A,3,69,70,71,75,85,86,,,,,,,0.9,0.6,0.7,2*35

$GNVTG,,T,,M,0.0,N,0.0,K,A*3D

$GNRMC,135530.00,A,5133.565453,N,00957.699557,E,0.0,,260619,0.0,E,A*04

$GNGGA,135530.00,5133.565453,N,00957.699557,E,1,12,0.6,233.0,M,47.0,M,,*7D

$GPGSV,3,1,12,07,12,299,27,08,37,295,32,10,53,142,38,15,13,046,26*73

$GPGSV,3,2,12,16,46,196,38,18,11,248,31,20,56,091,36,21,36,068,29*71

$GPGSV,3,3,12,26,21,180,33,27,76,295,34,30,07,329,32,13,04,015,*76

$GLGSV,2,1,08,70,40,112,30,86,47,295,27,77,22,330,27,76,37,268,31*64

$GLGSV,2,2,08,75,15,217,35,69,30,036,28,85,59,054,33,84,09,084,*63

$GAGSV,1,1,0,*74

$PQGSV,1,1,0,*73

$PQGSV,1,1,0,*73

$GNGSA,A,3,07,08,10,15,16,18,20,21,26,27,30,,0.9,0.6,0.7,1*3E

$GNGSA,A,3,69,70,75,77,85,86,,,,,,,0.9,0.6,0.7,2*33

$GNVTG,,T,,M,0.0,N,0.0,K,A*3D

$GNRMC,135531.00,A,5133.565459,N,00957.699560,E,0.0,,260619,0.0,E,A*0B

$GNGGA,135531.00,5133.565459,N,00957.699560,E,1,12,0.6,233.0,M,47.0,M,,*72

$GPGSV,3,1,11,07,12,299,27,08,37,295,30,10,53,142,42,16,46,196,34*73

$GPGSV,3,2,11,18,11,248,32,20,56,091,38,21,36,068,33,26,21,180,27*7F

$GPGSV,3,3,11,27,76,295,34,30,07,329,31,13,04,015,*48

$GLGSV,3,1,09,70,40,112,25,86,47,295,28,77,22,330,27,76,37,268,30*6E

$GLGSV,3,2,09,75,15,217,36,69,30,036,28,85,59,054,28,84,09,084,*6A

$GLGSV,3,3,09,71,10,156,*59

$GAGSV,1,1,0,*74

$PQGSV,1,1,0,*73

$PQGSV,1,1,0,*73

$GNGSA,A,3,07,08,10,16,18,20,21,26,27,30,,,0.9,0.6,0.7,1*3A

$GNGSA,A,3,69,70,71,75,77,85,86,,,,,,0.9,0.6,0.7,2*35

$GNVTG,,T,,M,0.0,N,0.0,K,A*3D

$GNRMC,135532.00,A,5133.565462,N,00957.699561,E,0.0,,260619,0.0,E,A*01

$GNGGA,135532.00,5133.565462,N,00957.699561,E,1,12,0.6,233.0,M,47.0,M,,*78

$GPGSV,3,1,11,07,12,299,29,08,37,295,32,10,53,142,40,15,13,046,26*71

$GPGSV,3,2,11,16,46,196,36,18,11,248,29,20,56,091,35,21,36,068,28*77

$GPGSV,3,3,11,27,76,295,38,30,07,329,35,13,04,015,*40

$GLGSV,3,1,09,70,40,112,29,86,47,295,27,77,22,330,26,76,37,268,34*68

$GLGSV,3,2,09,75,15,217,35,69,30,036,30,85,59,054,35,71,10,156,26*64

$GLGSV,3,3,09,84,09,084,*55

$GAGSV,1,1,0,*74

$PQGSV,1,1,0,*73

$PQGSV,1,1,0,*73

$GNGSA,A,3,07,08,10,15,16,18,20,21,27,30,,,0.9,0.6,0.7,1*3A

$GNGSA,A,3,69,70,71,75,77,85,86,,,,,,0.9,0.6,0.7,2*35

$GNVTG,,T,,M,0.0,N,0.0,K,A*3D

$GNRMC,135533.00,A,5133.565462,N,00957.699562,E,0.0,,260619,0.0,E,A*03

$GNGGA,135533.00,5133.565462,N,00957.699562,E,1,12,0.6,233.0,M,47.0,M,,*7A

$GPGSV,3,1,12,07,12,299,29,08,37,295,33,10,53,142,32,15,13,046,27*77

$GPGSV,3,2,12,16,46,196,39,18,11,248,30,20,56,091,35,21,36,068,29*72

$GPGSV,3,3,12,26,21,180,33,27,76,295,40,30,07,329,32,13,04,015,*75

$GLGSV,3,1,09,70,40,112,30,86,47,295,28,77,22,330,24,76,37,268,33*6A

$GLGSV,3,2,09,75,15,217,34,69,30,036,24,85,59,054,34,71,10,156,27*60

$GLGSV,3,3,09,84,09,084,*55

$GAGSV,1,1,0,*74

$PQGSV,1,1,0,*73

$PQGSV,1,1,0,*73

$GNGSA,A,3,07,08,10,15,16,18,20,21,26,27,30,,0.9,0.6,0.7,1*3E

$GNGSA,A,3,69,70,71,75,77,85,86,,,,,,0.9,0.6,0.7,2*35

$GNVTG,,T,,M,0.0,N,0.0,K,A*3D

$GNRMC,135534.00,A,5133.565462,N,00957.699561,E,0.0,,260619,0.0,E,A*07

$GNGGA,135534.00,5133.565462,N,00957.699561,E,1,12,0.6,233.0,M,47.0,M,,*7E

$GPGSV,3,1,11,07,12,299,30,08,37,295,24,10,53,142,38,15,13,046,30*76

$GPGSV,3,2,11,16,46,196,38,18,11,248,30,20,56,091,33,26,21,180,33*7B

$GPGSV,3,3,11,27,76,295,37,30,07,329,30,13,04,015,*4A

$GLGSV,3,1,09,70,40,112,30,86,47,295,24,77,22,330,23,76,37,268,33*61

$GLGSV,3,2,09,75,15,217,36,69,30,036,32,85,59,054,32,71,10,156,29*6D

$GLGSV,3,3,09,84,09,084,*55

$GAGSV,1,1,0,*74

$PQGSV,1,1,0,*73

$PQGSV,1,1,0,*73

$GNGSA,A,3,07,08,10,15,16,18,20,26,27,30,,,0.9,0.6,0.7,1*3D

$GNGSA,A,3,69,70,71,75,77,85,86,,,,,,0.9,0.6,0.7,2*35

$GNVTG,,T,,M,0.0,N,0.0,K,A*3D

$GNRMC,135535.00,A,5133.565459,N,00957.699557,E,0.0,,260619,0.0,E,A*0B

$GNGGA,135535.00,5133.565459,N,00957.699557,E,1,12,0.6,233.0,M,47.0,M,,*72

$GPGSV,3,1,12,07,12,299,30,08,37,295,26,10,53,142,37,15,13,046,32*7A

$GPGSV,3,2,12,16,46,196,37,18,11,248,29,20,56,091,34,21,36,068,27*7B

$GPGSV,3,3,12,26,21,180,31,27,76,295,38,30,07,329,31,13,04,015,*7B

$GLGSV,2,1,08,70,40,112,31,86,47,295,24,76,37,268,33,75,15,217,36*66

$GLGSV,2,2,08,69,30,036,33,85,59,054,33,71,10,156,30,84,09,084,*6B

$GAGSV,1,1,0,*74

$PQGSV,1,1,0,*73

$PQGSV,1,1,0,*73

$GNGSA,A,3,07,08,10,15,16,18,20,21,26,27,30,,0.9,0.6,0.7,1*3E

$GNGSA,A,3,69,70,71,75,85,86,,,,,,,0.9,0.6,0.7,2*35

$GNVTG,,T,,M,0.0,N,0.0,K,A*3D

$GNRMC,135536.00,A,5133.565457,N,00957.699552,E,0.0,,260619,0.0,E,A*03

$GNGGA,135536.00,5133.565457,N,00957.699552,E,1,12,0.6,233.0,M,47.0,M,,*7A

$GPGSV,3,1,12,07,12,299,28,08,37,295,28,10,53,142,36,15,13,046,30*7E

$GPGSV,3,2,12,16,46,196,39,18,11,248,30,20,56,091,33,21,36,068,29*74

$GPGSV,3,3,12,26,21,180,31,27,76,295,38,30,07,329,33,13,04,015,*79

$GLGSV,3,1,09,70,40,112,31,86,47,295,23,77,22,330,24,76,37,268,32*61

$GLGSV,3,2,09,75,15,217,34,69,30,036,32,85,59,054,35,71,10,156,27*66

$GLGSV,3,3,09,84,09,084,*55

$GAGSV,1,1,0,*74

$PQGSV,1,1,0,*73

$PQGSV,1,1,0,*73

$GNGSA,A,3,07,08,10,15,16,18,20,21,26,27,30,,0.9,0.6,0.7,1*3E

$GNGSA,A,3,69,70,71,75,77,85,86,,,,,,0.9,0.6,0.7,2*35

$GNVTG,,T,,M,0.0,N,0.0,K,A*3D

$GNRMC,135537.00,A,5133.565451,N,00957.699544,E,0.0,,260619,0.0,E,A*03

$GNGGA,135537.00,5133.565451,N,00957.699544,E,1,12,0.6,233.0,M,47.0,M,,*7A

$GPGSV,3,1,12,07,12,299,26,08,37,295,29,10,53,142,35,15,13,046,26*75

$GPGSV,3,2,12,16,46,196,40,18,11,248,28,20,56,091,34,21,36,068,31*7D

$GPGSV,3,3,12,26,21,180,30,27,76,295,39,30,07,329,32,13,04,015,*78

$GLGSV,2,1,08,70,40,112,31,86,47,295,27,76,37,268,29,75,15,217,36*6E

$GLGSV,2,2,08,69,30,036,30,85,59,054,33,71,10,156,28,84,09,084,*61

$GAGSV,1,1,0,*74

$PQGSV,1,1,0,*73

$PQGSV,1,1,0,*73

$GNGSA,A,3,07,08,10,15,16,18,20,21,26,27,30,,0.9,0.6,0.7,1*3E

$GNGSA,A,3,69,70,71,75,85,86,,,,,,,0.9,0.6,0.7,2*35

$GNVTG,,T,,M,0.0,N,0.0,K,A*3D

$GNRMC,135538.00,A,5133.565449,N,00957.699541,E,0.0,,260619,0.0,E,A*00

$GNGGA,135538.00,5133.565449,N,00957.699541,E,1,12,0.6,233.0,M,47.0,M,,*79

$GPGSV,3,1,12,07,12,299,28,08,37,295,24,10,53,142,38,15,13,046,25*78

$GPGSV,3,2,12,16,46,196,39,18,11,248,28,20,56,091,34,21,36,068,31*73

$GPGSV,3,3,12,26,21,180,32,27,76,295,37,30,07,329,30,13,04,015,*76

$GLGSV,2,1,08,70,40,112,30,76,37,268,31,75,15,217,36,69,30,036,30*6A

$GLGSV,2,2,08,85,59,054,32,71,10,156,26,77,22,330,,84,09,084,*64

$GAGSV,1,1,0,*74

$PQGSV,1,1,0,*73

$PQGSV,1,1,0,*73

$GNGSA,A,3,07,08,10,15,16,18,20,21,26,27,30,,0.9,0.6,0.7,1*3E

$GNGSA,A,3,69,70,71,75,77,85,,,,,,,0.9,0.6,0.7,2*3B

$GNVTG,,T,,M,0.0,N,0.0,K,A*3D

$GNRMC,135539.00,A,5133.565448,N,00957.699537,E,0.0,,260619,0.0,E,A*01

$GNGGA,135539.00,5133.565448,N,00957.699537,E,1,12,0.6,233.0,M,47.0,M,,*78

$GPGSV,3,1,12,07,12,299,28,08,37,295,24,10,53,142,36,15,13,046,27*74

$GPGSV,3,2,12,16,46,196,39,18,11,248,30,20,56,091,30,21,36,068,34*7B

$GPGSV,3,3,12,26,21,180,33,27,76,295,38,30,07,329,30,13,04,015,*78

$GLGSV,3,1,09,70,40,112,31,86,47,295,23,76,37,268,29,75,15,217,36*6A

$GLGSV,3,2,09,69,30,036,30,85,59,054,33,71,10,156,29,77,22,330,*69

$GLGSV,3,3,09,84,09,084,*55

$GAGSV,1,1,0,*74

$PQGSV,1,1,0,*73

$PQGSV,1,1,0,*73

$GNGSA,A,3,07,08,10,15,16,18,20,21,26,27,30,,0.9,0.6,0.7,1*3E

$GNGSA,A,3,69,70,71,75,77,85,86,,,,,,0.9,0.6,0.7,2*35

$GNVTG,,T,,M,0.0,N,0.0,K,A*3D

$GNRMC,135540.00,A,5133.565447,N,00957.699535,E,0.0,,260619,0.0,E,A*02

$GNGGA,135540.00,5133.565447,N,00957.699535,E,1,12,0.6,233.0,M,47.0,M,,*7B

$GPGSV,3,1,12,07,12,299,30,08,37,295,25,10,53,142,32,15,13,046,28*77

$GPGSV,3,2,12,16,46,196,39,18,11,248,31,20,56,091,34,21,36,068,32*78

$GPGSV,3,3,12,26,21,180,34,27,76,295,37,30,07,329,29,13,04,015,*78

$GLGSV,2,1,07,70,40,112,32,77,22,330,23,76,37,268,27,75,15,217,37*6A

$GLGSV,2,2,07,69,30,036,29,85,59,054,31,84,09,084,*5B

$GAGSV,1,1,0,*74

$PQGSV,1,1,0,*73

$PQGSV,1,1,0,*73

$GNGSA,A,3,07,08,10,15,16,18,20,21,26,27,30,,0.9,0.6,0.7,1*3E

$GNGSA,A,3,69,70,75,77,85,,,,,,,,0.9,0.6,0.7,2*3D

$GNVTG,,T,,M,0.0,N,0.0,K,A*3D

$GNRMC,135541.00,A,5133.565447,N,00957.699533,E,0.0,,260619,0.0,E,A*05

$GNGGA,135541.00,5133.565447,N,00957.699533,E,1,12,0.6,233.0,M,47.0,M,,*7C

$GPGSV,3,1,12,07,12,299,28,08,37,295,23,10,53,142,36,15,13,046,26*72

$GPGSV,3,2,12,16,46,196,40,18,11,248,30,20,56,091,31,21,36,068,29*78

$GPGSV,3,3,12,26,21,180,35,27,76,295,39,30,07,329,30,13,04,015,*7F

$GLGSV,3,1,09,70,40,112,33,77,22,330,24,76,37,268,31,75,15,217,36*65

$GLGSV,3,2,09,69,30,036,30,85,59,054,32,71,10,156,27,86,47,295,*65

$GLGSV,3,3,09,84,09,084,*55

$GAGSV,1,1,0,*74

$PQGSV,1,1,0,*73

$PQGSV,1,1,0,*73

$GNGSA,A,3,07,08,10,15,16,18,20,21,26,27,30,,0.9,0.6,0.7,1*3E

$GNGSA,A,3,69,70,71,75,77,85,86,,,,,,0.9,0.6,0.7,2*35

$GNVTG,,T,,M,0.0,N,0.0,K,A*3D

$GNRMC,135542.00,A,5133.565446,N,00957.699533,E,0.0,,260619,0.0,E,A*07

$GNGGA,135542.00,5133.565446,N,00957.699533,E,1,12,0.6,233.0,M,47.0,M,,*7E

$GPGSV,3,1,12,07,12,299,30,08,37,295,25,10,53,142,35,15,13,046,26*7E

$GPGSV,3,2,12,16,46,196,40,18,11,248,30,20,56,091,32,21,36,068,27*75

$GPGSV,3,3,12,26,21,180,34,27,76,295,40,30,07,329,31,13,04,015,*71

$GLGSV,3,1,09,70,40,112,33,86,47,295,23,77,22,330,23,76,37,268,33*65

$GLGSV,3,2,09,75,15,217,36,69,30,036,33,85,59,054,30,71,10,156,28*6F

$GLGSV,3,3,09,84,09,084,*55

$GAGSV,1,1,0,*74

$PQGSV,1,1,0,*73

$PQGSV,1,1,0,*73

$GNGSA,A,3,07,08,10,15,16,18,20,21,26,27,30,,0.9,0.6,0.7,1*3E

$GNGSA,A,3,69,70,71,75,77,85,86,,,,,,0.9,0.6,0.7,2*35

$GNVTG,,T,,M,0.0,N,0.0,K,A*3D

$GNRMC,135543.00,A,5133.565445,N,00957.699534,E,0.0,,260619,0.0,E,A*02

$GNGGA,135543.00,5133.565445,N,00957.699534,E,1,12,0.6,233.0,M,47.0,M,,*7B

$GPGSV,3,1,11,07,12,299,30,10,53,142,37,15,13,046,30,16,46,196,39*7C

$GPGSV,3,2,11,18,11,248,29,20,56,091,31,21,36,068,26,26,21,180,36*78

$GPGSV,3,3,11,27,76,295,39,30,07,329,30,13,04,015,*44

$GLGSV,3,1,09,70,40,112,31,86,47,295,23,77,22,330,23,76,37,268,32*66

$GLGSV,3,2,09,75,15,217,36,69,30,036,31,85,59,054,31,71,10,156,28*6C

$GLGSV,3,3,09,84,09,084,*55

$GAGSV,1,1,0,*74

$PQGSV,1,1,0,*73

$PQGSV,1,1,0,*73

$GNGSA,A,3,07,10,15,16,18,20,21,26,27,30,,,0.9,0.6,0.7,1*36

$GNGSA,A,3,69,70,71,75,77,85,86,,,,,,0.9,0.6,0.7,2*35

$GNVTG,,T,,M,0.0,N,0.0,K,A*3D

$GNRMC,135544.00,A,5133.565445,N,00957.699535,E,0.0,,260619,0.0,E,A*04

$GNGGA,135544.00,5133.565445,N,00957.699535,E,1,12,0.6,233.0,M,47.0,M,,*7D

$GPGSV,3,1,12,07,12,299,29,10,53,142,39,15,13,046,31,16,46,196,37*76

$GPGSV,3,2,12,18,11,248,29,20,56,091,33,21,36,068,28,26,21,180,33*72

$GPGSV,3,3,12,27,76,295,37,30,07,329,29,08,37,295,,13,04,015,*73

$GLGSV,2,1,07,70,40,112,28,76,37,268,34,75,15,217,36,69,30,036,32*6B

$GLGSV,2,2,07,85,59,054,27,71,10,156,26,84,09,084,*5F

$GAGSV,1,1,0,*74

$PQGSV,1,1,0,*73

$PQGSV,1,1,0,*73

$GNGSA,A,3,07,08,10,15,16,18,20,21,26,27,30,,0.9,0.6,0.7,1*3E

$GNGSA,A,3,69,70,71,75,85,,,,,,,,0.9,0.6,0.7,2*3B

$GNVTG,,T,,M,0.0,N,0.0,K,A*3D

$GNRMC,135545.00,A,5133.565445,N,00957.699534,E,0.0,,260619,0.0,E,A*04

$GNGGA,135545.00,5133.565445,N,00957.699534,E,1,12,0.6,233.0,M,47.0,M,,*7D

$GPGSV,3,1,12,07,12,299,29,08,37,295,26,10,53,142,39,15,13,046,29*76

$GPGSV,3,2,12,16,46,196,38,18,11,248,30,20,56,091,34,21,36,068,32*78

$GPGSV,3,3,12,26,21,180,35,27,76,295,38,30,07,329,30,13,04,015,*7E

$GLGSV,3,1,09,70,40,112,29,77,22,330,22,76,37,268,32,75,15,217,36*6B

$GLGSV,3,2,09,69,30,036,32,85,59,054,27,71,10,156,27,86,47,295,*63

$GLGSV,3,3,09,84,09,084,*55

$GAGSV,1,1,0,*74

$PQGSV,1,1,0,*73

$PQGSV,1,1,0,*73

$GNGSA,A,3,07,08,10,15,16,18,20,21,26,27,30,,0.9,0.6,0.7,1*3E

$GNGSA,A,3,69,70,71,75,77,85,86,,,,,,0.9,0.6,0.7,2*35

$GNVTG,,T,,M,0.0,N,0.0,K,A*3D

$GNRMC,135546.00,A,5133.565444,N,00957.699532,E,0.0,,260619,0.0,E,A*00

$GNGGA,135546.00,5133.565444,N,00957.699532,E,1,12,0.6,233.0,M,47.0,M,,*79

$GPGSV,3,1,11,07,12,299,28,10,53,142,40,15,13,046,28,16,46,196,38*7D

$GPGSV,3,2,11,18,11,248,29,20,56,091,34,21,36,068,32,26,21,180,34*7A

$GPGSV,3,3,11,27,76,295,37,30,07,329,30,13,04,015,*4A

$GLGSV,2,1,08,70,40,112,30,76,37,268,33,75,15,217,37,69,30,036,33*6A

$GLGSV,2,2,08,85,59,054,30,71,10,156,23,86,47,295,,84,09,084,*60

$GAGSV,1,1,0,*74

$PQGSV,1,1,0,*73

$PQGSV,1,1,0,*73

$GNGSA,A,3,07,10,15,16,18,20,21,26,27,30,,,0.9,0.6,0.7,1*36

$GNGSA,A,3,69,70,71,75,85,86,,,,,,,0.9,0.6,0.7,2*35

$GNVTG,,T,,M,0.0,N,0.0,K,A*3D

$GNRMC,135547.00,A,5133.565443,N,00957.699532,E,0.0,,260619,0.0,E,A*06

$GNGGA,135547.00,5133.565443,N,00957.699532,E,1,12,0.6,233.0,M,47.0,M,,*7F

$GPGSV,3,1,12,07,12,299,30,08,37,295,26,10,53,142,40,15,13,046,25*7C

$GPGSV,3,2,12,16,46,196,38,18,11,248,28,20,56,091,35,21,36,068,33*71

$GPGSV,3,3,12,26,21,180,32,27,76,295,39,30,07,329,29,13,04,015,*70

$GLGSV,2,1,08,70,40,112,32,76,37,268,31,75,15,217,35,69,30,036,32*69

$GLGSV,2,2,08,85,59,054,32,86,47,295,,77,22,330,,84,09,084,*66

$GAGSV,1,1,0,*74

$PQGSV,1,1,0,*73

$PQGSV,1,1,0,*73

$GNGSA,A,3,07,08,10,15,16,18,20,21,26,27,30,,0.9,0.6,0.7,1*3E

$GNGSA,A,3,69,70,75,77,85,86,,,,,,,0.9,0.6,0.7,2*33

$GNVTG,,T,,M,0.0,N,0.0,K,A*3D

$GNRMC,135548.00,A,5133.565441,N,00957.699532,E,0.0,,260619,0.0,E,A*0B

$GNGGA,135548.00,5133.565441,N,00957.699532,E,1,12,0.6,233.0,M,47.0,M,,*72

$GPGSV,3,1,11,07,12,299,32,10,53,142,40,15,13,046,27,16,46,196,38*79

$GPGSV,3,2,11,18,11,248,31,20,56,091,36,21,36,068,36,26,21,180,34*75

$GPGSV,3,3,11,27,76,295,39,30,07,329,28,13,04,015,*4D

$GLGSV,3,1,09,70,40,112,30,76,37,268,33,75,15,217,37,69,30,036,27*6F

$GLGSV,3,2,09,85,59,054,35,71,10,156,28,86,47,295,,77,22,330,*67

$GLGSV,3,3,09,84,09,084,*55

$GAGSV,1,1,0,*74

$PQGSV,1,1,0,*73

$PQGSV,1,1,0,*73

$GNGSA,A,3,07,10,15,16,18,20,21,26,27,30,,,0.9,0.6,0.7,1*36

$GNGSA,A,3,69,70,71,75,77,85,86,,,,,,0.9,0.6,0.7,2*35

$GNVTG,,T,,M,0.0,N,0.0,K,A*3D

$GNRMC,135549.00,A,5133.565441,N,00957.699532,E,0.0,,260619,0.0,E,A*0A

$GNGGA,135549.00,5133.565441,N,00957.699532,E,1,12,0.6,233.0,M,47.0,M,,*73

$GPGSV,3,1,11,07,12,299,29,10,53,142,40,16,46,196,37,18,11,248,31*78

$GPGSV,3,2,11,20,56,091,36,21,36,068,35,26,21,180,36,27,76,295,39*71

$GPGSV,3,3,11,30,07,329,30,08,37,295,,13,04,015,*46

$GLGSV,3,1,09,70,40,112,30,76,37,268,33,75,15,217,37,69,30,036,28*60

$GLGSV,3,2,09,85,59,054,33,71,10,156,27,86,47,295,,77,22,330,*6E

$GLGSV,3,3,09,84,09,084,*55

$GAGSV,1,1,0,*74

$PQGSV,1,1,0,*73

$PQGSV,1,1,0,*73

$GNGSA,A,3,07,08,10,16,18,20,21,26,27,30,,,0.9,0.6,0.7,1*3A

$GNGSA,A,3,69,70,71,75,77,85,86,,,,,,0.9,0.6,0.7,2*35

$GNVTG,,T,,M,0.0,N,0.0,K,A*3D

$GNRMC,135550.00,A,5133.565440,N,00957.699532,E,0.0,,260619,0.0,E,A*03

$GNGGA,135550.00,5133.565440,N,00957.699532,E,1,12,0.6,233.0,M,47.0,M,,*7A

$GPGSV,3,1,12,07,12,299,29,10,53,142,39,16,46,196,36,18,11,248,28*7C

$GPGSV,3,2,12,20,56,091,35,21,36,068,34,26,21,180,35,27,76,295,39*73

$GPGSV,3,3,12,30,07,329,30,08,37,295,,13,04,015,,15,13,046,*71

$GLGSV,3,1,09,70,40,112,30,76,37,268,33,75,15,217,37,69,30,036,26*6E

$GLGSV,3,2,09,85,59,054,34,71,10,156,29,86,47,295,,77,22,330,*67

$GLGSV,3,3,09,84,09,084,*55

$GAGSV,1,1,0,*74

$PQGSV,1,1,0,*73

$PQGSV,1,1,0,*73

$GNGSA,A,3,07,08,10,15,16,18,20,21,26,27,30,,0.9,0.6,0.7,1*3E

$GNGSA,A,3,69,70,71,75,77,85,,,,,,,0.9,0.6,0.7,2*3B

$GNVTG,,T,,M,0.0,N,0.0,K,A*3D

$GNRMC,135551.00,A,5133.565439,N,00957.699531,E,0.0,,260619,0.0,E,A*0F

$GNGGA,135551.00,5133.565439,N,00957.699531,E,1,12,0.6,233.0,M,47.0,M,,*76

$GPGSV,3,1,12,07,12,299,27,10,53,142,41,16,46,196,37,18,11,248,28*7C

$GPGSV,3,2,12,20,56,091,37,21,36,068,36,26,21,180,35,27,76,295,39*73

$GPGSV,3,3,12,30,07,329,30,08,37,295,,13,04,015,,15,13,046,*71

$GLGSV,2,1,08,70,40,112,28,76,37,268,30,75,15,217,38,85,59,054,32*67

$GLGSV,2,2,08,71,10,156,28,86,47,295,,77,22,330,,84,09,084,*68

$GAGSV,1,1,0,*74

$PQGSV,1,1,0,*73

$PQGSV,1,1,0,*73

$GNGSA,A,3,07,08,10,15,16,18,20,21,26,27,30,,1.0,0.6,0.7,1*36

$GNGSA,A,3,70,71,75,77,85,,,,,,,,1.0,0.6,0.7,2*3C

$GNVTG,,T,,M,0.0,N,0.0,K,A*3D

$GNRMC,135552.00,A,5133.565439,N,00957.699530,E,0.0,,260619,0.0,E,A*0D

$GNGGA,135552.00,5133.565439,N,00957.699530,E,1,12,0.6,233.0,M,47.0,M,,*74

$GPGSV,3,1,12,07,12,299,29,10,53,142,40,16,46,196,38,18,11,248,31*74

$GPGSV,3,2,12,20,56,091,35,21,36,068,36,26,21,180,34,27,76,295,36*7F

$GPGSV,3,3,12,30,07,329,31,08,37,295,,13,04,015,,15,13,046,*70

$GLGSV,2,1,07,70,40,112,28,76,37,268,32,75,15,217,36,85,59,054,31*67

$GLGSV,2,2,07,86,47,295,,77,22,330,,84,09,084,*58

$GAGSV,1,1,0,*74

$PQGSV,1,1,0,*73

$PQGSV,1,1,0,*73

$GNGSA,A,3,07,08,10,15,16,18,20,21,26,27,30,,1.0,0.6,0.7,1*36

$GNGSA,A,2,70,75,85,,,,,,,,,,1.0,0.6,0.7,2*3B

$GNVTG,,T,,M,0.0,N,0.0,K,A*3D

$GNRMC,135553.00,A,5133.565438,N,00957.699530,E,0.0,,260619,0.0,E,A*0D

$GNGGA,135553.00,5133.565438,N,00957.699530,E,1,12,0.6,233.0,M,47.0,M,,*74

$GPGSV,3,1,10,07,12,299,28,10,53,142,41,15,13,046,25,16,46,196,39*71

$GPGSV,3,2,10,20,56,091,35,21,36,068,30,26,21,180,34,27,76,295,38*75

$GPGSV,3,3,10,30,07,329,30,13,04,015,*75

$GLGSV,3,1,09,70,40,112,29,76,37,268,35,75,15,217,34,69,30,036,31*65

$GLGSV,3,2,09,85,59,054,31,86,47,295,,77,22,330,,84,09,084,*65

$GLGSV,3,3,09,71,10,156,*59

$GAGSV,1,1,0,*74

$PQGSV,1,1,0,*73

$PQGSV,1,1,0,*73

$GNGSA,A,3,07,10,15,16,20,21,26,27,30,,,,1.0,0.7,0.7,1*36

$GNGSA,A,3,69,70,71,75,85,,,,,,,,1.0,0.7,0.7,2*32

$GNVTG,,T,,M,0.0,N,0.0,K,A*3D

$GNRMC,135554.00,A,5133.565438,N,00957.699530,E,0.0,,260619,0.0,E,A*0A

$GNGGA,135554.00,5133.565438,N,00957.699530,E,1,12,0.7,233.0,M,47.0,M,,*72

$GPGSV,3,1,12,07,12,299,30,10,53,142,39,15,13,046,28,16,46,196,40*76

$GPGSV,3,2,12,18,11,248,27,20,56,091,35,21,36,068,34,26,21,180,36*72

$GPGSV,3,3,12,27,76,295,38,30,07,329,30,08,37,295,,13,04,015,*74

$GLGSV,3,1,09,70,40,112,30,86,47,295,26,76,37,268,33,75,15,217,36*65

$GLGSV,3,2,09,69,30,036,31,85,59,054,31,71,10,156,24,77,22,330,*67

$GLGSV,3,3,09,84,09,084,*55

$GAGSV,1,1,0,*74

$PQGSV,1,1,0,*73

$PQGSV,1,1,0,*73

$GNGSA,A,3,07,10,15,16,18,20,21,26,27,30,,,0.9,0.6,0.7,1*36

$GNGSA,A,3,69,70,71,75,85,,,,,,,,0.9,0.6,0.7,2*3B

$GNVTG,,T,,M,0.0,N,0.0,K,A*3D

$GNRMC,135555.00,A,5133.565438,N,00957.699530,E,0.0,,260619,0.0,E,A*0B

$GNGGA,135555.00,5133.565438,N,00957.699530,E,1,12,0.6,233.0,M,47.0,M,,*72

$GPGSV,3,1,12,07,12,299,29,10,53,142,40,15,13,046,29,16,46,196,39*7F

$GPGSV,3,2,12,18,11,248,29,20,56,091,35,21,36,068,34,26,21,180,36*7C

$GPGSV,3,3,12,27,76,295,38,30,07,329,31,08,37,295,,13,04,015,*75

$GLGSV,2,1,08,70,40,112,26,86,47,295,25,76,37,268,35,75,15,217,33*62

$GLGSV,2,2,08,69,30,036,29,85,59,054,32,77,22,330,,84,09,084,*67

$GAGSV,1,1,0,*74

$PQGSV,1,1,0,*73

$PQGSV,1,1,0,*73

$GNGSA,A,3,07,10,15,16,18,20,21,26,27,30,,,0.9,0.6,0.7,1*36

$GNGSA,A,3,69,70,75,85,86,,,,,,,,0.9,0.6,0.7,2*33

$GNVTG,,T,,M,0.0,N,0.0,K,A*3D

$GNRMC,135556.00,A,5133.565438,N,00957.699531,E,0.0,,260619,0.0,E,A*09

$GNGGA,135556.00,5133.565438,N,00957.699531,E,1,12,0.6,233.0,M,47.0,M,,*70

$GPGSV,3,1,11,07,12,299,28,10,53,142,38,15,13,046,27,16,46,196,40*72

$GPGSV,3,2,11,18,11,248,30,20,56,091,34,21,36,068,34,26,21,180,36*76

$GPGSV,3,3,11,27,76,295,38,30,07,329,32,13,04,015,*47

$GLGSV,3,1,09,70,40,112,30,86,47,295,25,76,37,268,34,75,15,217,33*64

$GLGSV,3,2,09,69,30,036,27,85,59,054,33,71,10,156,25,77,22,330,*63

$GLGSV,3,3,09,84,09,084,*55

$GAGSV,1,1,0,*74

$PQGSV,1,1,0,*73

$PQGSV,1,1,0,*73

$GNGSA,A,3,07,10,15,16,18,20,21,26,27,30,,,0.9,0.6,0.7,1*36

$GNGSA,A,3,69,70,71,75,85,86,,,,,,,0.9,0.6,0.7,2*35

$GNVTG,,T,,M,0.0,N,0.0,K,A*3D

$GNRMC,135557.00,A,5133.565436,N,00957.699531,E,0.0,,260619,0.0,E,A*06

$GNGGA,135557.00,5133.565436,N,00957.699531,E,1,12,0.6,233.0,M,47.0,M,,*7F

$GPGSV,3,1,12,07,12,299,28,10,53,142,38,15,13,046,26,16,46,196,40*70

$GPGSV,3,2,12,18,11,248,28,20,56,091,35,21,36,068,33,26,21,180,35*79

$GPGSV,3,3,12,27,76,295,38,30,07,329,31,08,37,295,,13,04,015,*75

$GLGSV,3,1,09,70,40,112,28,86,47,295,27,76,37,268,34,75,15,217,35*69

$GLGSV,3,2,09,69,30,036,25,85,59,054,34,71,10,156,27,77,22,330,*64

$GLGSV,3,3,09,84,09,084,*55

$GAGSV,1,1,0,*74

$PQGSV,1,1,0,*73

$PQGSV,1,1,0,*73

$GNGSA,A,3,07,10,15,16,18,20,21,26,27,30,,,0.9,0.6,0.7,1*36

$GNGSA,A,3,69,70,71,75,85,86,,,,,,,0.9,0.6,0.7,2*35

$GNVTG,,T,,M,0.0,N,0.0,K,A*3D

$GNRMC,135558.00,A,5133.565435,N,00957.699532,E,0.0,,260619,0.0,E,A*09

$GNGGA,135558.00,5133.565435,N,00957.699532,E,1,12,0.6,233.0,M,47.0,M,,*70

$GPGSV,3,1,12,07,12,299,30,10,53,142,40,15,13,046,28,16,46,196,40*78

$GPGSV,3,2,12,18,11,248,27,20,56,091,34,21,36,068,33,26,21,180,32*70

$GPGSV,3,3,12,27,76,295,38,30,07,329,31,08,37,295,,13,04,015,*75

$GLGSV,3,1,09,70,40,112,30,86,47,295,28,76,37,268,33,75,15,217,35*68

$GLGSV,3,2,09,69,30,036,29,85,59,054,32,71,10,156,26,77,22,330,*6F

$GLGSV,3,3,09,84,09,084,*55

$GAGSV,1,1,0,*74

$PQGSV,1,1,0,*73

$PQGSV,1,1,0,*73

$GNGSA,A,3,07,10,15,16,18,20,21,26,27,30,,,0.9,0.6,0.7,1*36

$GNGSA,A,3,69,70,71,75,85,86,,,,,,,0.9,0.6,0.7,2*35

$GNVTG,,T,,M,0.0,N,0.0,K,A*3D

$GNRMC,135559.00,A,5133.565435,N,00957.699533,E,0.0,,260619,0.0,E,A*09

$GNGGA,135559.00,5133.565435,N,00957.699533,E,1,12,0.6,233.0,M,47.0,M,,*70

$GPGSV,3,1,11,07,12,299,28,10,53,142,39,15,13,046,28,16,46,196,41*7D

$GPGSV,3,2,11,18,11,248,27,20,56,091,35,21,36,068,34,26,21,180,34*73

$GPGSV,3,3,11,27,76,295,38,30,07,329,30,13,04,015,*45

$GLGSV,3,1,09,70,40,112,32,86,47,295,28,76,37,268,33,75,15,217,34*6B

$GLGSV,3,2,09,69,30,036,29,85,59,054,33,71,10,156,27,77,22,330,*6F

$GLGSV,3,3,09,84,09,084,*55

$GAGSV,1,1,0,*74

$PQGSV,1,1,0,*73

$PQGSV,1,1,0,*73

$GNGSA,A,3,07,10,15,16,18,20,21,26,27,30,,,0.9,0.6,0.7,1*36

$GNGSA,A,3,69,70,71,75,85,86,,,,,,,0.9,0.6,0.7,2*35

$GNVTG,,T,,M,0.0,N,0.0,K,A*3D

$GNRMC,135600.00,A,5133.565434,N,00957.699533,E,0.0,,260619,0.0,E,A*07

$GNGGA,135600.00,5133.565434,N,00957.699533,E,1,12,0.6,233.0,M,47.0,M,,*7E

$GPGSV,3,1,11,07,12,299,28,10,53,142,40,15,13,046,28,16,46,196,40*72

$GPGSV,3,2,11,18,11,248,25,20,56,091,33,21,36,068,33,26,21,180,35*71

$GPGSV,3,3,11,27,76,295,38,30,07,329,29,13,04,015,*4D

$GLGSV,3,1,09,70,40,112,30,86,47,295,27,77,22,330,23,76,37,268,32*63

$GLGSV,3,2,09,75,15,217,35,69,30,036,30,85,59,054,35,71,10,156,29*6B

$GLGSV,3,3,09,84,09,084,*55

$GAGSV,1,1,0,*74

$PQGSV,1,1,0,*73

$PQGSV,1,1,0,*73

$GNGSA,A,3,07,10,15,16,18,20,21,26,27,30,,,0.9,0.6,0.7,1*36

$GNGSA,A,3,69,70,71,75,85,86,,,,,,,0.9,0.6,0.7,2*35

$GNVTG,,T,,M,0.0,N,0.0,K,A*3D

$GNRMC,135601.00,A,5133.565433,N,00957.699533,E,0.0,,260619,0.0,E,A*01

$GNGGA,135601.00,5133.565433,N,00957.699533,E,1,12,0.6,233.0,M,47.0,M,,*78

$GPGSV,3,1,10,07,12,299,27,10,53,142,41,15,13,046,30,16,46,196,40*74

$GPGSV,3,2,10,20,56,091,35,21,36,068,35,26,21,180,34,27,76,295,38*70

$GPGSV,3,3,10,30,07,329,31,13,04,015,*74

$GLGSV,2,1,08,70,40,112,32,86,47,295,27,76,37,268,33,75,15,217,35*65

$GLGSV,2,2,08,69,30,036,34,85,59,054,33,71,10,156,25,84,09,084,*68

$GAGSV,1,1,0,*74

$PQGSV,1,1,0,*73

$PQGSV,1,1,0,*73

$GNGSA,A,3,07,10,15,16,20,21,26,27,30,,,,0.9,0.6,0.7,1*3F

$GNGSA,A,3,69,70,71,75,85,86,,,,,,,0.9,0.6,0.7,2*35

$GNVTG,,T,,M,0.0,N,0.0,K,A*3D

$GNRMC,135602.00,A,5133.565433,N,00957.699533,E,0.0,,260619,0.0,E,A*02

$GNGGA,135602.00,5133.565433,N,00957.699533,E,1,12,0.6,233.0,M,47.0,M,,*7B

$GPGSV,3,1,12,07,12,299,28,08,37,295,26,10,53,142,39,15,13,046,34*7B

$GPGSV,3,2,12,16,46,196,39,18,11,248,29,20,56,091,35,21,36,068,32*70

$GPGSV,3,3,12,26,21,180,33,27,76,295,37,30,07,329,30,13,04,015,*77

$GLGSV,3,1,09,70,40,112,33,86,47,295,28,76,37,268,34,75,15,217,33*6A

$GLGSV,3,2,09,69,30,036,33,85,59,054,33,71,10,156,25,77,22,330,*66

$GLGSV,3,3,09,84,09,084,*55

$GAGSV,1,1,0,*74

$PQGSV,1,1,0,*73

$PQGSV,1,1,0,*73

$GNGSA,A,3,07,10,15,16,18,20,21,26,27,30,,,0.9,0.6,0.7,1*36

$GNGSA,A,3,69,70,71,75,77,85,86,,,,,,0.9,0.6,0.7,2*35

$GNVTG,,T,,M,0.0,N,0.0,K,A*3D

$GNRMC,135603.00,A,5133.565432,N,00957.699532,E,0.0,,260619,0.0,E,A*03

$GNGGA,135603.00,5133.565432,N,00957.699532,E,1,12,0.6,233.0,M,47.0,M,,*7A

$GPGSV,3,1,12,07,12,299,29,08,37,295,26,10,53,142,40,15,13,046,31*71

$GPGSV,3,2,12,16,46,196,39,18,11,248,29,20,56,091,36,21,36,068,35*74

$GPGSV,3,3,12,26,21,180,34,27,76,295,37,30,07,329,30,13,04,015,*70

$GLGSV,3,1,09,70,40,112,32,86,47,295,27,76,37,268,32,75,15,217,35*64

$GLGSV,3,2,09,69,30,036,31,85,59,054,31,71,10,156,24,77,22,330,*67

$GLGSV,3,3,09,84,09,084,*55

$GAGSV,1,1,0,*74

$PQGSV,1,1,0,*73

$PQGSV,1,1,0,*73

$GNGSA,A,3,07,08,10,15,16,18,20,21,26,27,30,,0.9,0.6,0.7,1*3E

$GNGSA,A,3,69,70,71,75,77,85,86,,,,,,0.9,0.6,0.7,2*35

$GNVTG,,T,,M,0.0,N,0.0,K,A*3D

$GNRMC,135604.00,A,5133.565430,N,00957.699533,E,0.0,,260619,0.0,E,A*07

$GNGGA,135604.00,5133.565430,N,00957.699533,E,1,12,0.6,233.0,M,47.0,M,,*7E

$GPGSV,3,1,11,07,12,299,28,10,53,142,41,15,13,046,33,16,46,196,38*76

$GPGSV,3,2,11,18,11,248,29,20,56,091,35,21,36,068,33,26,21,180,35*7B

$GPGSV,3,3,11,27,76,295,38,30,07,329,30,13,04,015,*45

$GLGSV,3,1,09,70,40,112,33,86,47,295,28,76,37,268,33,75,15,217,33*6D

$GLGSV,3,2,09,69,30,036,31,85,59,054,32,71,10,156,24,77,22,330,*64

$GLGSV,3,3,09,84,09,084,*55

$GAGSV,1,1,0,*74

$PQGSV,1,1,0,*73

$PQGSV,1,1,0,*73

$GNGSA,A,3,07,10,15,16,18,20,21,26,27,30,,,0.9,0.6,0.7,1*36

$GNGSA,A,3,69,70,71,75,77,85,86,,,,,,0.9,0.6,0.7,2*35

$GNVTG,,T,,M,0.0,N,0.0,K,A*3D

$GNRMC,135605.00,A,5133.565429,N,00957.699533,E,0.0,,260619,0.0,E,A*0E

$GNGGA,135605.00,5133.565429,N,00957.699533,E,1,12,0.6,233.0,M,47.0,M,,*77

$GPGSV,3,1,12,07,12,299,27,10,53,142,39,11,00,000,26,15,13,046,33*71

$GPGSV,3,2,12,16,46,196,39,18,11,248,30,20,56,091,35,21,36,068,33*79

$GPGSV,3,3,12,26,21,180,34,27,76,295,36,30,07,329,29,13,04,015,*79

$GLGSV,3,1,09,70,40,112,31,86,47,295,25,76,37,268,33,75,15,217,34*65

$GLGSV,3,2,09,69,30,036,30,85,59,054,31,71,10,156,24,77,22,330,*66

$GLGSV,3,3,09,84,09,084,*55

$GAGSV,1,1,0,*74

$PQGSV,1,1,0,*73

$PQGSV,1,1,0,*73

$GNGSA,A,3,07,10,15,16,18,20,21,26,27,30,,,0.9,0.6,0.7,1*36

$GNGSA,A,3,69,70,71,75,77,85,86,,,,,,0.9,0.6,0.7,2*35

$GNVTG,,T,,M,0.0,N,0.0,K,A*3D

$GNRMC,135606.00,A,5133.565429,N,00957.699533,E,0.0,,260619,0.0,E,A*0D

$GNGGA,135606.00,5133.565429,N,00957.699533,E,1,12,0.6,233.0,M,47.0,M,,*74

$GPGSV,4,1,13,07,12,299,29,08,37,295,25,10,53,142,39,11,00,000,27*79

$GPGSV,4,2,13,15,13,046,34,16,46,196,38,18,11,248,29,20,56,091,36*7E

$GPGSV,4,3,13,21,36,068,33,26,21,180,35,27,76,295,36,30,07,329,28*75

$GPGSV,4,4,13,13,04,015,*49

$GLGSV,2,1,08,70,40,112,31,76,37,268,33,75,15,217,33,69,30,036,31*6D

$GLGSV,2,2,08,85,59,054,32,71,10,156,24,77,22,330,,84,09,084,*66

$GAGSV,1,1,0,*74

$PQGSV,1,1,0,*73

$PQGSV,1,1,0,*73

$GNGSA,A,3,07,08,10,15,16,18,20,21,26,27,30,,0.9,0.6,0.7,1*3E

$GNGSA,A,3,69,70,71,75,77,85,,,,,,,0.9,0.6,0.7,2*3B

$GNVTG,,T,,M,0.0,N,0.0,K,A*3D

$GNRMC,135607.00,A,5133.565427,N,00957.699533,E,0.0,,260619,0.0,E,A*02

$GNGGA,135607.00,5133.565427,N,00957.699533,E,1,12,0.6,233.0,M,47.0,M,,*7B

$GPGSV,3,1,12,07,12,299,29,10,53,142,41,11,00,000,27,15,13,046,33*71

$GPGSV,3,2,12,16,46,196,38,18,11,248,29,20,56,091,35,21,36,068,32*71

$GPGSV,3,3,12,26,21,180,35,27,76,295,35,30,07,329,28,13,04,015,*7A

$GLGSV,3,1,09,70,40,112,31,76,37,268,33,75,15,217,35,69,30,036,30*6A

$GLGSV,3,2,09,85,59,054,31,71,10,156,28,86,47,295,,77,22,330,*63

$GLGSV,3,3,09,84,09,084,*55

$GAGSV,1,1,0,*74

$PQGSV,1,1,0,*73

$PQGSV,1,1,0,*73

$GNGSA,A,3,07,10,15,16,18,20,21,26,27,30,,,0.9,0.6,0.7,1*36

$GNGSA,A,3,69,70,71,75,85,86,,,,,,,0.9,0.6,0.7,2*35

$GNVTG,,T,,M,0.0,N,0.0,K,A*3D

$GNRMC,135608.00,A,5133.565426,N,00957.699531,E,0.0,,260619,0.0,E,A*0E

$GNGGA,135608.00,5133.565426,N,00957.699531,E,1,12,0.6,233.0,M,47.0,M,,*77

$GPGSV,3,1,12,07,12,299,30,10,53,142,39,11,00,000,28,15,13,046,31*7B

$GPGSV,3,2,12,16,46,196,38,18,11,248,29,20,56,091,34,21,36,068,30*72

$GPGSV,3,3,12,26,21,180,34,27,76,295,37,30,07,329,30,13,04,015,*70

$GLGSV,3,1,09,70,40,112,29,76,37,268,32,75,14,217,34,69,30,036,30*62

$GLGSV,3,2,09,85,59,057,32,71,10,156,29,86,47,295,,77,22,330,*62

$GLGSV,3,3,09,84,09,084,*55

$GAGSV,1,1,0,*74

$PQGSV,1,1,0,*73

$PQGSV,1,1,0,*73

$GNGSA,A,3,07,10,15,16,18,20,21,26,27,30,,,0.9,0.6,0.7,1*36

$GNGSA,A,3,69,70,71,75,85,86,,,,,,,0.9,0.6,0.7,2*35

$GNVTG,,T,,M,0.0,N,0.0,K,A*3D

$GNRMC,135609.00,A,5133.565424,N,00957.699530,E,0.0,,260619,0.0,E,A*0C

$GNGGA,135609.00,5133.565424,N,00957.699530,E,1,12,0.6,234.0,M,47.0,M,,*72

$GPGSV,4,1,13,07,12,299,28,08,37,295,25,10,53,142,37,11,00,000,28*79

$GPGSV,4,2,13,15,13,046,24,16,46,196,39,18,11,248,29,20,56,091,30*78

$GPGSV,4,3,13,21,36,068,23,26,21,180,30,27,76,295,38,30,07,329,30*76

$GPGSV,4,4,13,13,04,015,*49

$GLGSV,2,1,08,70,40,112,27,86,47,295,26,77,22,330,23,76,37,268,32*64

$GLGSV,2,2,08,75,14,217,32,69,30,036,27,71,10,156,24,84,09,084,*69

$GAGSV,1,1,0,*74

$PQGSV,1,1,0,*73

$PQGSV,1,1,0,*73

$GNGSA,A,3,07,08,10,15,16,18,20,21,26,27,30,,0.9,0.6,0.7,1*3E

$GNGSA,A,3,69,70,71,75,86,,,,,,,,0.9,0.6,0.7,2*38

$GNVTG,,T,,M,0.0,N,0.0,K,A*3D

$GNRMC,135610.00,A,5133.565424,N,00957.699529,E,0.0,,260619,0.0,E,A*0C

$GNGGA,135610.00,5133.565424,N,00957.699529,E,1,12,0.6,234.0,M,47.0,M,,*72

$GPGSV,3,1,12,07,12,299,28,10,53,142,25,11,00,000,27,15,13,046,26*76

$GPGSV,3,2,12,16,46,196,37,18,11,248,30,20,56,091,27,21,36,068,25*73

$GPGSV,3,3,12,26,21,180,31,27,76,295,33,30,07,329,29,13,04,015,*79

$GLGSV,2,1,07,70,40,112,26,76,37,268,24,75,14,217,35,69,30,036,25*60

$GLGSV,2,2,07,85,59,057,30,71,10,156,26,84,09,084,*5A

$GAGSV,1,1,0,*74

$PQGSV,1,1,0,*73

$PQGSV,1,1,0,*73

$GNGSA,A,3,07,10,15,16,18,20,21,26,27,30,,,0.9,0.6,0.7,1*36

$GNGSA,A,3,69,70,71,75,85,,,,,,,,0.9,0.6,0.7,2*3B

$GNVTG,,T,,M,0.0,N,0.0,K,A*3D

$GNRMC,135611.00,A,5133.565424,N,00957.699528,E,0.0,,260619,0.0,E,A*0C

$GNGGA,135611.00,5133.565424,N,00957.699528,E,1,12,0.6,234.0,M,47.0,M,,*72

$GPGSV,3,1,11,07,12,299,30,08,37,295,26,10,53,142,27,11,00,000,28*77

$GPGSV,3,2,11,16,46,196,37,18,11,248,30,21,36,068,26,26,21,180,28*7B

$GPGSV,3,3,11,27,76,295,32,30,07,329,30,13,04,015,*4F

$GLGSV,2,1,08,70,40,112,22,76,37,268,28,75,14,217,35,85,59,057,30*69

$GLGSV,2,2,08,71,10,156,28,86,47,295,,77,22,330,,84,09,084,*68

$GAGSV,1,1,0,*74

$PQGSV,1,1,0,*73

$PQGSV,1,1,0,*73

$GNGSA,A,3,07,08,10,16,18,21,26,27,30,,,,0.9,0.6,0.7,1*38

$GNGSA,A,3,70,71,75,77,85,86,,,,,,,0.9,0.6,0.7,2*3A

$GNVTG,,T,,M,0.0,N,0.0,K,A*3D

$GNRMC,135612.00,A,5133.565424,N,00957.699527,E,0.0,,260619,0.0,E,A*00

$GNGGA,135612.00,5133.565424,N,00957.699527,E,1,12,0.6,234.0,M,47.0,M,,*7E

$GPGSV,3,1,12,07,12,299,30,08,37,295,24,11,00,000,29,16,46,196,39*73

$GPGSV,3,2,12,18,11,248,32,20,56,091,23,21,36,068,27,26,21,180,32*77

$GPGSV,3,3,12,27,76,295,34,30,07,329,31,13,04,015,,15,13,046,*7F

$GLGSV,3,1,09,70,40,112,25,76,37,268,32,75,14,217,35,69,30,036,23*6D

$GLGSV,3,2,09,85,59,057,31,71,10,156,31,86,47,295,,77,22,330,*68

$GLGSV,3,3,09,84,09,084,*55

$GAGSV,1,1,0,*74

$PQGSV,1,1,0,*73

$PQGSV,1,1,0,*73

$GNGSA,A,3,07,08,15,16,18,20,21,26,27,30,,,0.9,0.6,0.7,1*3F

$GNGSA,A,3,69,70,71,75,77,85,86,,,,,,0.9,0.6,0.7,2*35

$GNVTG,,T,,M,0.0,N,0.0,K,A*3D

$GNRMC,135613.00,A,5133.565424,N,00957.699527,E,0.0,,260619,0.0,E,A*01

$GNGGA,135613.00,5133.565424,N,00957.699527,E,1,12,0.6,234.0,M,47.0,M,,*7F

$GPGSV,4,1,13,07,12,299,31,08,37,295,24,11,00,000,28,16,46,196,39*75

$GPGSV,4,2,13,18,11,248,32,20,56,091,24,21,36,068,25,26,21,180,31*77

$GPGSV,4,3,13,27,76,295,33,30,07,329,31,10,53,142,,13,04,015,*7A

$GPGSV,4,4,13,15,13,046,*4F

$GLGSV,2,1,08,70,40,112,27,76,37,268,31,75,14,217,35,69,30,036,24*6B

$GLGSV,2,2,08,85,59,057,30,86,47,295,,77,22,330,,84,09,084,*67

$GAGSV,1,1,0,*74

$PQGSV,1,1,0,*73

$PQGSV,1,1,0,*73

$GNGSA,A,3,07,08,10,15,16,18,20,21,26,27,30,,0.9,0.6,0.7,1*3E

$GNGSA,A,3,69,70,75,77,85,86,,,,,,,0.9,0.6,0.7,2*33

$GNVTG,,T,,M,0.0,N,0.0,K,A*3D

$GNRMC,135614.00,A,5133.565425,N,00957.699526,E,0.0,,260619,0.0,E,A*06

$GNGGA,135614.00,5133.565425,N,00957.699526,E,1,12,0.6,234.0,M,47.0,M,,*78

$GPGSV,4,1,13,07,12,299,32,08,37,295,27,10,53,142,25,11,00,000,27*7C

$GPGSV,4,2,13,16,46,196,38,18,11,248,30,20,56,091,25,21,36,068,23*7E

$GPGSV,4,3,13,26,21,180,30,27,76,295,33,30,07,329,31,13,04,015,*77

$GPGSV,4,4,13,15,13,046,*4F

$GLGSV,3,1,09,70,40,112,27,76,37,268,31,75,14,217,34,69,30,036,26*68

$GLGSV,3,2,09,85,59,057,31,71,10,156,25,86,47,295,,77,22,330,*6D

$GLGSV,3,3,09,84,09,084,*55

$GAGSV,1,1,0,*74

$PQGSV,1,1,0,*73

$PQGSV,1,1,0,*73

$GNGSA,A,3,07,08,10,15,16,18,20,21,26,27,30,,0.9,0.6,0.7,1*3E

$GNGSA,A,3,69,70,71,75,77,85,86,,,,,,0.9,0.6,0.7,2*35

$GNVTG,,T,,M,0.0,N,0.0,K,A*3D

$GNRMC,135615.00,A,5133.565424,N,00957.699526,E,0.0,,260619,0.0,E,A*06

$GNGGA,135615.00,5133.565424,N,00957.699526,E,1,12,0.6,234.0,M,47.0,M,,*78

$GPGSV,3,1,12,07,12,299,32,08,37,295,28,10,53,142,28,11,00,000,27*78

$GPGSV,3,2,12,15,13,046,25,16,46,196,35,18,11,248,31,21,36,068,24*7E

$GPGSV,3,3,12,26,21,180,29,27,76,295,32,30,07,329,30,13,04,015,*79

$GLGSV,2,1,07,86,47,295,24,76,37,268,31,75,14,217,33,69,30,036,23*64

$GLGSV,2,2,07,85,59,057,32,77,22,330,,84,09,084,*59

$GAGSV,1,1,0,*74

$PQGSV,1,1,0,*73

$PQGSV,1,1,0,*73

$GNGSA,A,3,07,08,10,15,16,18,21,26,27,30,,,0.9,0.6,0.7,1*3C

$GNGSA,A,3,69,75,77,85,86,,,,,,,,0.9,0.6,0.7,2*34

$GNVTG,,T,,M,0.0,N,0.0,K,A*3D

$GNRMC,135616.00,A,5133.565424,N,00957.699525,E,0.0,,260619,0.0,E,A*06

$GNGGA,135616.00,5133.565424,N,00957.699525,E,1,12,0.6,234.0,M,47.0,M,,*78

$GPGSV,3,1,10,07,12,299,30,08,37,295,26,11,00,000,24,16,46,196,36*71

$GPGSV,3,2,10,18,11,248,31,20,56,091,26,26,21,180,29,27,76,295,31*7C

$GPGSV,3,3,10,30,07,329,30,13,04,015,*75

$GLGSV,3,1,09,70,40,112,28,86,47,295,24,76,37,268,30,75,14,217,35*6F

$GLGSV,3,2,09,69,30,036,23,85,59,057,33,71,10,156,24,77,22,330,*65

$GLGSV,3,3,09,84,09,084,*55

$GAGSV,1,1,0,*74

$PQGSV,1,1,0,*73

$PQGSV,1,1,0,*73

$GNGSA,A,3,07,08,16,18,20,26,27,30,,,,,0.9,0.6,0.7,1*38

$GNGSA,A,3,69,70,71,75,85,86,,,,,,,0.9,0.6,0.7,2*35

$GNVTG,,T,,M,0.0,N,0.0,K,A*3D

$GNRMC,135617.00,A,5133.565423,N,00957.699524,E,0.0,,260619,0.0,E,A*01

$GNGGA,135617.00,5133.565423,N,00957.699524,E,1,12,0.6,234.0,M,47.0,M,,*7F

$GPGSV,3,1,12,07,12,299,29,10,53,142,29,11,00,000,25,16,46,196,34*75

$GPGSV,3,2,12,18,11,248,33,20,56,091,30,26,21,180,31,27,76,295,32*71

$GPGSV,3,3,12,30,07,329,30,13,04,015,,15,13,046,,21,36,068,*7B

$GLGSV,3,1,09,70,40,112,28,86,47,295,25,76,37,268,33,75,14,217,33*6B

$GLGSV,3,2,09,69,30,036,22,85,59,057,32,71,10,156,28,77,22,330,*69

$GLGSV,3,3,09,84,09,084,*55

$GAGSV,1,1,0,*74

$PQGSV,1,1,0,*73

$PQGSV,1,1,0,*73

$GNGSA,A,3,07,10,15,16,18,20,21,26,27,30,,,0.9,0.6,0.7,1*36

$GNGSA,A,3,69,70,71,75,85,86,,,,,,,0.9,0.6,0.7,2*35

$GNVTG,,T,,M,0.0,N,0.0,K,A*3D

$GNRMC,135618.00,A,5133.565423,N,00957.699522,E,0.0,,260619,0.0,E,A*08

$GNGGA,135618.00,5133.565423,N,00957.699522,E,1,12,0.6,234.0,M,47.0,M,,*76

$GPGSV,3,1,12,07,12,299,28,08,37,295,24,10,53,142,28,15,13,046,26*7A

$GPGSV,3,2,12,16,46,196,36,18,11,248,32,20,56,091,28,21,36,068,25*7F

$GPGSV,3,3,12,26,21,180,30,27,76,295,28,30,07,329,31,13,04,015,*7B

$GLGSV,2,1,08,70,40,112,28,76,37,268,29,75,14,217,34,69,30,036,23*6B

$GLGSV,2,2,08,85,59,057,31,71,10,156,26,77,22,330,,84,09,084,*64

$GAGSV,1,1,0,*74

$PQGSV,1,1,0,*73

$PQGSV,1,1,0,*73

$GNGSA,A,3,07,08,10,15,16,18,20,21,26,27,30,,0.9,0.6,0.7,1*3E

$GNGSA,A,3,69,70,71,75,85,,,,,,,,0.9,0.6,0.7,2*3B

$GNVTG,,T,,M,0.0,N,0.0,K,A*3D

$GNRMC,135619.00,A,5133.565423,N,00957.699521,E,0.0,,260619,0.0,E,A*0A

$GNGGA,135619.00,5133.565423,N,00957.699521,E,1,12,0.6,234.0,M,47.0,M,,*74

$GPGSV,4,1,13,07,12,299,29,08,37,295,25,10,53,142,31,11,00,000,23*75

$GPGSV,4,2,13,15,13,046,24,16,46,196,36,18,11,248,32,20,56,091,31*7C

$GPGSV,4,3,13,21,36,068,29,26,21,180,29,27,76,295,34,30,07,329,29*70

$GPGSV,4,4,13,13,04,015,*49

$GLGSV,3,1,09,70,40,112,28,86,47,295,26,76,37,268,29,75,14,217,33*63

$GLGSV,3,2,09,69,30,036,24,85,59,057,34,71,10,156,29,77,22,330,*68

$GLGSV,3,3,09,84,09,084,*55

$GAGSV,1,1,0,*74

$PQGSV,1,1,0,*73

$PQGSV,1,1,0,*73

$GNGSA,A,3,07,08,10,15,16,18,20,21,26,27,30,,0.9,0.6,0.7,1*3E

$GNGSA,A,3,69,70,71,75,85,86,,,,,,,0.9,0.6,0.7,2*35

$GNVTG,,T,,M,0.0,N,0.0,K,A*3D

$GNRMC,135620.00,A,5133.565423,N,00957.699519,E,0.0,,260619,0.0,E,A*0B

$GNGGA,135620.00,5133.565423,N,00957.699519,E,1,12,0.6,234.0,M,47.0,M,,*75

$GPGSV,4,1,13,07,12,299,29,08,37,295,24,10,53,142,35,11,00,000,24*77

$GPGSV,4,2,13,15,13,046,28,16,46,196,38,18,11,248,32,20,56,091,37*78

$GPGSV,4,3,13,21,36,068,28,26,21,180,30,27,76,295,37,30,07,329,30*72

$GPGSV,4,4,13,13,04,015,*49

$GLGSV,2,1,08,70,40,112,26,86,47,295,27,76,37,268,30,75,14,217,30*67

$GLGSV,2,2,08,85,59,057,30,71,10,156,28,77,22,330,,84,09,084,*6B

$GAGSV,1,1,0,*74

$PQGSV,1,1,0,*73

$PQGSV,1,1,0,*73

$GNGSA,A,3,07,08,10,15,16,18,20,21,26,27,30,,0.9,0.6,0.7,1*3E

$GNGSA,A,3,70,71,75,85,86,,,,,,,,0.9,0.6,0.7,2*3A

$GNVTG,,T,,M,0.0,N,0.0,K,A*3D

$GNRMC,135621.00,A,5133.565422,N,00957.699518,E,0.0,,260619,0.0,E,A*0A

$GNGGA,135621.00,5133.565422,N,00957.699518,E,1,12,0.6,234.0,M,47.0,M,,*74

$GPGSV,3,1,11,07,12,299,25,10,53,142,26,15,13,046,30,16,46,196,38*79

$GPGSV,3,2,11,18,11,248,33,20,56,091,32,21,36,068,25,26,21,180,31*74

$GPGSV,3,3,11,27,76,295,29,30,07,329,28,13,04,015,*4C

$GLGSV,2,1,07,70,40,112,26,76,37,268,26,75,14,217,34,85,59,057,28*64

$GLGSV,2,2,07,71,10,156,26,77,22,330,,84,09,084,*5A

$GAGSV,1,1,0,*74

$PQGSV,1,1,0,*73

$PQGSV,1,1,0,*73

$GNGSA,A,3,07,10,15,16,18,20,21,26,27,30,,,0.9,0.6,0.7,1*36

$GNGSA,A,3,70,71,75,85,,,,,,,,,0.9,0.6,0.7,2*34

$GNVTG,,T,,M,0.0,N,0.0,K,A*3D

$GNRMC,135622.00,A,5133.565421,N,00957.699519,E,0.0,,260619,0.0,E,A*0B

$GNGGA,135622.00,5133.565421,N,00957.699519,E,1,12,0.6,234.0,M,47.0,M,,*75

$GPGSV,4,1,13,07,12,299,28,08,37,295,25,10,53,142,28,15,13,046,31*7B

$GPGSV,4,2,13,16,46,196,38,18,11,248,33,20,56,091,35,21,36,068,29*76

$GPGSV,4,3,13,26,21,180,34,27,76,295,35,30,07,329,30,11,00,000,*76

$GPGSV,4,4,13,13,04,015,*49

$GLGSV,2,1,08,70,40,112,23,86,47,295,25,76,37,268,26,75,14,217,33*64

$GLGSV,2,2,08,85,59,057,32,71,10,156,27,77,22,330,,84,09,084,*66

$GAGSV,1,1,0,*74

$PQGSV,1,1,0,*73

$PQGSV,1,1,0,*73

$GNGSA,A,3,07,08,10,15,16,18,20,21,26,27,30,,0.9,0.6,0.7,1*3E

$GNGSA,A,3,70,71,75,85,86,,,,,,,,0.9,0.6,0.7,2*3A

$GNVTG,,T,,M,0.0,N,0.0,K,A*3D

$GNRMC,135623.00,A,5133.565421,N,00957.699518,E,0.0,,260619,0.0,E,A*0B

$GNGGA,135623.00,5133.565421,N,00957.699518,E,1,12,0.6,234.0,M,47.0,M,,*75

$GPGSV,4,1,13,07,12,299,30,08,37,295,23,10,53,142,34,15,13,046,31*79

$GPGSV,4,2,13,16,46,196,39,18,11,248,32,20,56,091,33,21,36,068,32*7A

$GPGSV,4,3,13,26,21,180,35,27,76,295,33,30,07,329,28,11,00,000,*78

$GPGSV,4,4,13,13,04,015,*49

$GLGSV,3,1,09,70,40,112,28,86,47,295,26,76,37,268,32,75,14,217,34*6E

$GLGSV,3,2,09,69,30,036,29,85,59,057,36,71,10,156,27,77,22,330,*69

$GLGSV,3,3,09,84,09,084,*55

$GAGSV,1,1,0,*74

$PQGSV,1,1,0,*73

$PQGSV,1,1,0,*73

$GNGSA,A,3,07,08,10,15,16,18,20,21,26,27,30,,0.9,0.6,0.7,1*3E

$GNGSA,A,3,69,70,71,75,85,86,,,,,,,0.9,0.6,0.7,2*35

$GNVTG,,T,,M,0.0,N,0.0,K,A*3D

$GNRMC,135624.00,A,5133.565420,N,00957.699517,E,0.0,,260619,0.0,E,A*02

$GNGGA,135624.00,5133.565420,N,00957.699517,E,1,12,0.6,234.0,M,47.0,M,,*7C

$GPGSV,3,1,12,07,12,299,30,10,53,142,41,15,13,046,29,16,46,196,39*76

$GPGSV,3,2,12,18,11,248,31,20,56,091,33,21,36,068,33,26,21,180,36*74

$GPGSV,3,3,12,27,76,295,33,30,07,329,27,11,00,000,,13,04,015,*7B

$GLGSV,3,1,09,70,40,112,27,86,47,295,27,76,37,268,32,75,14,217,34*60

$GLGSV,3,2,09,69,30,036,32,85,59,057,33,71,10,156,23,77,22,330,*62

$GLGSV,3,3,09,84,09,084,*55

$GAGSV,1,1,0,*74

$PQGSV,1,1,0,*73

$PQGSV,1,1,0,*73

$GNGSA,A,3,07,10,15,16,18,20,21,26,27,30,,,0.9,0.6,0.7,1*36

$GNGSA,A,3,69,70,71,75,85,86,,,,,,,0.9,0.6,0.7,2*35

$GNVTG,,T,,M,0.0,N,0.0,K,A*3D

$GNRMC,135625.00,A,5133.565420,N,00957.699517,E,0.0,,260619,0.0,E,A*03

$GNGGA,135625.00,5133.565420,N,00957.699517,E,1,12,0.6,234.0,M,47.0,M,,*7D

$GPGSV,4,1,13,07,12,299,29,10,53,142,41,15,13,046,31,16,46,196,39*71

$GPGSV,4,2,13,18,11,248,30,20,56,091,34,21,36,068,33,26,21,180,36*74

$GPGSV,4,3,13,27,76,295,35,30,07,329,28,08,37,295,,11,00,000,*74

$GPGSV,4,4,13,13,04,015,*49

$GLGSV,2,1,07,86,47,295,28,76,37,268,33,75,14,217,33,69,30,036,29*60

$GLGSV,2,2,07,85,59,057,33,77,22,330,,84,09,084,*58

$GAGSV,1,1,0,*74

$PQGSV,1,1,0,*73

$PQGSV,1,1,0,*73

$GNGSA,A,3,07,08,10,15,16,18,20,21,26,27,30,,0.9,0.6,0.7,1*3E

$GNGSA,A,3,69,75,85,86,,,,,,,,,0.9,0.6,0.7,2*34

$GNVTG,,T,,M,0.0,N,0.0,K,A*3D

$GNRMC,135626.00,A,5133.565420,N,00957.699517,E,0.0,,260619,0.0,E,A*00

$GNGGA,135626.00,5133.565420,N,00957.699517,E,1,12,0.6,234.0,M,47.0,M,,*7E

$GPGSV,4,1,13,07,12,299,29,10,53,142,40,15,13,046,31,16,46,196,40*7E

$GPGSV,4,2,13,18,11,248,34,20,56,091,34,21,36,068,35,26,21,180,35*75

$GPGSV,4,3,13,27,76,295,35,30,07,329,28,08,37,295,,11,00,000,*74

$GPGSV,4,4,13,13,04,015,*49

$GLGSV,3,1,09,70,40,112,27,86,47,295,30,76,37,268,32,75,14,217,34*66

$GLGSV,3,2,09,69,30,036,30,85,59,057,34,71,10,156,24,77,22,330,*60

$GLGSV,3,3,09,84,09,084,*55

$GAGSV,1,1,0,*74

$PQGSV,1,1,0,*73

$PQGSV,1,1,0,*73

$GNGSA,A,3,07,08,10,15,16,18,20,21,26,27,30,,0.9,0.6,0.7,1*3E

$GNGSA,A,3,69,70,71,75,85,86,,,,,,,0.9,0.6,0.7,2*35

$GNVTG,,T,,M,0.0,N,0.0,K,A*3D

$GNRMC,135627.00,A,5133.565419,N,00957.699517,E,0.0,,260619,0.0,E,A*0B

$GNGGA,135627.00,5133.565419,N,00957.699517,E,1,12,0.6,234.0,M,47.0,M,,*75

$GPGSV,4,1,13,07,12,299,30,10,53,142,39,15,13,046,28,16,46,196,40*70

$GPGSV,4,2,13,18,11,248,32,20,56,091,33,21,36,068,33,26,21,180,36*71

$GPGSV,4,3,13,27,76,295,36,30,07,329,26,08,37,295,,11,00,000,*79

$GPGSV,4,4,13,13,04,015,*49

$GLGSV,3,1,09,70,40,112,24,86,47,295,27,76,37,268,31,75,14,217,33*67

$GLGSV,3,2,09,69,30,036,30,85,59,057,35,71,10,156,28,77,22,330,*6D

$GLGSV,3,3,09,84,09,084,*55

$GAGSV,1,1,0,*74

$PQGSV,1,1,0,*73

$PQGSV,1,1,0,*73

$GNGSA,A,3,07,08,10,15,16,18,20,21,26,27,30,,0.9,0.6,0.7,1*3E

$GNGSA,A,3,69,70,71,75,85,86,,,,,,,0.9,0.6,0.7,2*35

$GNVTG,,T,,M,0.0,N,0.0,K,A*3D

$GNRMC,135628.00,A,5133.565420,N,00957.699517,E,0.0,,260619,0.0,E,A*0E

$GNGGA,135628.00,5133.565420,N,00957.699517,E,1,12,0.6,234.0,M,47.0,M,,*70

$GPGSV,3,1,12,07,12,299,27,10,53,142,41,11,00,000,27,15,13,046,28*75

$GPGSV,3,2,12,16,46,196,40,18,11,248,33,20,56,091,35,21,36,068,32*75

$GPGSV,3,3,12,26,21,180,37,27,76,295,36,30,07,329,30,13,04,015,*72

$GLGSV,2,1,08,70,40,112,29,86,47,295,32,76,37,268,31,75,14,217,36*6B

$GLGSV,2,2,08,69,30,036,32,85,59,057,36,77,22,330,,84,09,084,*6A

$GAGSV,1,1,0,*74

$PQGSV,1,1,0,*73

$PQGSV,1,1,0,*73

$GNGSA,A,3,07,10,15,16,18,20,21,26,27,30,,,0.9,0.6,0.7,1*36

$GNGSA,A,3,69,70,75,85,86,,,,,,,,0.9,0.6,0.7,2*33

$GNVTG,,T,,M,0.0,N,0.0,K,A*3D

$GNRMC,135629.00,A,5133.565421,N,00957.699516,E,0.0,,260619,0.0,E,A*0F

$GNGGA,135629.00,5133.565421,N,00957.699516,E,1,12,0.6,234.0,M,47.0,M,,*71

$GPGSV,3,1,12,07,12,299,28,10,53,142,39,15,13,046,29,16,46,196,42*7C

$GPGSV,3,2,12,18,11,248,30,20,56,091,36,21,36,068,36,26,21,180,36*75

$GPGSV,3,3,12,27,76,295,35,30,07,329,27,08,37,295,,13,04,015,*7F

$GLGSV,2,1,08,86,47,295,30,76,37,268,28,75,14,217,36,69,30,036,29*69

$GLGSV,2,2,08,85,59,057,36,77,22,330,,84,09,084,,71,10,156,*67

$GAGSV,1,1,0,*74

$PQGSV,1,1,0,*73

$PQGSV,1,1,0,*73

$GNGSA,A,3,07,08,10,15,16,18,20,21,26,27,30,,0.9,0.6,0.7,1*3E

$GNGSA,A,3,69,71,75,85,86,,,,,,,,0.9,0.6,0.7,2*32

$GNVTG,,T,,M,0.0,N,0.0,K,A*3D

$GNRMC,135630.00,A,5133.565421,N,00957.699515,E,0.0,,260619,0.0,E,A*04

$GNGGA,135630.00,5133.565421,N,00957.699515,E,1,12,0.6,234.0,M,47.0,M,,*7A

$GPGSV,4,1,13,07,12,299,27,10,53,142,37,15,13,046,32,16,46,196,41*72

$GPGSV,4,2,13,18,11,248,31,20,56,091,34,21,36,068,33,26,21,180,33*70

$GPGSV,4,3,13,27,76,295,35,30,07,329,26,08,37,295,,11,00,000,*7A

$GPGSV,4,4,13,13,04,015,*49

$GLGSV,3,1,09,70,40,112,26,86,47,295,28,76,37,268,29,75,14,217,35*65

$GLGSV,3,2,09,69,30,036,25,85,59,057,33,71,10,156,23,77,22,330,*64

$GLGSV,3,3,09,84,09,084,*55

$GAGSV,1,1,0,*74

$PQGSV,1,1,0,*73

$PQGSV,1,1,0,*73

$GNGSA,A,3,07,10,15,16,18,20,21,26,27,30,,,0.9,0.6,0.7,1*36

$GNGSA,A,3,69,70,71,75,85,86,,,,,,,0.9,0.6,0.7,2*35

$GNVTG,,T,,M,0.0,N,0.0,K,A*3D

$GNRMC,135631.00,A,5133.565421,N,00957.699515,E,0.0,,260619,0.0,E,A*05

$GNGGA,135631.00,5133.565421,N,00957.699515,E,1,12,0.6,234.0,M,47.0,M,,*7B

$GPGSV,4,1,13,07,12,299,28,10,53,142,38,15,13,046,29,16,46,196,41*78

$GPGSV,4,2,13,18,11,248,29,20,56,091,34,21,36,068,31,26,21,180,35*7D

$GPGSV,4,3,13,27,76,295,35,30,07,329,26,08,37,295,,11,00,000,*7A

$GPGSV,4,4,13,13,04,015,*49

$GLGSV,2,1,08,70,40,112,28,86,47,295,31,76,37,268,28,75,14,217,35*62

$GLGSV,2,2,08,69,30,036,26,85,59,057,29,77,22,330,,84,09,084,*61

$GAGSV,1,1,0,*74

$PQGSV,1,1,0,*73

$PQGSV,1,1,0,*73

$GNGSA,A,3,07,10,15,16,18,20,21,26,27,30,,,0.9,0.6,0.7,1*36

$GNGSA,A,3,69,70,75,85,86,,,,,,,,0.9,0.6,0.7,2*33

$GNVTG,,T,,M,0.0,N,0.0,K,A*3D

$GNRMC,135632.00,A,5133.565421,N,00957.699515,E,0.0,,260619,0.0,E,A*06

$GNGGA,135632.00,5133.565421,N,00957.699515,E,1,12,0.6,234.0,M,47.0,M,,*78

$GPGSV,4,1,13,07,12,299,27,10,53,142,39,15,13,046,28,16,46,196,40*76

$GPGSV,4,2,13,18,11,248,30,20,56,091,35,21,36,068,33,26,21,180,35*76

$GPGSV,4,3,13,27,76,295,35,30,07,329,29,08,37,295,,11,00,000,*75

$GPGSV,4,4,13,13,04,015,*49

$GLGSV,3,1,09,70,41,111,28,86,47,296,29,76,37,267,29,75,14,217,37*66

$GLGSV,3,2,09,69,29,036,27,85,59,057,32,77,22,330,,84,08,085,*62

$GLGSV,3,3,09,71,11,156,*58

$GAGSV,1,1,0,*74

$PQGSV,1,1,0,*73

$PQGSV,1,1,0,*73

$GNGSA,A,3,07,10,15,16,18,20,21,26,27,30,,,0.9,0.6,0.7,1*36

$GNGSA,A,3,69,70,71,75,85,86,,,,,,,0.9,0.6,0.7,2*35

$GNVTG,,T,,M,0.0,N,0.0,K,A*3D

$GNRMC,135633.00,A,5133.565421,N,00957.699514,E,0.0,,260619,0.0,E,A*06

$GNGGA,135633.00,5133.565421,N,00957.699514,E,1,12,0.6,234.0,M,47.0,M,,*78

$GPGSV,4,1,13,07,12,299,27,10,53,142,39,15,13,046,27,16,46,196,40*79

$GPGSV,4,2,13,18,11,248,31,20,56,091,34,21,36,068,33,26,21,180,35*76

$GPGSV,4,3,13,27,76,295,35,30,07,329,30,08,37,295,,11,00,000,*7D

$GPGSV,4,4,13,13,04,015,*49

$GLGSV,3,1,09,70,41,111,27,86,47,296,31,76,37,267,30,75,14,217,36*69

$GLGSV,3,2,09,69,29,036,26,85,59,057,32,77,22,330,,84,08,085,*63

$GLGSV,3,3,09,71,11,156,*58

$GAGSV,1,1,0,*74

$PQGSV,1,1,0,*73

$PQGSV,1,1,0,*73

$GNGSA,A,3,07,10,15,16,18,20,21,26,27,30,,,0.9,0.6,0.7,1*36

$GNGSA,A,3,69,70,71,75,85,86,,,,,,,0.9,0.6,0.7,2*35

$GNVTG,,T,,M,0.0,N,0.0,K,A*3D

$GNRMC,135634.00,A,5133.565421,N,00957.699513,E,0.0,,260619,0.0,E,A*06

$GNGGA,135634.00,5133.565421,N,00957.699513,E,1,12,0.6,234.0,M,47.0,M,,*78

$GPGSV,4,1,13,07,12,299,28,10,53,142,40,15,13,046,29,16,46,196,41*77

$GPGSV,4,2,13,18,11,248,31,20,56,091,34,21,36,068,33,26,21,180,36*75

$GPGSV,4,3,13,27,76,295,35,30,07,329,30,08,37,295,,11,00,000,*7D

$GPGSV,4,4,13,13,04,015,*49

$GLGSV,3,1,09,70,41,111,27,86,47,296,28,76,37,267,28,75,14,217,35*6B

$GLGSV,3,2,09,69,29,036,24,85,59,057,33,77,22,330,,84,08,085,*60

$GLGSV,3,3,09,71,11,156,*58

$GAGSV,1,1,0,*74

$PQGSV,1,1,0,*73

$PQGSV,1,1,0,*73

$GNGSA,A,3,07,10,15,16,18,20,21,26,27,30,,,0.9,0.6,0.7,1*36

$GNGSA,A,3,69,70,71,75,85,86,,,,,,,0.9,0.6,0.7,2*35

$GNVTG,,T,,M,0.0,N,0.0,K,A*3D

$GNRMC,135635.00,A,5133.565421,N,00957.699513,E,0.0,,260619,0.0,E,A*07

$GNGGA,135635.00,5133.565421,N,00957.699513,E,1,12,0.6,234.0,M,47.0,M,,*79

$GPGSV,4,1,13,07,12,299,29,10,53,142,40,15,13,046,26,16,46,196,39*76

$GPGSV,4,2,13,18,11,248,32,20,56,091,36,21,36,068,35,26,21,180,36*72

$GPGSV,4,3,13,27,76,295,36,30,07,329,30,08,37,295,,11,00,000,*7E

$GPGSV,4,4,13,13,04,015,*49

$GLGSV,3,1,09,70,41,111,29,86,47,296,29,76,37,267,31,75,14,217,35*6C

$GLGSV,3,2,09,69,29,036,30,85,59,057,34,77,22,330,,84,08,085,*62

$GLGSV,3,3,09,71,11,156,*58

$GAGSV,1,1,0,*74

$PQGSV,1,1,0,*73

$PQGSV,1,1,0,*73

$GNGSA,A,3,07,10,15,16,18,20,21,26,27,30,,,0.9,0.6,0.7,1*36

$GNGSA,A,3,69,70,71,75,85,86,,,,,,,0.9,0.6,0.7,2*35

$GNVTG,,T,,M,0.0,N,0.0,K,A*3D

$GNRMC,135636.00,A,5133.565421,N,00957.699512,E,0.0,,260619,0.0,E,A*05

$GNGGA,135636.00,5133.565421,N,00957.699512,E,1,12,0.6,234.0,M,47.0,M,,*7B

$GPGSV,4,1,13,07,12,299,30,10,53,142,40,15,13,046,25,16,46,196,40*73

$GPGSV,4,2,13,18,11,248,32,20,56,091,36,21,36,068,34,26,21,180,35*70

$GPGSV,4,3,13,27,76,295,35,30,07,329,30,08,37,295,,11,00,000,*7D

$GPGSV,4,4,13,13,04,015,*49

$GLGSV,3,1,09,70,41,111,29,86,47,296,30,76,37,267,30,75,14,217,34*64

$GLGSV,3,2,09,69,29,036,26,85,59,057,33,77,22,330,,84,08,085,*62

$GLGSV,3,3,09,71,11,156,*58

$GAGSV,1,1,0,*74

$PQGSV,1,1,0,*73

$PQGSV,1,1,0,*73

$GNGSA,A,3,07,10,15,16,18,20,21,26,27,30,,,1.0,0.7,0.7,1*3F

$GNGSA,A,3,69,70,71,75,85,86,,,,,,,1.0,0.7,0.7,2*3C

$GNVTG,,T,,M,0.0,N,0.0,K,A*3D

$GNRMC,135637.00,A,5133.565421,N,00957.699512,E,0.0,,260619,0.0,E,A*04

$GNGGA,135637.00,5133.565421,N,00957.699512,E,1,12,0.7,234.0,M,47.0,M,,*7B

$GPGSV,4,1,13,07,12,299,30,10,53,142,40,15,13,046,28,16,46,196,38*71

$GPGSV,4,2,13,18,11,248,32,20,56,091,37,21,36,068,33,26,21,180,37*74

$GPGSV,4,3,13,27,76,295,34,30,07,329,28,08,37,295,,11,00,000,*75

$GPGSV,4,4,13,13,04,015,*49

$GLGSV,3,1,09,70,41,111,23,86,47,296,29,76,37,267,30,75,14,217,36*64

$GLGSV,3,2,09,69,29,036,29,85,59,057,30,71,11,156,26,77,22,330,*67

$GLGSV,3,3,09,84,08,085,*55

$GAGSV,1,1,0,*74

$PQGSV,1,1,0,*73

$PQGSV,1,1,0,*73

$GNGSA,A,3,07,10,15,16,18,20,21,26,27,30,,,0.9,0.6,0.7,1*36

$GNGSA,A,3,69,70,75,85,86,,,,,,,,0.9,0.6,0.7,2*33

$GNVTG,,T,,M,0.0,N,0.0,K,A*3D

$GNRMC,135638.00,A,5133.565422,N,00957.699511,E,0.0,,260619,0.0,E,A*0B

$GNGGA,135638.00,5133.565422,N,00957.699511,E,1,12,0.6,234.0,M,47.0,M,,*75

$GPGSV,3,1,12,07,12,299,28,10,53,142,40,15,13,046,28,16,46,196,37*71

$GPGSV,3,2,12,18,11,248,30,20,56,091,33,21,36,068,33,26,21,180,36*75

$GPGSV,3,3,12,27,76,295,38,30,07,329,31,08,37,295,,13,04,015,*75

$GLGSV,3,1,09,70,41,111,24,86,47,296,29,76,37,267,32,75,14,217,36*61

$GLGSV,3,2,09,69,29,036,32,85,59,057,30,71,11,156,31,77,22,330,*6B

$GLGSV,3,3,09,84,08,085,*55

$GAGSV,1,1,0,*74

$PQGSV,1,1,0,*73

$PQGSV,1,1,0,*73

$GNGSA,A,3,07,10,15,16,18,20,21,26,27,30,,,0.9,0.6,0.7,1*36

$GNGSA,A,3,69,70,71,75,85,86,,,,,,,0.9,0.6,0.7,2*35

$GNVTG,,T,,M,0.0,N,0.0,K,A*3D

$GNRMC,135639.00,A,5133.565421,N,00957.699510,E,0.0,,260619,0.0,E,A*08

$GNGGA,135639.00,5133.565421,N,00957.699510,E,1,12,0.6,234.0,M,47.0,M,,*76

$GPGSV,3,1,12,07,12,299,30,10,53,142,41,15,13,046,26,16,46,196,36*76

$GPGSV,3,2,12,18,11,248,29,20,56,091,35,21,36,068,31,26,21,180,36*79

$GPGSV,3,3,12,27,76,295,36,30,07,329,29,08,37,295,,13,04,015,*72

$GLGSV,3,1,09,70,41,111,26,86,47,296,30,76,37,267,32,75,14,217,35*68

$GLGSV,3,2,09,69,29,036,32,85,59,057,28,71,11,156,30,77,22,330,*63

$GLGSV,3,3,09,84,08,085,*55

$GAGSV,1,1,0,*74

$PQGSV,1,1,0,*73

$PQGSV,1,1,0,*73

$GNGSA,A,3,07,10,15,16,18,20,21,26,27,30,,,0.9,0.6,0.7,1*36

$GNGSA,A,3,69,70,71,75,85,86,,,,,,,0.9,0.6,0.7,2*35

$GNVTG,,T,,M,0.0,N,0.0,K,A*3D

$GNRMC,135640.00,A,5133.565421,N,00957.699510,E,0.0,,260619,0.0,E,A*06

$GNGGA,135640.00,5133.565421,N,00957.699510,E,1,12,0.6,234.0,M,47.0,M,,*78

$GPGSV,4,1,13,07,12,299,29,10,53,142,39,11,00,000,25,15,13,046,30*79

$GPGSV,4,2,13,16,46,196,38,18,11,248,29,20,56,091,36,21,36,068,34*72

$GPGSV,4,3,13,26,21,180,37,27,76,295,35,30,07,329,30,08,37,295,*77

$GPGSV,4,4,13,13,04,015,*49

$GLGSV,3,1,09,70,41,111,27,86,47,296,29,76,37,267,33,75,14,217,35*60

$GLGSV,3,2,09,69,29,036,29,85,59,057,31,71,11,156,31,77,22,330,*60

$GLGSV,3,3,09,84,08,085,*55

$GAGSV,1,1,0,*74

$PQGSV,1,1,0,*73

$PQGSV,1,1,0,*73

$GNGSA,A,3,07,10,15,16,18,20,21,26,27,30,,,0.9,0.6,0.7,1*36

$GNGSA,A,3,69,70,71,75,85,86,,,,,,,0.9,0.6,0.7,2*35

$GNVTG,,T,,M,0.0,N,0.0,K,A*3D

$GNRMC,135641.00,A,5133.565420,N,00957.699509,E,0.0,,260619,0.0,E,A*0E

$GNGGA,135641.00,5133.565420,N,00957.699509,E,1,12,0.6,234.0,M,47.0,M,,*70

$GPGSV,4,1,13,07,12,299,28,10,53,142,37,11,00,000,26,15,13,046,31*74

$GPGSV,4,2,13,16,46,196,40,18,11,248,30,20,56,091,37,21,36,068,33*73

$GPGSV,4,3,13,26,21,180,37,27,76,295,34,30,07,329,30,08,37,295,*76

$GPGSV,4,4,13,13,04,015,*49

$GLGSV,3,1,09,70,41,111,28,86,47,296,27,76,37,267,33,75,14,217,33*67

$GLGSV,3,2,09,69,29,036,25,85,59,057,32,71,11,156,28,77,22,330,*67

$GLGSV,3,3,09,84,08,085,*55

$GAGSV,1,1,0,*74

$PQGSV,1,1,0,*73

$PQGSV,1,1,0,*73

$GNGSA,A,3,07,10,15,16,18,20,21,26,27,30,,,0.9,0.6,0.7,1*36

$GNGSA,A,3,69,70,71,75,85,86,,,,,,,0.9,0.6,0.7,2*35

$GNVTG,,T,,M,0.0,N,0.0,K,A*3D

$GNRMC,135642.00,A,5133.565418,N,00957.699508,E,0.0,,260619,0.0,E,A*07

$GNGGA,135642.00,5133.565418,N,00957.699508,E,1,12,0.6,234.0,M,47.0,M,,*79

$GPGSV,4,1,13,07,12,299,28,10,53,142,36,11,00,000,25,15,13,046,31*76

$GPGSV,4,2,13,16,46,196,39,18,11,248,30,20,56,091,37,21,36,068,33*7D

$GPGSV,4,3,13,26,21,180,37,27,76,295,35,30,07,329,30,08,37,295,*77

$GPGSV,4,4,13,13,04,015,*49

$GLGSV,3,1,09,70,41,111,26,86,47,296,29,76,37,267,33,75,14,217,34*60

$GLGSV,3,2,09,69,29,036,24,85,59,057,32,71,11,156,31,77,22,330,*6E

$GLGSV,3,3,09,84,08,085,*55

$GAGSV,1,1,0,*74

$PQGSV,1,1,0,*73

$PQGSV,1,1,0,*73

$GNGSA,A,3,07,10,15,16,18,20,21,26,27,30,,,0.9,0.6,0.7,1*36

$GNGSA,A,3,69,70,71,75,85,86,,,,,,,0.9,0.6,0.7,2*35

$GNVTG,,T,,M,0.0,N,0.0,K,A*3D

$GNRMC,135643.00,A,5133.565416,N,00957.699506,E,0.0,,260619,0.0,E,A*06

$GNGGA,135643.00,5133.565416,N,00957.699506,E,1,12,0.6,234.0,M,47.0,M,,*78

$GPGSV,4,1,13,07,12,299,27,10,53,142,36,11,00,000,24,15,13,046,30*79

$GPGSV,4,2,13,16,46,196,40,18,11,248,31,20,56,091,35,21,36,068,31*72

$GPGSV,4,3,13,26,21,180,36,27,76,295,35,30,07,329,29,08,37,295,*7E

$GPGSV,4,4,13,13,04,015,*49

$GLGSV,2,1,08,70,41,111,27,86,47,296,28,76,37,267,34,75,14,217,34*67

$GLGSV,2,2,08,85,59,057,32,71,11,156,28,77,22,330,,84,08,085,*68

$GAGSV,1,1,0,*74

$PQGSV,1,1,0,*73

$PQGSV,1,1,0,*73

$GNGSA,A,3,07,10,15,16,18,20,21,26,27,30,,,0.9,0.6,0.7,1*36

$GNGSA,A,3,70,71,75,85,86,,,,,,,,0.9,0.6,0.7,2*3A

$GNVTG,,T,,M,0.0,N,0.0,K,A*3D

$GNRMC,135644.00,A,5133.565414,N,00957.699505,E,0.0,,260619,0.0,E,A*00

$GNGGA,135644.00,5133.565414,N,00957.699505,E,1,12,0.6,234.0,M,47.0,M,,*7E

$GPGSV,4,1,13,07,12,299,28,10,53,142,35,11,00,000,24,15,13,046,31*74

$GPGSV,4,2,13,16,46,196,41,18,11,248,31,20,56,091,35,21,36,068,31*73

$GPGSV,4,3,13,26,21,180,37,27,76,295,34,30,07,329,29,08,37,295,*7E

$GPGSV,4,4,13,13,04,015,*49

$GLGSV,3,1,09,70,41,111,27,86,47,296,28,76,37,267,34,75,14,217,34*67

$GLGSV,3,2,09,69,29,036,26,85,59,057,33,71,11,156,29,77,22,330,*64

$GLGSV,3,3,09,84,08,085,*55

$GAGSV,1,1,0,*74

$PQGSV,1,1,0,*73

$PQGSV,1,1,0,*73

$GNGSA,A,3,07,10,15,16,18,20,21,26,27,30,,,0.9,0.6,0.7,1*36

