$GPGSV,4,1,13,07,11,298,24,08,39,295,30,10,56,137,35,11,01,268,19*77

$GPGSV,4,2,13,15,12,043,24,16,43,195,36,18,13,250,21,20,55,085,39*79

$GPGSV,4,3,13,26,18,180,27,27,80,292,36,30,08,326,19,13,04,014,*7B

$GPGSV,4,4,13,21,33,070,*4F

$GLGSV,3,1,09,70,42,108,36,86,49,298,30,77,23,327,22,76,35,264,34*67

$GLGSV,3,2,09,75,12,216,23,69,28,033,32,85,56,061,34,84,06,087,*67

$GLGSV,3,3,09,71,13,156,*5A

$GAGSV,2,1,08,02,09,192,,04,10,026,,05,18,132,,09,29,077,*6D

$GAGSV,2,2,08,15,26,267,,27,31,303,,30,38,239,,36,42,077,*67

$PQGSV,1,1,0,*73

$PQGSV,3,1,11,02,02,101,,05,16,122,,06,21,057,,09,20,085,,0,4*6B

$PQGSV,3,2,11,11,23,098,,13,04,071,,14,41,075,,16,23,063,,0,4*6B

$PQGSV,3,3,11,21,11,032,,27,19,282,,28,73,293,,0,4*5A

$GNGSA,A,3,08,10,15,16,18,20,26,27,30,,,,1.0,0.7,0.7,1*33

$GNGSA,A,3,70,75,77,85,86,,,,,,,,1.0,0.7,0.7,2*35

$GNVTG,,T,,M,0.0,N,0.0,K,A*3D

$GNRMC,140227.00,A,5133.590527,N,00957.729182,E,0.0,,260619,0.0,E,A*09

$GNGGA,140227.00,5133.590527,N,00957.729182,E,1,12,0.7,241.0,M,47.0,M,,*74

$GPGSV,4,1,13,07,11,298,24,08,39,295,30,10,56,137,35,11,01,268,19*77

$GPGSV,4,2,13,15,12,043,24,16,43,195,36,18,13,250,21,20,55,085,39*79

$GPGSV,4,3,13,26,18,180,27,27,80,292,36,30,08,326,19,13,04,014,*7B

$GPGSV,4,4,13,21,33,070,*4F

$GLGSV,3,1,09,70,42,108,36,86,49,298,30,77,23,327,22,76,35,264,34*67

$GLGSV,3,2,09,75,12,216,23,69,28,033,32,85,56,061,34,84,06,087,*67

$GLGSV,3,3,09,71,13,156,*5A

$GAGSV,2,1,08,02,09,192,,04,10,026,,05,18,132,,09,29,077,*6D

$GAGSV,2,2,08,15,26,267,,27,31,303,,30,38,239,,36,42,077,*67

$PQGSV,1,1,0,*73

$PQGSV,3,1,11,02,02,101,,05,16,122,,06,21,057,,09,20,085,,0,4*6B

$PQGSV,3,2,11,11,23,098,,13,04,071,,14,41,075,,16,23,063,,0,4*6B

$PQGSV,3,3,11,21,11,032,,27,19,282,,28,73,293,,0,4*5A

$GNGSA,A,3,08,10,15,16,18,20,26,27,30,,,,1.0,0.7,0.7,1*33

$GNGSA,A,3,70,75,77,85,86,,,,,,,,1.0,0.7,0.7,2*35

$GNVTG,,T,,M,0.0,N,0.0,K,A*3D

$GNRMC,140227.00,A,5133.590527,N,00957.729182,E,0.0,,260619,0.0,E,A*09

$GNGGA,140227.00,5133.590527,N,00957.729182,E,1,12,0.7,241.0,M,47.0,M,,*74

$GPGSV,4,1,13,07,11,298,26,08,39,295,25,10,56,137,37,11,01,268,19*73

$GPGSV,4,2,13,15,12,043,29,16,43,195,32,18,13,250,21,20,55,085,34*7D

$GPGSV,4,3,13,26,18,180,31,27,80,292,37,30,08,326,19,13,04,014,*7D

$GPGSV,4,4,13,21,33,070,*4F

$GLGSV,2,1,08,70,42,108,36,86,49,298,33,77,23,327,22,76,35,264,35*65

$GLGSV,2,2,08,75,12,216,25,85,56,061,31,84,06,087,,71,13,156,*66

$GAGSV,1,1,0,*74

$PQGSV,1,1,0,*73

$PQGSV,1,1,0,*73

$GNGSA,A,3,07,08,10,15,16,18,20,26,27,30,,,1.0,0.7,0.7,1*34

$GNGSA,A,3,70,75,77,85,86,,,,,,,,1.0,0.7,0.7,2*35

$GNVTG,,T,,M,0.0,N,0.0,K,A*3D

$GNRMC,140228.00,A,5133.590576,N,00957.729210,E,0.0,,260619,0.0,E,A*0A

$GNGGA,140228.00,5133.590576,N,00957.729210,E,1,12,0.7,241.0,M,47.0,M,,*77

$GPGSV,4,1,13,07,11,298,26,08,39,295,25,10,56,137,37,11,01,268,19*73

$GPGSV,4,2,13,15,12,043,29,16,43,195,32,18,13,250,21,20,55,085,34*7D

$GPGSV,4,3,13,26,18,180,31,27,80,292,37,30,08,326,19,13,04,014,*7D

$GPGSV,4,4,13,21,33,070,*4F

$GLGSV,2,1,08,70,42,108,36,86,49,298,33,77,23,327,22,76,35,264,35*65

$GLGSV,2,2,08,75,12,216,25,85,56,061,31,84,06,087,,71,13,156,*66

$GAGSV,1,1,0,*74

$PQGSV,1,1,0,*73

$PQGSV,1,1,0,*73

$GNGSA,A,3,07,08,10,15,16,18,20,26,27,30,,,1.0,0.7,0.7,1*34

$GNGSA,A,3,70,75,77,85,86,,,,,,,,1.0,0.7,0.7,2*35

$GNVTG,,T,,M,0.0,N,0.0,K,A*3D

$GNRMC,140228.00,A,5133.590576,N,00957.729210,E,0.0,,260619,0.0,E,A*0A

$GNGGA,140228.00,5133.590576,N,00957.729210,E,1,12,0.7,241.0,M,47.0,M,,*77

$GPGSV,3,1,12,08,39,295,30,10,56,137,39,15,12,043,28,16,43,195,34*7A

$GPGSV,3,2,12,20,55,085,35,21,33,070,23,26,18,180,32,27,80,292,39*7C

$GPGSV,3,3,12,11,01,268,,13,04,014,,18,13,250,,30,08,326,*74

$GLGSV,3,1,09,70,42,108,37,86,49,298,35,76,35,264,37,75,12,216,28*69

$GLGSV,3,2,09,69,28,033,30,85,56,061,32,77,23,327,,84,06,087,*61

$GLGSV,3,3,09,71,13,156,*5A

$GAGSV,1,1,0,*74

$PQGSV,1,1,0,*73

$PQGSV,1,1,0,*73

$GNGSA,A,3,08,10,15,16,18,20,26,27,30,,,,1.0,0.7,0.7,1*33

$GNGSA,A,3,70,75,77,85,86,,,,,,,,1.0,0.7,0.7,2*35

$GNVTG,,T,,M,0.0,N,0.0,K,A*3D

$GNRMC,140229.00,A,5133.590598,N,00957.729233,E,0.0,,260619,0.0,E,A*0A

$GNGGA,140229.00,5133.590598,N,00957.729233,E,1,12,0.7,241.0,M,47.0,M,,*77

$GPGSV,3,1,12,08,39,295,30,10,56,137,39,15,12,043,28,16,43,195,34*7A

$GPGSV,3,2,12,20,55,085,35,21,33,070,23,26,18,180,32,27,80,292,39*7C

$GPGSV,3,3,12,11,01,268,,13,04,014,,18,13,250,,30,08,326,*74

$GLGSV,3,1,09,70,42,108,37,86,49,298,35,76,35,264,37,75,12,216,28*69

$GLGSV,3,2,09,69,28,033,30,85,56,061,32,77,23,327,,84,06,087,*61

$GLGSV,3,3,09,71,13,156,*5A

$GAGSV,1,1,0,*74

$PQGSV,1,1,0,*73

$PQGSV,1,1,0,*73

$GNGSA,A,3,08,10,15,16,18,20,26,27,30,,,,1.0,0.7,0.7,1*33

$GNGSA,A,3,70,75,77,85,86,,,,,,,,1.0,0.7,0.7,2*35

$GNVTG,,T,,M,0.0,N,0.0,K,A*3D

$GNRMC,140229.00,A,5133.590598,N,00957.729233,E,0.0,,260619,0.0,E,A*0A

$GNGGA,140229.00,5133.590598,N,00957.729233,E,1,12,0.7,241.0,M,47.0,M,,*77

$GPGSV,3,1,12,08,39,295,30,10,56,137,38,11,01,268,24,15,12,043,26*74

$GPGSV,3,2,12,16,43,195,34,18,13,250,25,20,55,085,32,26,18,180,32*71

$GPGSV,3,3,12,27,80,292,38,07,11,298,,13,04,014,,30,08,326,*7E

$GLGSV,3,1,09,70,42,108,37,86,49,298,32,76,35,264,36,75,12,216,32*64

$GLGSV,3,2,09,69,28,033,28,85,56,061,31,77,23,327,,84,06,087,*6B

$GLGSV,3,3,09,71,13,156,*5A

$GAGSV,1,1,0,*74

$PQGSV,1,1,0,*73

$PQGSV,1,1,0,*73

$GNGSA,A,3,07,08,10,15,16,18,20,26,27,30,,,1.0,0.7,0.7,1*34

$GNGSA,A,3,70,75,77,85,86,,,,,,,,1.0,0.7,0.7,2*35

$GNVTG,,T,,M,0.0,N,0.0,K,A*3D

$GNRMC,140230.00,A,5133.590609,N,00957.729243,E,0.0,,260619,0.0,E,A*0E

$GNGGA,140230.00,5133.590609,N,00957.729243,E,1,12,0.7,241.0,M,47.0,M,,*73

$GPGSV,3,1,12,08,39,295,30,10,56,137,38,11,01,268,24,15,12,043,26*74

$GPGSV,3,2,12,16,43,195,34,18,13,250,25,20,55,085,32,26,18,180,32*71

$GPGSV,3,3,12,27,80,292,38,07,11,298,,13,04,014,,30,08,326,*7E

$GLGSV,3,1,09,70,42,108,37,86,49,298,32,76,35,264,36,75,12,216,32*64

$GLGSV,3,2,09,69,28,033,28,85,56,061,31,77,23,327,,84,06,087,*6B

$GLGSV,3,3,09,71,13,156,*5A

$GAGSV,1,1,0,*74

$PQGSV,1,1,0,*73

$PQGSV,1,1,0,*73

$GNGSA,A,3,07,08,10,15,16,18,20,26,27,30,,,1.0,0.7,0.7,1*34

$GNGSA,A,3,70,75,77,85,86,,,,,,,,1.0,0.7,0.7,2*35

$GNVTG,,T,,M,0.0,N,0.0,K,A*3D

$GNRMC,140230.00,A,5133.590609,N,00957.729243,E,0.0,,260619,0.0,E,A*0E

$GNGGA,140230.00,5133.590609,N,00957.729243,E,1,12,0.7,241.0,M,47.0,M,,*73

$GPGSV,3,1,11,10,56,137,39,11,01,268,23,15,12,043,28,16,43,195,35*7B

$GPGSV,3,2,11,20,55,085,35,26,18,180,33,27,80,292,37,07,11,298,*71

$GPGSV,3,3,11,13,04,014,,21,33,070,,30,08,326,*42

$GLGSV,3,1,09,70,42,108,37,86,49,298,31,76,35,264,36,75,12,216,31*64

$GLGSV,3,2,09,69,28,033,34,85,56,061,30,77,23,327,,84,06,087,*67

$GLGSV,3,3,09,71,13,156,*5A

$GAGSV,1,1,0,*74

$PQGSV,1,1,0,*73

$PQGSV,1,1,0,*73

$GNGSA,A,3,07,10,15,16,20,21,26,27,,,,,1.0,0.7,0.7,1*35

$GNGSA,A,3,70,75,77,85,86,,,,,,,,1.0,0.7,0.7,2*35

$GNVTG,,T,,M,0.0,N,0.0,K,A*3D

$GNRMC,140231.00,A,5133.590615,N,00957.729248,E,0.0,,260619,0.0,E,A*09

$GNGGA,140231.00,5133.590615,N,00957.729248,E,1,12,0.7,241.0,M,47.0,M,,*74

$GPGSV,3,1,11,10,56,137,39,11,01,268,23,15,12,043,28,16,43,195,35*7B

$GPGSV,3,2,11,20,55,085,35,26,18,180,33,27,80,292,37,07,11,298,*71

$GPGSV,3,3,11,13,04,014,,21,33,070,,30,08,326,*42

$GLGSV,3,1,09,70,42,108,37,86,49,298,31,76,35,264,36,75,12,216,31*64

$GLGSV,3,2,09,69,28,033,34,85,56,061,30,77,23,327,,84,06,087,*67

$GLGSV,3,3,09,71,13,156,*5A

$GAGSV,1,1,0,*74

$PQGSV,1,1,0,*73

$PQGSV,1,1,0,*73

$GNGSA,A,3,07,10,15,16,20,21,26,27,,,,,1.0,0.7,0.7,1*35

$GNGSA,A,3,70,75,77,85,86,,,,,,,,1.0,0.7,0.7,2*35

$GNVTG,,T,,M,0.0,N,0.0,K,A*3D

$GNRMC,140231.00,A,5133.590615,N,00957.729248,E,0.0,,260619,0.0,E,A*09

$GNGGA,140231.00,5133.590615,N,00957.729248,E,1,12,0.7,241.0,M,47.0,M,,*74

$GPGSV,4,1,13,08,39,295,27,10,56,137,40,11,01,268,24,15,12,043,28*75

$GPGSV,4,2,13,16,43,195,34,18,13,250,24,20,55,085,35,26,18,180,32*71

$GPGSV,4,3,13,27,80,292,38,07,11,298,,13,04,014,,21,33,070,*70

$GPGSV,4,4,13,30,08,326,*47

$GLGSV,3,1,09,70,42,108,36,86,49,298,31,76,35,264,36,75,12,216,32*66

$GLGSV,3,2,09,69,28,033,29,85,56,061,33,77,23,327,,84,06,087,*68

$GLGSV,3,3,09,71,13,156,*5A

$GAGSV,1,1,0,*74

$PQGSV,1,1,0,*73

$PQGSV,1,1,0,*73

$GNGSA,A,3,07,08,10,15,16,18,20,21,26,27,,,1.0,0.7,0.7,1*34

$GNGSA,A,3,70,75,77,85,86,,,,,,,,1.0,0.7,0.7,2*35

$GNVTG,,T,,M,0.0,N,0.0,K,A*3D

$GNRMC,140232.00,A,5133.590618,N,00957.729250,E,0.0,,260619,0.0,E,A*0E

$GNGGA,140232.00,5133.590618,N,00957.729250,E,1,12,0.7,241.0,M,47.0,M,,*73

$GPGSV,4,1,13,08,39,295,27,10,56,137,40,11,01,268,24,15,12,043,28*75

$GPGSV,4,2,13,16,43,195,34,18,13,250,24,20,55,085,35,26,18,180,32*71

$GPGSV,4,3,13,27,80,292,38,07,11,298,,13,04,014,,21,33,070,*70

$GPGSV,4,4,13,30,08,326,*47

$GLGSV,3,1,09,70,42,108,36,86,49,298,31,76,35,264,36,75,12,216,32*66

$GLGSV,3,2,09,69,28,033,29,85,56,061,33,77,23,327,,84,06,087,*68

$GLGSV,3,3,09,71,13,156,*5A

$GAGSV,1,1,0,*74

$PQGSV,1,1,0,*73

$PQGSV,1,1,0,*73

$GNGSA,A,3,07,08,10,15,16,18,20,21,26,27,,,1.0,0.7,0.7,1*34

$GNGSA,A,3,70,75,77,85,86,,,,,,,,1.0,0.7,0.7,2*35

$GNVTG,,T,,M,0.0,N,0.0,K,A*3D

$GNRMC,140232.00,A,5133.590618,N,00957.729250,E,0.0,,260619,0.0,E,A*0E

$GNGGA,140232.00,5133.590618,N,00957.729250,E,1,12,0.7,241.0,M,47.0,M,,*73

$GPGSV,3,1,12,07,11,298,26,08,39,295,25,10,56,137,41,15,12,043,28*7B

$GPGSV,3,2,12,16,43,195,34,18,13,250,27,20,55,085,33,26,18,180,34*74

$GPGSV,3,3,12,27,80,292,37,30,08,326,23,13,04,014,,21,33,070,*70

$GLGSV,2,1,08,70,42,108,36,86,49,298,26,76,35,264,33,75,12,216,30*67

$GLGSV,2,2,08,85,56,061,32,77,23,327,,84,06,087,,71,13,156,*61

$GAGSV,1,1,0,*74

$PQGSV,1,1,0,*73

$PQGSV,1,1,0,*73

$GNGSA,A,3,07,08,10,15,16,18,20,21,26,27,,,1.0,0.7,0.7,1*34

$GNGSA,A,3,70,75,77,85,86,,,,,,,,1.0,0.7,0.7,2*35

$GNVTG,,T,,M,0.0,N,0.0,K,A*3D

$GNRMC,140233.00,A,5133.590621,N,00957.729253,E,0.0,,260619,0.0,E,A*06

$GNGGA,140233.00,5133.590621,N,00957.729253,E,1,12,0.7,241.0,M,47.0,M,,*7B

$GPGSV,3,1,12,07,11,298,26,08,39,295,25,10,56,137,41,15,12,043,28*7B

$GPGSV,3,2,12,16,43,195,34,18,13,250,27,20,55,085,33,26,18,180,34*74

$GPGSV,3,3,12,27,80,292,37,30,08,326,23,13,04,014,,21,33,070,*70

$GLGSV,2,1,08,70,42,108,36,86,49,298,26,76,35,264,33,75,12,216,30*67

$GLGSV,2,2,08,85,56,061,32,77,23,327,,84,06,087,,71,13,156,*61

$GAGSV,1,1,0,*74

$PQGSV,1,1,0,*73

$PQGSV,1,1,0,*73

$GNGSA,A,3,07,08,10,15,16,18,20,21,26,27,,,1.0,0.7,0.7,1*34

$GNGSA,A,3,70,75,77,85,86,,,,,,,,1.0,0.7,0.7,2*35

$GNVTG,,T,,M,0.0,N,0.0,K,A*3D

$GNRMC,140233.00,A,5133.590621,N,00957.729253,E,0.0,,260619,0.0,E,A*06

$GNGGA,140233.00,5133.590621,N,00957.729253,E,1,12,0.7,241.0,M,47.0,M,,*7B

$GPGSV,3,1,11,07,11,298,28,10,56,137,38,11,01,268,24,15,12,043,27*77

$GPGSV,3,2,11,16,43,195,32,18,13,250,32,20,55,085,32,26,18,180,34*74

$GPGSV,3,3,11,27,80,292,34,13,04,014,,21,33,070,*4D

$GLGSV,2,1,08,70,42,108,36,86,49,298,25,76,35,264,35,75,12,216,30*62

$GLGSV,2,2,08,85,56,061,32,77,23,327,,84,06,087,,71,13,156,*61

$GAGSV,1,1,0,*74

$PQGSV,1,1,0,*73

$PQGSV,1,1,0,*73

$GNGSA,A,3,07,10,15,16,18,20,21,26,27,,,,1.0,0.7,0.7,1*3C

$GNGSA,A,3,70,75,85,86,,,,,,,,,1.0,0.7,0.7,2*35

$GNVTG,,T,,M,0.0,N,0.0,K,A*3D

$GNRMC,140234.00,A,5133.590621,N,00957.729251,E,0.0,,260619,0.0,E,A*03

$GNGGA,140234.00,5133.590621,N,00957.729251,E,1,12,0.7,241.0,M,47.0,M,,*7E

$GPGSV,3,1,11,07,11,298,28,10,56,137,38,11,01,268,24,15,12,043,27*77

$GPGSV,3,2,11,16,43,195,32,18,13,250,32,20,55,085,32,26,18,180,34*74

$GPGSV,3,3,11,27,80,292,34,13,04,014,,21,33,070,*4D

$GLGSV,2,1,08,70,42,108,36,86,49,298,25,76,35,264,35,75,12,216,30*62

$GLGSV,2,2,08,85,56,061,32,77,23,327,,84,06,087,,71,13,156,*61

$GAGSV,1,1,0,*74

$PQGSV,1,1,0,*73

$PQGSV,1,1,0,*73

$GNGSA,A,3,07,10,15,16,18,20,21,26,27,,,,1.0,0.7,0.7,1*3C

$GNGSA,A,3,70,75,85,86,,,,,,,,,1.0,0.7,0.7,2*35

$GNVTG,,T,,M,0.0,N,0.0,K,A*3D

$GNRMC,140234.00,A,5133.590621,N,00957.729251,E,0.0,,260619,0.0,E,A*03

$GNGGA,140234.00,5133.590621,N,00957.729251,E,1,12,0.7,241.0,M,47.0,M,,*7E

$GPGSV,3,1,11,08,39,295,30,10,56,137,39,15,12,043,28,16,43,195,30*7D

$GPGSV,3,2,11,18,13,250,29,20,55,085,33,26,18,180,34,27,80,292,35*71

$GPGSV,3,3,11,13,04,014,,21,33,070,,30,08,326,*42

$GLGSV,3,1,09,70,42,108,34,86,49,298,26,76,35,264,39,75,12,216,31*6E

$GLGSV,3,2,09,69,28,033,23,85,56,061,33,77,23,327,,84,06,087,*62

$GLGSV,3,3,09,71,13,156,*5A

$GAGSV,1,1,0,*74

$PQGSV,1,1,0,*73

$PQGSV,1,1,0,*73

$GPGSV,3,1,11,08,39,295,30,10,56,137,39,15,12,043,28,16,43,195,30*7D

$GPGSV,3,2,11,18,13,250,29,20,55,085,33,26,18,180,34,27,80,292,35*71

$GPGSV,3,3,11,13,04,014,,21,33,070,,30,08,326,*42

$GLGSV,3,1,09,70,42,108,34,86,49,298,26,76,35,264,39,75,12,216,31*6E

$GLGSV,3,2,09,69,28,033,23,85,56,061,33,77,23,327,,84,06,087,*62

$GLGSV,3,3,09,71,13,156,*5A

$GAGSV,1,1,0,*74

$PQGSV,1,1,0,*73

$PQGSV,1,1,0,*73

$GNGSA,A,3,08,10,15,16,18,20,21,26,27,30,,,1.0,0.7,0.7,1*30

$GNGSA,A,3,70,75,85,86,,,,,,,,,1.0,0.7,0.7,2*35

$GNVTG,,T,,M,0.0,N,0.0,K,A*3D

$GNRMC,140235.00,A,5133.590622,N,00957.729251,E,0.0,,260619,0.0,E,A*01

$GNGGA,140235.00,5133.590622,N,00957.729251,E,1,12,0.7,241.0,M,47.0,M,,*7C

$GNGSA,A,3,08,10,15,16,18,20,21,26,27,30,,,1.0,0.7,0.7,1*30

$GNGSA,A,3,70,75,85,86,,,,,,,,,1.0,0.7,0.7,2*35

$GNVTG,,T,,M,0.0,N,0.0,K,A*3D

$GNRMC,140235.00,A,5133.590622,N,00957.729251,E,0.0,,260619,0.0,E,A*01

$GNGGA,140235.00,5133.590622,N,00957.729251,E,1,12,0.7,241.0,M,47.0,M,,*7C

$GPGSV,3,1,12,07,11,298,26,08,39,295,30,10,56,137,39,15,12,043,30*79

$GPGSV,3,2,12,16,43,195,32,20,55,085,35,26,18,180,32,27,80,292,39*75

$GPGSV,3,3,12,11,01,268,,13,04,014,,21,33,070,,30,08,326,*7C

$GLGSV,2,1,08,70,43,106,35,86,50,299,26,76,35,262,40,75,11,216,33*60

$GLGSV,2,2,08,85,56,061,34,77,24,327,,84,05,087,,71,14,156,*64

$GAGSV,1,1,0,*74

$PQGSV,1,1,0,*73

$PQGSV,1,1,0,*73

$GNGSA,A,3,07,08,10,15,16,20,26,27,30,,,,1.0,0.7,0.7,1*3D

$GNGSA,A,3,70,75,85,86,,,,,,,,,1.0,0.7,0.7,2*35

$GNVTG,,T,,M,0.0,N,0.0,K,A*3D

$GNRMC,140236.00,A,5133.590623,N,00957.729253,E,0.0,,260619,0.0,E,A*01

$GNGGA,140236.00,5133.590623,N,00957.729253,E,1,12,0.7,241.0,M,47.0,M,,*7C

$GPGSV,3,1,12,07,11,298,26,08,39,295,30,10,56,137,39,15,12,043,30*79

$GPGSV,3,2,12,16,43,195,32,20,55,085,35,26,18,180,32,27,80,292,39*75

$GPGSV,3,3,12,11,01,268,,13,04,014,,21,33,070,,30,08,326,*7C

$GLGSV,2,1,08,70,43,106,35,86,50,299,26,76,35,262,40,75,11,216,33*60

$GLGSV,2,2,08,85,56,061,34,77,24,327,,84,05,087,,71,14,156,*64

$GAGSV,1,1,0,*74

$PQGSV,1,1,0,*73

$PQGSV,1,1,0,*73

$GNGSA,A,3,07,08,10,15,16,20,26,27,30,,,,1.0,0.7,0.7,1*3D

$GNGSA,A,3,70,75,85,86,,,,,,,,,1.0,0.7,0.7,2*35

$GNVTG,,T,,M,0.0,N,0.0,K,A*3D

$GNRMC,140236.00,A,5133.590623,N,00957.729253,E,0.0,,260619,0.0,E,A*01

$GNGGA,140236.00,5133.590623,N,00957.729253,E,1,12,0.7,241.0,M,47.0,M,,*7C

$GPGSV,4,1,13,07,11,298,26,08,39,295,35,10,56,137,36,15,12,043,25*71

$GPGSV,4,2,13,16,43,195,34,20,55,085,38,21,33,070,26,26,18,180,31*75

$GPGSV,4,3,13,27,80,292,36,11,01,268,,13,04,014,,18,13,250,*7F

$GPGSV,4,4,13,30,08,326,*47

$GLGSV,3,1,09,70,43,106,36,86,50,299,31,76,35,262,37,75,11,216,33*65

$GLGSV,3,2,09,69,27,033,30,85,56,061,32,77,24,327,,84,05,087,*6A

$GLGSV,3,3,09,71,14,156,*5D

$GAGSV,1,1,0,*74

$PQGSV,1,1,0,*73

$PQGSV,1,1,0,*73

$GNGSA,A,3,07,08,10,15,16,18,20,26,27,30,,,1.0,0.7,0.7,1*34

$GNGSA,A,3,70,75,85,86,,,,,,,,,1.0,0.7,0.7,2*35

$GNVTG,,T,,M,0.0,N,0.0,K,A*3D

$GNRMC,140237.00,A,5133.590622,N,00957.729252,E,0.0,,260619,0.0,E,A*00

$GNGGA,140237.00,5133.590622,N,00957.729252,E,1,12,0.7,241.0,M,47.0,M,,*7D

$GPGSV,4,1,13,07,11,298,26,08,39,295,35,10,56,137,36,15,12,043,25*71

$GPGSV,4,2,13,16,43,195,34,20,55,085,38,21,33,070,26,26,18,180,31*75

$GPGSV,4,3,13,27,80,292,36,11,01,268,,13,04,014,,18,13,250,*7F

$GPGSV,4,4,13,30,08,326,*47

$GLGSV,3,1,09,70,43,106,36,86,50,299,31,76,35,262,37,75,11,216,33*65

$GLGSV,3,2,09,69,27,033,30,85,56,061,32,77,24,327,,84,05,087,*6A

$GLGSV,3,3,09,71,14,156,*5D

$GAGSV,1,1,0,*74

$PQGSV,1,1,0,*73

$PQGSV,1,1,0,*73

$GNGSA,A,3,07,08,10,15,16,18,20,26,27,30,,,1.0,0.7,0.7,1*34

$GNGSA,A,3,70,75,85,86,,,,,,,,,1.0,0.7,0.7,2*35

$GNVTG,,T,,M,0.0,N,0.0,K,A*3D

$GNRMC,140237.00,A,5133.590622,N,00957.729252,E,0.0,,260619,0.0,E,A*00

$GNGGA,140237.00,5133.590622,N,00957.729252,E,1,12,0.7,241.0,M,47.0,M,,*7D

$GPGSV,3,1,12,08,39,295,37,10,56,137,40,15,12,043,28,16,43,195,36*71

$GPGSV,3,2,12,18,13,250,29,20,55,085,39,21,33,070,28,26,18,180,30*70

$GPGSV,3,3,12,27,80,292,37,30,08,326,29,11,01,268,,13,04,014,*73

$GLGSV,2,1,08,70,43,106,35,86,50,299,36,76,35,262,37,75,11,216,36*64

$GLGSV,2,2,08,85,56,061,35,77,24,327,,84,05,087,,71,14,156,*65

$GAGSV,1,1,0,*74

$PQGSV,1,1,0,*73

$PQGSV,1,1,0,*73

$GNGSA,A,3,08,10,15,16,18,20,21,26,27,30,,,1.0,0.7,0.7,1*30

$GNGSA,A,3,70,75,85,86,,,,,,,,,1.0,0.7,0.7,2*35

$GNVTG,,T,,M,0.0,N,0.0,K,A*3D

$GNRMC,140238.00,A,5133.590622,N,00957.729254,E,0.0,,260619,0.0,E,A*09

$GNGGA,140238.00,5133.590622,N,00957.729254,E,1,12,0.7,241.0,M,47.0,M,,*74

$GPGSV,3,1,12,08,39,295,37,10,56,137,40,15,12,043,28,16,43,195,36*71

$GPGSV,3,2,12,18,13,250,29,20,55,085,39,21,33,070,28,26,18,180,30*70

$GPGSV,3,3,12,27,80,292,37,30,08,326,29,11,01,268,,13,04,014,*73

$GLGSV,2,1,08,70,43,106,35,86,50,299,36,76,35,262,37,75,11,216,36*64

$GLGSV,2,2,08,85,56,061,35,77,24,327,,84,05,087,,71,14,156,*65

$GAGSV,1,1,0,*74

$PQGSV,1,1,0,*73

$PQGSV,1,1,0,*73

$GNGSA,A,3,08,10,15,16,18,20,21,26,27,30,,,1.0,0.7,0.7,1*30

$GNGSA,A,3,70,75,85,86,,,,,,,,,1.0,0.7,0.7,2*35

$GNVTG,,T,,M,0.0,N,0.0,K,A*3D

$GNRMC,140238.00,A,5133.590622,N,00957.729254,E,0.0,,260619,0.0,E,A*09

$GNGGA,140238.00,5133.590622,N,00957.729254,E,1,12,0.7,241.0,M,47.0,M,,*74

$GPGSV,4,1,13,08,39,295,36,10,56,137,31,15,12,043,26,16,43,195,38*70

$GPGSV,4,2,13,18,13,250,30,20,55,085,37,21,33,070,29,26,18,180,29*79

$GPGSV,4,3,13,27,80,292,27,30,08,326,26,07,11,298,,11,01,268,*7C

$GPGSV,4,4,13,13,04,014,*48

$GLGSV,3,1,09,70,43,106,33,86,50,299,38,76,35,262,36,75,11,216,34*6F

$GLGSV,3,2,09,69,27,033,26,85,56,061,32,77,24,327,,84,05,087,*6D

$GLGSV,3,3,09,71,14,156,*5D

$GAGSV,1,1,0,*74

$PQGSV,1,1,0,*73

$PQGSV,1,1,0,*73

$GNGSA,A,3,07,08,10,15,16,18,20,21,26,27,30,,1.0,0.7,0.7,1*37

$GNGSA,A,3,70,75,85,86,,,,,,,,,1.0,0.7,0.7,2*35

$GNVTG,,T,,M,0.0,N,0.0,K,A*3D

$GNRMC,140239.00,A,5133.590621,N,00957.729255,E,0.0,,260619,0.0,E,A*0A

$GNGGA,140239.00,5133.590621,N,00957.729255,E,1,12,0.7,241.0,M,47.0,M,,*77

$GPGSV,4,1,13,08,39,295,36,10,56,137,31,15,12,043,26,16,43,195,38*70

$GPGSV,4,2,13,18,13,250,30,20,55,085,37,21,33,070,29,26,18,180,29*79

$GPGSV,4,3,13,27,80,292,27,30,08,326,26,07,11,298,,11,01,268,*7C

$GPGSV,4,4,13,13,04,014,*48

$GLGSV,3,1,09,70,43,106,33,86,50,299,38,76,35,262,36,75,11,216,34*6F

$GLGSV,3,2,09,69,27,033,26,85,56,061,32,77,24,327,,84,05,087,*6D

$GLGSV,3,3,09,71,14,156,*5D

$GAGSV,1,1,0,*74

$PQGSV,1,1,0,*73

$PQGSV,1,1,0,*73

$GNGSA,A,3,07,08,10,15,16,18,20,21,26,27,30,,1.0,0.7,0.7,1*37

$GNGSA,A,3,70,75,85,86,,,,,,,,,1.0,0.7,0.7,2*35

$GNVTG,,T,,M,0.0,N,0.0,K,A*3D

$GNRMC,140239.00,A,5133.590621,N,00957.729255,E,0.0,,260619,0.0,E,A*0A

$GNGGA,140239.00,5133.590621,N,00957.729255,E,1,12,0.7,241.0,M,47.0,M,,*77

$GPGSV,4,1,13,08,39,295,38,10,56,137,31,15,12,043,25,16,43,195,38*7D

$GPGSV,4,2,13,18,13,250,30,20,55,085,37,21,33,070,29,26,18,180,32*73

$GPGSV,4,3,13,27,80,292,31,30,08,326,26,07,11,298,,11,01,268,*7B

$GPGSV,4,4,13,13,04,014,*48

$GLGSV,3,1,09,70,43,106,34,86,50,299,38,76,35,262,34,75,11,216,33*6D

$GLGSV,3,2,09,69,27,033,29,85,56,061,33,77,24,327,,84,05,087,*63

$GLGSV,3,3,09,71,14,156,*5D

$GAGSV,1,1,0,*74

$PQGSV,1,1,0,*73

$PQGSV,1,1,0,*73

$GNGSA,A,3,07,08,10,15,16,18,20,21,26,27,30,,1.0,0.7,0.7,1*37

$GNGSA,A,3,70,75,85,86,,,,,,,,,1.0,0.7,0.7,2*35

$GNVTG,,T,,M,0.0,N,0.0,K,A*3D

$GNRMC,140240.00,A,5133.590620,N,00957.729256,E,0.0,,260619,0.0,E,A*06

$GNGGA,140240.00,5133.590620,N,00957.729256,E,1,12,0.7,241.0,M,47.0,M,,*7B

$GPGSV,4,1,13,08,39,295,38,10,56,137,31,15,12,043,25,16,43,195,38*7D

$GPGSV,4,2,13,18,13,250,30,20,55,085,37,21,33,070,29,26,18,180,32*73

$GPGSV,4,3,13,27,80,292,31,30,08,326,26,07,11,298,,11,01,268,*7B

$GPGSV,4,4,13,13,04,014,*48

$GLGSV,3,1,09,70,43,106,34,86,50,299,38,76,35,262,34,75,11,216,33*6D

$GLGSV,3,2,09,69,27,033,29,85,56,061,33,77,24,327,,84,05,087,*63

$GLGSV,3,3,09,71,14,156,*5D

$GAGSV,1,1,0,*74

$PQGSV,1,1,0,*73

$PQGSV,1,1,0,*73

$GNGSA,A,3,07,08,10,15,16,18,20,21,26,27,30,,1.0,0.7,0.7,1*37

$GNGSA,A,3,70,75,85,86,,,,,,,,,1.0,0.7,0.7,2*35

$GNVTG,,T,,M,0.0,N,0.0,K,A*3D

$GNRMC,140240.00,A,5133.590620,N,00957.729256,E,0.0,,260619,0.0,E,A*06

$GNGGA,140240.00,5133.590620,N,00957.729256,E,1,12,0.7,241.0,M,47.0,M,,*7B

$GPGSV,3,1,12,08,39,295,36,10,56,137,33,16,43,195,37,18,13,250,32*72

$GPGSV,3,2,12,20,55,085,39,21,33,070,29,26,18,180,30,27,80,292,32*73

$GPGSV,3,3,12,30,08,326,27,07,11,298,,11,01,268,,13,04,014,*79

$GLGSV,3,1,09,70,43,106,35,86,50,299,37,76,35,262,34,75,11,216,34*64

$GLGSV,3,2,09,69,27,033,30,85,56,061,32,77,24,327,,84,05,087,*6A

$GLGSV,3,3,09,71,14,156,*5D

$GAGSV,1,1,0,*74

$PQGSV,1,1,0,*73

$PQGSV,1,1,0,*73

$GPGSV,3,1,12,08,39,295,36,10,56,137,33,16,43,195,37,18,13,250,32*72

$GPGSV,3,2,12,20,55,085,39,21,33,070,29,26,18,180,30,27,80,292,32*73

$GPGSV,3,3,12,30,08,326,27,07,11,298,,11,01,268,,13,04,014,*79

$GLGSV,3,1,09,70,43,106,35,86,50,299,37,76,35,262,34,75,11,216,34*64

$GLGSV,3,2,09,69,27,033,30,85,56,061,32,77,24,327,,84,05,087,*6A

$GLGSV,3,3,09,71,14,156,*5D

$GAGSV,1,1,0,*74

$PQGSV,1,1,0,*73

$PQGSV,1,1,0,*73

$GNGSA,A,3,07,08,10,16,18,20,21,26,27,30,,,1.0,0.7,0.7,1*33

$GNGSA,A,3,70,75,85,86,,,,,,,,,1.0,0.7,0.7,2*35

$GNVTG,,T,,M,0.0,N,0.0,K,A*3D

$GNRMC,140241.00,A,5133.590620,N,00957.729253,E,0.0,,260619,0.0,E,A*02

$GNGGA,140241.00,5133.590620,N,00957.729253,E,1,12,0.7,241.0,M,47.0,M,,*7F

$GNGSA,A,3,07,08,10,16,18,20,21,26,27,30,,,1.0,0.7,0.7,1*33

$GNGSA,A,3,70,75,85,86,,,,,,,,,1.0,0.7,0.7,2*35

$GNVTG,,T,,M,0.0,N,0.0,K,A*3D

$GNRMC,140241.00,A,5133.590620,N,00957.729253,E,0.0,,260619,0.0,E,A*02

$GNGGA,140241.00,5133.590620,N,00957.729253,E,1,12,0.7,241.0,M,47.0,M,,*7F

$GPGSV,4,1,13,08,39,295,36,10,56,137,32,16,43,195,36,18,13,250,27*70

$GPGSV,4,2,13,20,55,085,38,21,33,070,29,26,18,180,29,27,80,292,33*7D

$GPGSV,4,3,13,30,08,326,25,07,11,298,,11,01,268,,13,04,014,*7D

$GPGSV,4,4,13,15,12,043,*4B

$GLGSV,2,1,08,70,43,106,32,86,50,299,36,76,35,262,36,75,11,216,33*67

$GLGSV,2,2,08,85,56,061,29,77,24,327,,84,05,087,,71,14,156,*68

$GAGSV,1,1,0,*74

$PQGSV,1,1,0,*73

$PQGSV,1,1,0,*73

$GNGSA,A,3,07,08,10,15,16,18,20,21,26,27,30,,1.0,0.7,0.7,1*37

$GNGSA,A,3,70,75,85,86,,,,,,,,,1.0,0.7,0.7,2*35

$GNVTG,,T,,M,0.0,N,0.0,K,A*3D

$GNRMC,140242.00,A,5133.590619,N,00957.729251,E,0.0,,260619,0.0,E,A*09

$GNGGA,140242.00,5133.590619,N,00957.729251,E,1,12,0.7,241.0,M,47.0,M,,*74

$GPGSV,4,1,13,08,39,295,36,10,56,137,32,16,43,195,36,18,13,250,27*70

$GPGSV,4,2,13,20,55,085,38,21,33,070,29,26,18,180,29,27,80,292,33*7D

$GPGSV,4,3,13,30,08,326,25,07,11,298,,11,01,268,,13,04,014,*7D

$GPGSV,4,4,13,15,12,043,*4B

$GLGSV,2,1,08,70,43,106,32,86,50,299,36,76,35,262,36,75,11,216,33*67

$GLGSV,2,2,08,85,56,061,29,77,24,327,,84,05,087,,71,14,156,*68

$GAGSV,1,1,0,*74

$PQGSV,1,1,0,*73

$PQGSV,1,1,0,*73

$GNGSA,A,3,07,08,10,15,16,18,20,21,26,27,30,,1.0,0.7,0.7,1*37

$GNGSA,A,3,70,75,85,86,,,,,,,,,1.0,0.7,0.7,2*35

$GNVTG,,T,,M,0.0,N,0.0,K,A*3D

$GNRMC,140242.00,A,5133.590619,N,00957.729251,E,0.0,,260619,0.0,E,A*09

$GNGGA,140242.00,5133.590619,N,00957.729251,E,1,12,0.7,241.0,M,47.0,M,,*74

$GPGSV,4,1,13,08,39,295,36,10,56,137,29,16,43,195,36,18,13,250,30*7C

$GPGSV,4,2,13,20,55,085,36,21,33,070,30,26,18,180,31,27,80,292,33*72

$GPGSV,4,3,13,30,08,326,27,07,11,298,,11,01,268,,13,04,014,*7F

$GPGSV,4,4,13,15,12,043,*4B

$GLGSV,3,1,09,70,43,106,34,86,50,299,36,76,35,262,35,75,11,216,32*63

$GLGSV,3,2,09,69,27,033,27,85,56,061,29,77,24,327,,84,05,087,*66

$GLGSV,3,3,09,71,14,156,*5D

$GAGSV,1,1,0,*74

$PQGSV,1,1,0,*73

$PQGSV,1,1,0,*73

$GNGSA,A,3,07,08,10,15,16,18,20,21,26,27,30,,1.0,0.7,0.7,1*37

$GNGSA,A,3,70,75,85,86,,,,,,,,,1.0,0.7,0.7,2*35

$GNVTG,,T,,M,0.0,N,0.0,K,A*3D

$GNRMC,140243.00,A,5133.590619,N,00957.729247,E,0.0,,260619,0.0,E,A*0F

$GNGGA,140243.00,5133.590619,N,00957.729247,E,1,12,0.7,241.0,M,47.0,M,,*72

$GPGSV,4,1,13,08,39,295,36,10,56,137,29,16,43,195,36,18,13,250,30*7C

$GPGSV,4,2,13,20,55,085,36,21,33,070,30,26,18,180,31,27,80,292,33*72

$GPGSV,4,3,13,30,08,326,27,07,11,298,,11,01,268,,13,04,014,*7F

$GPGSV,4,4,13,15,12,043,*4B

$GLGSV,3,1,09,70,43,106,34,86,50,299,36,76,35,262,35,75,11,216,32*63

$GLGSV,3,2,09,69,27,033,27,85,56,061,29,77,24,327,,84,05,087,*66

$GLGSV,3,3,09,71,14,156,*5D

$GAGSV,1,1,0,*74

$PQGSV,1,1,0,*73

$PQGSV,1,1,0,*73

$GNGSA,A,3,07,08,10,15,16,18,20,21,26,27,30,,1.0,0.7,0.7,1*37

$GNGSA,A,3,70,75,85,86,,,,,,,,,1.0,0.7,0.7,2*35

$GNVTG,,T,,M,0.0,N,0.0,K,A*3D

$GNRMC,140243.00,A,5133.590619,N,00957.729247,E,0.0,,260619,0.0,E,A*0F

$GNGGA,140243.00,5133.590619,N,00957.729247,E,1,12,0.7,241.0,M,47.0,M,,*72

$GPGSV,3,1,12,08,39,295,37,10,56,137,32,16,43,195,36,20,55,085,37*75

$GPGSV,3,2,12,21,33,070,30,26,18,180,31,27,80,292,34,30,08,326,24*73

$GPGSV,3,3,12,07,11,298,,11,01,268,,13,04,014,,15,12,043,*70

$GLGSV,2,1,08,70,43,106,33,86,50,299,36,76,35,262,35,75,11,216,27*60

$GLGSV,2,2,08,85,56,061,32,77,24,327,,84,05,087,,71,14,156,*62

$GAGSV,1,1,0,*74

$PQGSV,1,1,0,*73

$PQGSV,1,1,0,*73

$GNGSA,A,3,08,10,15,16,20,21,26,27,30,,,,1.0,0.7,0.7,1*39

$GNGSA,A,3,70,75,85,86,,,,,,,,,1.0,0.7,0.7,2*35

$GNVTG,,T,,M,0.0,N,0.0,K,A*3D

$GNRMC,140244.00,A,5133.590619,N,00957.729244,E,0.0,,260619,0.0,E,A*0B

$GNGGA,140244.00,5133.590619,N,00957.729244,E,1,12,0.7,241.0,M,47.0,M,,*76

$GPGSV,3,1,12,08,39,295,37,10,56,137,32,16,43,195,36,20,55,085,37*75

$GPGSV,3,2,12,21,33,070,30,26,18,180,31,27,80,292,34,30,08,326,24*73

$GPGSV,3,3,12,07,11,298,,11,01,268,,13,04,014,,15,12,043,*70

$GLGSV,2,1,08,70,43,106,33,86,50,299,36,76,35,262,35,75,11,216,27*60

$GLGSV,2,2,08,85,56,061,32,77,24,327,,84,05,087,,71,14,156,*62

$GAGSV,1,1,0,*74

$PQGSV,1,1,0,*73

$PQGSV,1,1,0,*73

$GNGSA,A,3,08,10,15,16,20,21,26,27,30,,,,1.0,0.7,0.7,1*39

$GNGSA,A,3,70,75,85,86,,,,,,,,,1.0,0.7,0.7,2*35

$GNVTG,,T,,M,0.0,N,0.0,K,A*3D

$GNRMC,140244.00,A,5133.590619,N,00957.729244,E,0.0,,260619,0.0,E,A*0B

$GNGGA,140244.00,5133.590619,N,00957.729244,E,1,12,0.7,241.0,M,47.0,M,,*76

$GPGSV,4,1,13,07,11,298,23,08,39,295,36,10,56,137,32,16,43,195,35*7F

$GPGSV,4,2,13,18,13,250,24,20,55,085,39,21,33,070,28,26,18,180,32*79

$GPGSV,4,3,13,27,80,292,36,30,08,326,27,11,01,268,,13,04,014,*7A

$GPGSV,4,4,13,15,12,043,*4B

$GLGSV,3,1,09,70,43,106,33,86,50,299,36,76,35,262,34,75,11,216,28*6E

$GLGSV,3,2,09,69,27,033,30,85,56,061,30,77,24,327,,84,05,087,*68

$GLGSV,3,3,09,71,14,156,*5D

$GAGSV,1,1,0,*74

$PQGSV,1,1,0,*73

$PQGSV,1,1,0,*73

$GNGSA,A,3,08,10,15,16,18,20,21,26,27,30,,,1.0,0.7,0.7,1*30

$GNGSA,A,3,70,75,85,86,,,,,,,,,1.0,0.7,0.7,2*35

$GNVTG,,T,,M,0.0,N,0.0,K,A*3D

$GNRMC,140245.00,A,5133.590618,N,00957.729243,E,0.0,,260619,0.0,E,A*0C

$GNGGA,140245.00,5133.590618,N,00957.729243,E,1,12,0.7,241.0,M,47.0,M,,*71

$GPGSV,4,1,13,07,11,298,23,08,39,295,36,10,56,137,32,16,43,195,35*7F

$GPGSV,4,2,13,18,13,250,24,20,55,085,39,21,33,070,28,26,18,180,32*79

$GPGSV,4,3,13,27,80,292,36,30,08,326,27,11,01,268,,13,04,014,*7A

$GPGSV,4,4,13,15,12,043,*4B

$GLGSV,3,1,09,70,43,106,33,86,50,299,36,76,35,262,34,75,11,216,28*6E

$GLGSV,3,2,09,69,27,033,30,85,56,061,30,77,24,327,,84,05,087,*68

$GLGSV,3,3,09,71,14,156,*5D

$GAGSV,1,1,0,*74

$PQGSV,1,1,0,*73

$PQGSV,1,1,0,*73

$GNGSA,A,3,08,10,15,16,18,20,21,26,27,30,,,1.0,0.7,0.7,1*30

$GNGSA,A,3,70,75,85,86,,,,,,,,,1.0,0.7,0.7,2*35

$GNVTG,,T,,M,0.0,N,0.0,K,A*3D

$GNRMC,140245.00,A,5133.590618,N,00957.729243,E,0.0,,260619,0.0,E,A*0C

$GNGGA,140245.00,5133.590618,N,00957.729243,E,1,12,0.7,241.0,M,47.0,M,,*71

$GPGSV,3,1,11,08,39,295,36,10,56,137,31,16,43,195,34,20,55,085,39*78

$GPGSV,3,2,11,21,33,070,28,26,18,180,30,27,80,292,35,30,08,326,26*7B

$GPGSV,3,3,11,11,01,268,,13,04,014,,15,12,043,*47

$GLGSV,3,1,09,70,43,106,34,86,50,299,37,76,35,262,35,75,11,216,28*69

$GLGSV,3,2,09,69,27,033,27,85,56,061,34,77,24,327,,84,05,087,*6A

$GLGSV,3,3,09,71,14,156,*5D

$GAGSV,1,1,0,*74

$PQGSV,1,1,0,*73

$PQGSV,1,1,0,*73

$GPGSV,3,1,11,08,39,295,36,10,56,137,31,16,43,195,34,20,55,085,39*78

$GPGSV,3,2,11,21,33,070,28,26,18,180,30,27,80,292,35,30,08,326,26*7B

$GPGSV,3,3,11,11,01,268,,13,04,014,,15,12,043,*47

$GLGSV,3,1,09,70,43,106,34,86,50,299,37,76,35,262,35,75,11,216,28*69

$GLGSV,3,2,09,69,27,033,27,85,56,061,34,77,24,327,,84,05,087,*6A

$GLGSV,3,3,09,71,14,156,*5D

$GAGSV,1,1,0,*74

$PQGSV,1,1,0,*73

$PQGSV,1,1,0,*73

$GNGSA,A,3,08,10,15,16,20,21,26,27,30,,,,1.1,0.7,0.8,1*37

$GNGSA,A,3,70,75,85,86,,,,,,,,,1.1,0.7,0.8,2*3B

$GNVTG,,T,,M,0.0,N,0.0,K,A*3D

$GNRMC,140246.00,A,5133.590618,N,00957.729242,E,0.0,,260619,0.0,E,A*0E

$GNGGA,140246.00,5133.590618,N,00957.729242,E,1,12,0.7,241.0,M,47.0,M,,*73

$GNGSA,A,3,08,10,15,16,20,21,26,27,30,,,,1.1,0.7,0.8,1*37

$GNGSA,A,3,70,75,85,86,,,,,,,,,1.1,0.7,0.8,2*3B

$GNVTG,,T,,M,0.0,N,0.0,K,A*3D

$GNRMC,140246.00,A,5133.590618,N,00957.729242,E,0.0,,260619,0.0,E,A*0E

$GNGGA,140246.00,5133.590618,N,00957.729242,E,1,12,0.7,241.0,M,47.0,M,,*73

$GPGSV,4,1,13,08,39,295,36,10,56,137,34,16,43,195,36,20,55,085,37*74

$GPGSV,4,2,13,21,33,070,28,26,18,180,31,27,80,292,35,30,08,326,26*7F

$GPGSV,4,3,13,07,11,298,,11,01,268,,13,04,014,,15,12,043,*76

$GPGSV,4,4,13,18,13,250,*47

$GLGSV,3,1,09,70,43,106,33,86,50,299,36,76,35,262,34,75,11,216,31*66

$GLGSV,3,2,09,69,27,033,30,85,56,061,31,77,24,327,,84,05,087,*69

$GLGSV,3,3,09,71,14,156,*5D

$GAGSV,1,1,0,*74

$PQGSV,1,1,0,*73

$PQGSV,1,1,0,*73

$GNGSA,A,3,07,08,10,16,18,20,21,26,27,30,,,1.1,0.7,0.8,1*3D

$GNGSA,A,3,70,75,85,86,,,,,,,,,1.1,0.7,0.8,2*3B

$GNVTG,,T,,M,0.0,N,0.0,K,A*3D

$GNRMC,140247.00,A,5133.590617,N,00957.729240,E,0.0,,260619,0.0,E,A*02

$GNGGA,140247.00,5133.590617,N,00957.729240,E,1,12,0.7,241.0,M,47.0,M,,*7F

$GPGSV,4,1,13,08,39,295,36,10,56,137,34,16,43,195,36,20,55,085,37*74

$GPGSV,4,2,13,21,33,070,28,26,18,180,31,27,80,292,35,30,08,326,26*7F

$GPGSV,4,3,13,07,11,298,,11,01,268,,13,04,014,,15,12,043,*76

$GPGSV,4,4,13,18,13,250,*47

$GLGSV,3,1,09,70,43,106,33,86,50,299,36,76,35,262,34,75,11,216,31*66

$GLGSV,3,2,09,69,27,033,30,85,56,061,31,77,24,327,,84,05,087,*69

$GLGSV,3,3,09,71,14,156,*5D

$GAGSV,1,1,0,*74

$PQGSV,1,1,0,*73

$PQGSV,1,1,0,*73

$GNGSA,A,3,07,08,10,16,18,20,21,26,27,30,,,1.1,0.7,0.8,1*3D

$GNGSA,A,3,70,75,85,86,,,,,,,,,1.1,0.7,0.8,2*3B

$GNVTG,,T,,M,0.0,N,0.0,K,A*3D

$GNRMC,140247.00,A,5133.590617,N,00957.729240,E,0.0,,260619,0.0,E,A*02

$GNGGA,140247.00,5133.590617,N,00957.729240,E,1,12,0.7,241.0,M,47.0,M,,*7F

$GPGSV,4,1,13,08,39,295,36,10,56,137,37,16,43,195,36,20,55,085,38*78

$GPGSV,4,2,13,21,33,070,28,26,18,180,32,27,80,292,35,30,08,326,31*7A

$GPGSV,4,3,13,07,11,298,,11,01,268,,13,04,014,,15,12,043,*76

$GPGSV,4,4,13,18,13,250,*47

$GLGSV,2,1,08,70,43,106,33,86,50,299,37,76,35,262,33,75,11,216,33*62

$GLGSV,2,2,08,85,56,061,37,77,24,327,,84,05,087,,71,14,156,*67

$GAGSV,1,1,0,*74

$PQGSV,1,1,0,*73

$PQGSV,1,1,0,*73

$GNGSA,A,3,07,08,10,16,18,20,21,26,27,30,,,1.1,0.7,0.8,1*3D

$GNGSA,A,3,70,75,85,86,,,,,,,,,1.1,0.7,0.8,2*3B

$GNVTG,,T,,M,0.0,N,0.0,K,A*3D

$GNRMC,140248.00,A,5133.590615,N,00957.729240,E,0.0,,260619,0.0,E,A*0F

$GNGGA,140248.00,5133.590615,N,00957.729240,E,1,12,0.7,241.0,M,47.0,M,,*72

$GPGSV,4,1,13,08,39,295,36,10,56,137,37,16,43,195,36,20,55,085,38*78

$GPGSV,4,2,13,21,33,070,28,26,18,180,32,27,80,292,35,30,08,326,31*7A

$GPGSV,4,3,13,07,11,298,,11,01,268,,13,04,014,,15,12,043,*76

$GPGSV,4,4,13,18,13,250,*47

$GLGSV,2,1,08,70,43,106,33,86,50,299,37,76,35,262,33,75,11,216,33*62

$GLGSV,2,2,08,85,56,061,37,77,24,327,,84,05,087,,71,14,156,*67

$GAGSV,1,1,0,*74

$PQGSV,1,1,0,*73

$PQGSV,1,1,0,*73

$GNGSA,A,3,07,08,10,16,18,20,21,26,27,30,,,1.1,0.7,0.8,1*3D

$GNGSA,A,3,70,75,85,86,,,,,,,,,1.1,0.7,0.8,2*3B

$GNVTG,,T,,M,0.0,N,0.0,K,A*3D

$GNRMC,140248.00,A,5133.590615,N,00957.729240,E,0.0,,260619,0.0,E,A*0F

$GNGGA,140248.00,5133.590615,N,00957.729240,E,1,12,0.7,241.0,M,47.0,M,,*72

$GPGSV,4,1,13,08,39,295,35,10,56,137,36,11,01,268,24,16,43,195,37*74

$GPGSV,4,2,13,20,55,085,38,21,33,070,25,26,18,180,30,27,80,292,35*7F

$GPGSV,4,3,13,30,08,326,26,07,11,298,,13,04,014,,15,12,043,*73

$GPGSV,4,4,13,18,13,250,*47

$GLGSV,3,1,09,70,43,106,32,86,50,299,36,76,35,262,33,75,11,216,34*65

$GLGSV,3,2,09,69,27,033,27,85,56,061,37,77,24,327,,84,05,087,*69

$GLGSV,3,3,09,71,14,156,*5D

$GAGSV,1,1,0,*74

$PQGSV,1,1,0,*73

$PQGSV,1,1,0,*73

$GNGSA,A,3,07,08,10,16,18,20,21,26,27,30,,,1.1,0.7,0.8,1*3D

$GNGSA,A,3,70,75,85,86,,,,,,,,,1.1,0.7,0.8,2*3B

$GNVTG,,T,,M,0.0,N,0.0,K,A*3D

$GNRMC,140249.00,A,5133.590612,N,00957.729238,E,0.0,,260619,0.0,E,A*06

$GNGGA,140249.00,5133.590612,N,00957.729238,E,1,12,0.7,241.0,M,47.0,M,,*7B

$GPGSV,4,1,13,08,39,295,35,10,56,137,36,11,01,268,24,16,43,195,37*74

$GPGSV,4,2,13,20,55,085,38,21,33,070,25,26,18,180,30,27,80,292,35*7F

$GPGSV,4,3,13,30,08,326,26,07,11,298,,13,04,014,,15,12,043,*73

$GPGSV,4,4,13,18,13,250,*47

$GLGSV,3,1,09,70,43,106,32,86,50,299,36,76,35,262,33,75,11,216,34*65

$GLGSV,3,2,09,69,27,033,27,85,56,061,37,77,24,327,,84,05,087,*69

$GLGSV,3,3,09,71,14,156,*5D

$GAGSV,1,1,0,*74

$PQGSV,1,1,0,*73

$PQGSV,1,1,0,*73

$GNGSA,A,3,07,08,10,16,18,20,21,26,27,30,,,1.1,0.7,0.8,1*3D

$GNGSA,A,3,70,75,85,86,,,,,,,,,1.1,0.7,0.8,2*3B

$GNVTG,,T,,M,0.0,N,0.0,K,A*3D

$GNRMC,140249.00,A,5133.590612,N,00957.729238,E,0.0,,260619,0.0,E,A*06

$GNGGA,140249.00,5133.590612,N,00957.729238,E,1,12,0.7,241.0,M,47.0,M,,*7B

$GPGSV,3,1,11,07,11,298,26,08,39,295,33,10,56,137,31,16,43,195,35*79

$GPGSV,3,2,11,20,55,085,39,21,33,070,29,26,18,180,32,27,80,292,33*73

$GPGSV,3,3,11,13,04,014,,15,12,043,,18,13,250,*46

$GLGSV,2,1,08,70,43,106,35,86,50,299,35,76,35,262,37,75,11,216,31*60

$GLGSV,2,2,08,85,56,061,34,77,24,327,,84,05,087,,71,14,156,*64

$GAGSV,1,1,0,*74

$PQGSV,1,1,0,*73

$PQGSV,1,1,0,*73

$GNGSA,A,3,07,08,10,16,18,20,21,26,27,,,,1.1,0.7,0.8,1*3E

$GNGSA,A,3,70,75,85,86,,,,,,,,,1.1,0.7,0.8,2*3B

$GNVTG,,T,,M,0.0,N,0.0,K,A*3D

$GNRMC,140250.00,A,5133.590612,N,00957.729239,E,0.0,,260619,0.0,E,A*0F

$GNGGA,140250.00,5133.590612,N,00957.729239,E,1,12,0.7,241.0,M,47.0,M,,*72

$GPGSV,3,1,11,07,11,298,26,08,39,295,33,10,56,137,31,16,43,195,35*79

$GPGSV,3,2,11,20,55,085,39,21,33,070,29,26,18,180,32,27,80,292,33*73

$GPGSV,3,3,11,13,04,014,,15,12,043,,18,13,250,*46

$GLGSV,2,1,08,70,43,106,35,86,50,299,35,76,35,262,37,75,11,216,31*60

$GLGSV,2,2,08,85,56,061,34,77,24,327,,84,05,087,,71,14,156,*64

$GAGSV,1,1,0,*74

$PQGSV,1,1,0,*73

$PQGSV,1,1,0,*73

$GNGSA,A,3,07,08,10,16,18,20,21,26,27,,,,1.1,0.7,0.8,1*3E

$GNGSA,A,3,70,75,85,86,,,,,,,,,1.1,0.7,0.8,2*3B

$GNVTG,,T,,M,0.0,N,0.0,K,A*3D

$GNRMC,140250.00,A,5133.590612,N,00957.729239,E,0.0,,260619,0.0,E,A*0F

$GNGGA,140250.00,5133.590612,N,00957.729239,E,1,12,0.7,241.0,M,47.0,M,,*72

$GPGSV,3,1,12,08,39,295,32,10,56,137,35,16,43,195,35,18,13,250,27*76

$GPGSV,3,2,12,20,55,085,38,21,33,070,25,26,18,180,25,27,80,292,38*70

$GPGSV,3,3,12,11,01,268,,13,04,014,,15,12,043,,30,08,326,*78

$GLGSV,3,1,09,70,43,106,30,86,50,299,28,76,35,262,39,75,11,216,32*64

$GLGSV,3,2,09,69,27,033,23,85,56,061,33,77,24,327,,84,05,087,*69

$GLGSV,3,3,09,71,14,156,*5D

$GAGSV,1,1,0,*74

$PQGSV,1,1,0,*73

$PQGSV,1,1,0,*73

$GNGSA,A,3,08,10,16,18,20,21,26,27,30,,,,1.1,0.7,0.8,1*3A

$GNGSA,A,3,70,75,85,86,,,,,,,,,1.1,0.7,0.8,2*3B

$GNVTG,,T,,M,0.0,N,0.0,K,A*3D

$GNRMC,140251.00,A,5133.590611,N,00957.729239,E,0.0,,260619,0.0,E,A*0D

$GNGGA,140251.00,5133.590611,N,00957.729239,E,1,12,0.7,241.0,M,47.0,M,,*70

$GPGSV,3,1,12,08,39,295,32,10,56,137,35,16,43,195,35,18,13,250,27*76

$GPGSV,3,2,12,20,55,085,38,21,33,070,25,26,18,180,25,27,80,292,38*70

$GPGSV,3,3,12,11,01,268,,13,04,014,,15,12,043,,30,08,326,*78

$GLGSV,3,1,09,70,43,106,30,86,50,299,28,76,35,262,39,75,11,216,32*64

$GLGSV,3,2,09,69,27,033,23,85,56,061,33,77,24,327,,84,05,087,*69

$GLGSV,3,3,09,71,14,156,*5D

$GAGSV,1,1,0,*74

$PQGSV,1,1,0,*73

$PQGSV,1,1,0,*73

$GNGSA,A,3,08,10,16,18,20,21,26,27,30,,,,1.1,0.7,0.8,1*3A

$GNGSA,A,3,70,75,85,86,,,,,,,,,1.1,0.7,0.8,2*3B

$GNVTG,,T,,M,0.0,N,0.0,K,A*3D

$GNRMC,140251.00,A,5133.590611,N,00957.729239,E,0.0,,260619,0.0,E,A*0D

$GNGGA,140251.00,5133.590611,N,00957.729239,E,1,12,0.7,241.0,M,47.0,M,,*70

$GPGSV,3,1,12,10,56,137,38,16,43,195,35,18,13,250,28,20,55,085,34*71

$GPGSV,3,2,12,21,33,070,23,26,18,180,26,27,80,292,37,07,11,298,*7A

$GPGSV,3,3,12,11,01,268,,13,04,014,,15,12,043,,30,08,326,*78

$GLGSV,3,1,09,70,43,106,30,86,50,299,25,76,35,262,39,75,11,216,33*68

$GLGSV,3,2,09,69,27,033,28,85,56,061,37,77,24,327,,84,05,087,*66

$GLGSV,3,3,09,71,14,156,*5D

$GAGSV,1,1,0,*74

$PQGSV,1,1,0,*73

$PQGSV,1,1,0,*73

$GNGSA,A,3,07,10,16,18,20,21,26,27,30,,,,1.1,0.7,0.8,1*35

$GNGSA,A,3,70,75,85,86,,,,,,,,,1.1,0.7,0.8,2*3B

$GNVTG,,T,,M,0.0,N,0.0,K,A*3D

$GNRMC,140252.00,A,5133.590611,N,00957.729240,E,0.0,,260619,0.0,E,A*00

$GNGGA,140252.00,5133.590611,N,00957.729240,E,1,12,0.7,241.0,M,47.0,M,,*7D

$GPGSV,3,1,12,10,56,137,38,16,43,195,35,18,13,250,28,20,55,085,34*71

$GPGSV,3,2,12,21,33,070,23,26,18,180,26,27,80,292,37,07,11,298,*7A

$GPGSV,3,3,12,11,01,268,,13,04,014,,15,12,043,,30,08,326,*78

$GLGSV,3,1,09,70,43,106,30,86,50,299,25,76,35,262,39,75,11,216,33*68

$GLGSV,3,2,09,69,27,033,28,85,56,061,37,77,24,327,,84,05,087,*66

$GLGSV,3,3,09,71,14,156,*5D

$GAGSV,1,1,0,*74

$PQGSV,1,1,0,*73

$PQGSV,1,1,0,*73

$GNGSA,A,3,07,10,16,18,20,21,26,27,30,,,,1.1,0.7,0.8,1*35

$GNGSA,A,3,70,75,85,86,,,,,,,,,1.1,0.7,0.8,2*3B

$GNVTG,,T,,M,0.0,N,0.0,K,A*3D

$GNRMC,140252.00,A,5133.590611,N,00957.729240,E,0.0,,260619,0.0,E,A*00

$GNGGA,140252.00,5133.590611,N,00957.729240,E,1,12,0.7,241.0,M,47.0,M,,*7D

$GPGSV,3,1,12,10,56,137,38,16,43,195,35,18,13,250,28,20,55,085,34*71

$GPGSV,3,2,12,21,33,070,23,26,18,180,26,27,80,292,37,07,11,298,*7A

$GPGSV,3,3,12,11,01,268,,13,04,014,,15,12,043,,30,08,326,*78

$GLGSV,3,1,09,70,43,106,30,86,50,299,25,76,35,262,39,75,11,216,33*68

$GLGSV,3,2,09,69,27,033,28,85,56,061,37,77,24,327,,84,05,087,*66

$GLGSV,3,3,09,71,14,156,*5D

$GAGSV,1,1,0,*74

$PQGSV,1,1,0,*73

$PQGSV,1,1,0,*73

$GNGSA,A,3,07,10,16,18,20,21,26,27,30,,,,1.1,0.7,0.8,1*35

$GNGSA,A,3,70,75,85,86,,,,,,,,,1.1,0.7,0.8,2*3B

$GNVTG,,T,,M,0.0,N,0.0,K,A*3D

$GNRMC,140253.00,A,5133.590612,N,00957.729241,E,0.0,,260619,0.0,E,A*03

$GNGGA,140253.00,5133.590612,N,00957.729241,E,1,12,0.7,241.0,M,47.0,M,,*7E

$GPGSV,3,1,12,10,56,137,38,16,43,195,35,18,13,250,28,20,55,085,34*71

$GPGSV,3,2,12,21,33,070,23,26,18,180,26,27,80,292,37,07,11,298,*7A

$GPGSV,3,3,12,11,01,268,,13,04,014,,15,12,043,,30,08,326,*78

$GLGSV,3,1,09,70,43,106,30,86,50,299,25,76,35,262,39,75,11,216,33*68

$GLGSV,3,2,09,69,27,033,28,85,56,061,37,77,24,327,,84,05,087,*66

$GLGSV,3,3,09,71,14,156,*5D

$GAGSV,1,1,0,*74

$PQGSV,1,1,0,*73

$PQGSV,1,1,0,*73

$GNGSA,A,3,07,10,16,18,20,21,26,27,30,,,,1.1,0.7,0.8,1*35

$GNGSA,A,3,70,75,85,86,,,,,,,,,1.1,0.7,0.8,2*3B

$GNVTG,,T,,M,0.0,N,0.0,K,A*3D

$GNRMC,140253.00,A,5133.590612,N,00957.729241,E,0.0,,260619,0.0,E,A*03

$GNGGA,140253.00,5133.590612,N,00957.729241,E,1,12,0.7,241.0,M,47.0,M,,*7E

$GPGSV,4,1,13,10,56,137,39,16,43,195,36,18,13,250,25,20,55,085,30*7C

$GPGSV,4,2,13,21,33,070,27,26,18,180,26,27,80,292,39,07,11,298,*76

$GPGSV,4,3,13,08,39,295,,11,01,268,,13,04,014,,15,12,043,*7E

$GPGSV,4,4,13,30,08,326,*47

$GLGSV,3,1,09,70,43,106,30,86,50,299,34,76,35,262,39,75,11,216,33*68

$GLGSV,3,2,09,69,27,033,27,85,56,061,36,77,24,327,,84,05,087,*68

$GLGSV,3,3,09,71,14,156,*5D

$GAGSV,2,1,08,02,09,192,,04,10,026,,05,18,132,,09,29,077,*6D

$GAGSV,2,2,08,15,26,267,,27,31,303,,30,38,239,,36,42,077,*67

$PQGSV,1,1,0,*73

$PQGSV,3,1,11,02,02,101,,05,16,122,,06,21,057,,09,20,085,,0,4*6B

$PQGSV,3,2,11,11,23,098,,13,04,071,,14,41,075,,16,23,063,,0,4*6B

$PQGSV,3,3,11,21,11,032,,27,19,282,,28,73,293,,0,4*5A

$GNGSA,A,3,07,08,10,16,18,20,21,26,27,30,,,1.1,0.7,0.8,1*3D

$GNGSA,A,3,70,75,85,86,,,,,,,,,1.1,0.7,0.8,2*3B

$GNVTG,,T,,M,0.0,N,0.0,K,A*3D

$GNRMC,140254.00,A,5133.590611,N,00957.729241,E,0.0,,260619,0.0,E,A*07

$GNGGA,140254.00,5133.590611,N,00957.729241,E,1,12,0.7,241.0,M,47.0,M,,*7A

$GPGSV,4,1,13,10,56,137,39,16,43,195,36,18,13,250,25,20,55,085,30*7C

$GPGSV,4,2,13,21,33,070,27,26,18,180,26,27,80,292,39,07,11,298,*76

$GPGSV,4,3,13,08,39,295,,11,01,268,,13,04,014,,15,12,043,*7E

$GPGSV,4,4,13,30,08,326,*47

$GLGSV,3,1,09,70,43,106,30,86,50,299,34,76,35,262,39,75,11,216,33*68

$GLGSV,3,2,09,69,27,033,27,85,56,061,36,77,24,327,,84,05,087,*68

$GLGSV,3,3,09,71,14,156,*5D

$GAGSV,2,1,08,02,09,192,,04,10,026,,05,18,132,,09,29,077,*6D

$GAGSV,2,2,08,15,26,267,,27,31,303,,30,38,239,,36,42,077,*67

$PQGSV,1,1,0,*73

$PQGSV,3,1,11,02,02,101,,05,16,122,,06,21,057,,09,20,085,,0,4*6B

$PQGSV,3,2,11,11,23,098,,13,04,071,,14,41,075,,16,23,063,,0,4*6B

$PQGSV,3,3,11,21,11,032,,27,19,282,,28,73,293,,0,4*5A

$GNGSA,A,3,07,08,10,16,18,20,21,26,27,30,,,1.1,0.7,0.8,1*3D

$GNGSA,A,3,70,75,85,86,,,,,,,,,1.1,0.7,0.8,2*3B

$GNVTG,,T,,M,0.0,N,0.0,K,A*3D

$GNRMC,140254.00,A,5133.590611,N,00957.729241,E,0.0,,260619,0.0,E,A*07

$GNGGA,140254.00,5133.590611,N,00957.729241,E,1,12,0.7,241.0,M,47.0,M,,*7A

$GPGSV,4,1,13,08,39,295,30,10,56,137,39,15,12,043,25,16,43,195,34*71

$GPGSV,4,2,13,18,13,250,24,20,55,085,32,21,33,070,23,26,18,180,29*73

$GPGSV,4,3,13,27,80,292,38,07,11,298,,11,01,268,,13,04,014,*79

$GPGSV,4,4,13,30,08,326,*47

$GLGSV,3,1,09,70,43,106,32,86,50,299,32,76,35,262,39,75,11,216,35*6A

$GLGSV,3,2,09,69,27,033,29,85,56,061,35,77,24,327,,84,05,087,*65

$GLGSV,3,3,09,71,14,156,*5D

$GAGSV,1,1,0,*74

$PQGSV,1,1,0,*73

$PQGSV,1,1,0,*73

$GPGSV,4,1,13,08,39,295,30,10,56,137,39,15,12,043,25,16,43,195,34*71

$GPGSV,4,2,13,18,13,250,24,20,55,085,32,21,33,070,23,26,18,180,29*73

$GPGSV,4,3,13,27,80,292,38,07,11,298,,11,01,268,,13,04,014,*79

$GPGSV,4,4,13,30,08,326,*47

$GLGSV,3,1,09,70,43,106,32,86,50,299,32,76,35,262,39,75,11,216,35*6A

$GLGSV,3,2,09,69,27,033,29,85,56,061,35,77,24,327,,84,05,087,*65

$GLGSV,3,3,09,71,14,156,*5D

$GAGSV,1,1,0,*74

$PQGSV,1,1,0,*73

$PQGSV,1,1,0,*73

$GNGSA,A,3,07,08,10,16,18,20,21,26,27,30,,,1.0,0.7,0.7,1*33

$GNGSA,A,3,70,75,85,86,,,,,,,,,1.0,0.7,0.7,2*35

$GNVTG,,T,,M,0.0,N,0.0,K,A*3D

$GNRMC,140255.00,A,5133.590611,N,00957.729241,E,0.0,,260619,0.0,E,A*06

$GNGGA,140255.00,5133.590611,N,00957.729241,E,1,12,0.7,241.0,M,47.0,M,,*7B

$GNGSA,A,3,07,08,10,16,18,20,21,26,27,30,,,1.0,0.7,0.7,1*33

$GNGSA,A,3,70,75,85,86,,,,,,,,,1.0,0.7,0.7,2*35

$GNVTG,,T,,M,0.0,N,0.0,K,A*3D

$GNRMC,140255.00,A,5133.590611,N,00957.729241,E,0.0,,260619,0.0,E,A*06

$GNGGA,140255.00,5133.590611,N,00957.729241,E,1,12,0.7,241.0,M,47.0,M,,*7B

$GPGSV,4,1,13,08,39,295,31,10,56,137,38,15,12,043,24,16,43,195,35*71

$GPGSV,4,2,13,18,13,250,30,20,55,085,34,21,33,070,23,26,18,180,27*7E

$GPGSV,4,3,13,27,80,292,38,07,11,298,,11,01,268,,13,04,014,*79

$GPGSV,4,4,13,30,08,326,*47

$GLGSV,3,1,09,70,43,106,33,86,50,299,26,76,35,262,39,75,11,216,36*6D

$GLGSV,3,2,09,69,27,033,28,85,56,061,36,77,24,327,,84,05,087,*67

$GLGSV,3,3,09,71,14,156,*5D

$GAGSV,1,1,0,*74

$PQGSV,1,1,0,*73

$PQGSV,1,1,0,*73

$GNGSA,A,3,07,08,10,15,16,18,20,21,26,27,,,1.1,0.8,0.7,1*3A

$GNGSA,A,3,70,75,85,86,,,,,,,,,1.1,0.8,0.7,2*3B

$GNVTG,,T,,M,0.0,N,0.0,K,A*3D

$GNRMC,140256.00,A,5133.590610,N,00957.729239,E,0.0,,260619,0.0,E,A*0B

$GNGGA,140256.00,5133.590610,N,00957.729239,E,1,12,0.8,241.0,M,47.0,M,,*79

$GPGSV,4,1,13,08,39,295,31,10,56,137,38,15,12,043,24,16,43,195,35*71

$GPGSV,4,2,13,18,13,250,30,20,55,085,34,21,33,070,23,26,18,180,27*7E

$GPGSV,4,3,13,27,80,292,38,07,11,298,,11,01,268,,13,04,014,*79

$GPGSV,4,4,13,30,08,326,*47

$GLGSV,3,1,09,70,43,106,33,86,50,299,26,76,35,262,39,75,11,216,36*6D

$GLGSV,3,2,09,69,27,033,28,85,56,061,36,77,24,327,,84,05,087,*67

$GLGSV,3,3,09,71,14,156,*5D

$GAGSV,1,1,0,*74

$PQGSV,1,1,0,*73

$PQGSV,1,1,0,*73

$GNGSA,A,3,07,08,10,15,16,18,20,21,26,27,,,1.1,0.8,0.7,1*3A

$GNGSA,A,3,70,75,85,86,,,,,,,,,1.1,0.8,0.7,2*3B

$GNVTG,,T,,M,0.0,N,0.0,K,A*3D

$GNRMC,140256.00,A,5133.590610,N,00957.729239,E,0.0,,260619,0.0,E,A*0B

$GNGGA,140256.00,5133.590610,N,00957.729239,E,1,12,0.8,241.0,M,47.0,M,,*79

$GPGSV,4,1,13,08,39,295,24,10,56,137,39,15,12,043,25,16,43,195,33*73

$GPGSV,4,2,13,18,13,250,34,20,55,085,33,21,33,070,25,26,18,180,24*78

$GPGSV,4,3,13,27,80,292,38,07,11,298,,11,01,268,,13,04,014,*79

$GPGSV,4,1,13,08,39,295,24,10,56,137,39,15,12,043,25,16,43,195,33*73

$GPGSV,4,2,13,18,13,250,34,20,55,085,33,21,33,070,25,26,18,180,24*78

$GPGSV,4,3,13,27,80,292,38,07,11,298,,11,01,268,,13,04,014,*79

$GPGSV,4,4,13,30,08,326,*47

$GLGSV,2,1,08,70,43,106,34,76,35,262,38,75,11,216,36,69,27,033,32*6D

$GLGSV,2,2,08,85,56,061,37,71,14,156,24,77,24,327,,84,05,087,*61

$GAGSV,1,1,0,*74

$PQGSV,1,1,0,*73

$PQGSV,1,1,0,*73

$GNGSA,A,3,08,10,15,16,18,20,21,26,27,,,,1.0,0.7,0.7,1*33

$GNGSA,A,2,70,75,85,,,,,,,,,,1.0,0.7,0.7,2*3A

$GNVTG,,T,,M,0.0,N,0.0,K,A*3D

$GNRMC,140257.00,A,5133.590611,N,00957.729238,E,0.0,,260619,0.0,E,A*0A

$GNGGA,140257.00,5133.590611,N,00957.729238,E,1,12,0.7,241.0,M,47.0,M,,*77

$GPGSV,4,4,13,30,08,326,*47

$GLGSV,2,1,08,70,43,106,34,76,35,262,38,75,11,216,36,69,27,033,32*6D

$GLGSV,2,2,08,85,56,061,37,71,14,156,24,77,24,327,,84,05,087,*61

$GAGSV,1,1,0,*74

$PQGSV,1,1,0,*73

$PQGSV,1,1,0,*73

$GNGSA,A,3,08,10,15,16,18,20,21,26,27,,,,1.0,0.7,0.7,1*33

$GNGSA,A,2,70,75,85,,,,,,,,,,1.0,0.7,0.7,2*3A

$GNVTG,,T,,M,0.0,N,0.0,K,A*3D

$GNRMC,140257.00,A,5133.590611,N,00957.729238,E,0.0,,260619,0.0,E,A*0A

$GNGGA,140257.00,5133.590611,N,00957.729238,E,1,12,0.7,241.0,M,47.0,M,,*77

$GPGSV,4,1,13,08,39,295,27,10,56,137,39,15,12,043,26,16,43,195,34*74

$GPGSV,4,2,13,18,13,250,34,20,55,085,34,21,33,070,23,26,18,180,26*7B

$GPGSV,4,3,13,27,80,292,37,07,11,298,,11,01,268,,13,04,014,*76

$GPGSV,4,4,13,30,08,326,*47

$GLGSV,2,1,08,70,43,106,33,76,35,262,37,75,11,216,35,69,27,033,32*66

$GLGSV,2,2,08,85,56,061,35,71,14,156,20,77,24,327,,84,05,087,*67

$GAGSV,2,1,08,02,09,192,,04,10,026,,05,18,132,,09,29,077,*6D

$GAGSV,2,2,08,15,26,267,,27,31,303,,30,38,239,,36,42,077,*67

$PQGSV,1,1,0,*73

$PQGSV,3,1,11,02,02,101,,05,16,122,,06,21,057,,09,20,085,,0,4*6B

$PQGSV,3,2,11,11,23,098,,13,04,071,,14,41,075,,16,23,063,,0,4*6B

$PQGSV,3,3,11,21,11,032,,27,19,282,,28,73,293,,0,4*5A

$GNGSA,A,3,08,10,15,16,18,20,21,26,27,,,,1.0,0.7,0.7,1*33

$GNGSA,A,3,70,71,75,85,,,,,,,,,1.0,0.7,0.7,2*3D

$GNVTG,,T,,M,0.0,N,0.0,K,A*3D

$GNRMC,140258.00,A,5133.590611,N,00957.729238,E,0.0,,260619,0.0,E,A*05

$GNGGA,140258.00,5133.590611,N,00957.729238,E,1,12,0.7,241.0,M,47.0,M,,*78

$GPGSV,4,1,13,08,39,295,27,10,56,137,39,15,12,043,26,16,43,195,34*74

$GPGSV,4,2,13,18,13,250,34,20,55,085,34,21,33,070,23,26,18,180,26*7B

$GPGSV,4,3,13,27,80,292,37,07,11,298,,11,01,268,,13,04,014,*76

$GPGSV,4,4,13,30,08,326,*47

$GLGSV,2,1,08,70,43,106,33,76,35,262,37,75,11,216,35,69,27,033,32*66

$GLGSV,2,2,08,85,56,061,35,71,14,156,20,77,24,327,,84,05,087,*67

$GAGSV,2,1,08,02,09,192,,04,10,026,,05,18,132,,09,29,077,*6D

$GAGSV,2,2,08,15,26,267,,27,31,303,,30,38,239,,36,42,077,*67

$PQGSV,1,1,0,*73

$PQGSV,3,1,11,02,02,101,,05,16,122,,06,21,057,,09,20,085,,0,4*6B

$PQGSV,3,2,11,11,23,098,,13,04,071,,14,41,075,,16,23,063,,0,4*6B

$PQGSV,3,3,11,21,11,032,,27,19,282,,28,73,293,,0,4*5A

$GNGSA,A,3,08,10,15,16,18,20,21,26,27,,,,1.0,0.7,0.7,1*33

$GNGSA,A,3,70,71,75,85,,,,,,,,,1.0,0.7,0.7,2*3D

$GNVTG,,T,,M,0.0,N,0.0,K,A*3D

$GNRMC,140258.00,A,5133.590611,N,00957.729238,E,0.0,,260619,0.0,E,A*05

$GNGGA,140258.00,5133.590611,N,00957.729238,E,1,12,0.7,241.0,M,47.0,M,,*78

$GPGSV,4,1,13,07,11,298,24,08,39,295,28,10,56,137,38,15,12,043,25*71

$GPGSV,4,2,13,16,43,195,33,18,13,250,28,20,55,085,32,21,33,070,23*7D

$GPGSV,4,3,13,26,18,180,25,27,80,292,37,11,01,268,,13,04,014,*71

$GPGSV,4,4,13,30,08,326,*47

$GLGSV,2,1,08,70,43,106,33,76,35,262,37,75,11,216,35,69,27,033,32*66

$GLGSV,2,2,08,85,56,061,35,71,14,156,20,77,24,327,,84,05,087,*67

$GAGSV,2,1,08,02,09,192,,04,10,026,,05,18,132,,09,29,077,*6D

$GAGSV,2,2,08,15,26,267,,27,31,303,,30,38,239,,36,42,077,*67

$PQGSV,1,1,0,*73

$PQGSV,3,1,11,02,02,101,,05,16,122,,06,21,057,,09,20,085,,0,4*6B

$PQGSV,3,2,11,11,23,098,,13,04,071,,14,41,075,,16,23,063,,0,4*6B

$PQGSV,3,3,11,21,11,032,,27,19,282,,28,73,293,,0,4*5A

$GNGSA,A,3,08,10,15,16,18,20,21,26,27,,,,1.0,0.7,0.7,1*33

$GNGSA,A,3,70,71,75,85,,,,,,,,,1.0,0.7,0.7,2*3D

$GNVTG,,T,,M,0.0,N,0.0,K,A*3D

$GNRMC,140259.00,A,5133.590611,N,00957.729236,E,0.0,,260619,0.0,E,A*0A

$GNGGA,140259.00,5133.590611,N,00957.729236,E,1,12,0.7,241.0,M,47.0,M,,*77

$GPGSV,4,1,13,07,11,298,24,08,39,295,28,10,56,137,38,15,12,043,25*71

$GPGSV,4,2,13,16,43,195,33,18,13,250,28,20,55,085,32,21,33,070,23*7D

$GPGSV,4,3,13,26,18,180,25,27,80,292,37,11,01,268,,13,04,014,*71

$GPGSV,4,4,13,30,08,326,*47

$GLGSV,2,1,08,70,43,106,33,76,35,262,37,75,11,216,35,69,27,033,32*66

$GLGSV,2,2,08,85,56,061,35,71,14,156,20,77,24,327,,84,05,087,*67

$GAGSV,2,1,08,02,09,192,,04,10,026,,05,18,132,,09,29,077,*6D

$GAGSV,2,2,08,15,26,267,,27,31,303,,30,38,239,,36,42,077,*67

$PQGSV,1,1,0,*73

$PQGSV,3,1,11,02,02,101,,05,16,122,,06,21,057,,09,20,085,,0,4*6B

$PQGSV,3,2,11,11,23,098,,13,04,071,,14,41,075,,16,23,063,,0,4*6B

$PQGSV,3,3,11,21,11,032,,27,19,282,,28,73,293,,0,4*5A

$GNGSA,A,3,08,10,15,16,18,20,21,26,27,,,,1.0,0.7,0.7,1*33

$GNGSA,A,3,70,71,75,85,,,,,,,,,1.0,0.7,0.7,2*3D

$GNVTG,,T,,M,0.0,N,0.0,K,A*3D

$GNRMC,140259.00,A,5133.590611,N,00957.729236,E,0.0,,260619,0.0,E,A*0A

$GNGGA,140259.00,5133.590611,N,00957.729236,E,1,12,0.7,241.0,M,47.0,M,,*77

$GPGSV,3,1,12,08,39,295,29,10,56,137,39,15,12,043,28,16,43,195,33*75

$GPGSV,3,2,12,18,13,250,28,20,55,085,33,21,33,070,24,26,18,180,25*73

$GPGSV,3,3,12,27,80,292,36,30,08,326,21,11,01,268,,13,04,014,*7A

$GLGSV,3,1,09,70,43,106,33,86,50,299,28,76,35,262,38,75,11,216,37*63

$GLGSV,3,2,09,69,27,033,30,85,56,061,36,71,14,156,23,77,24,327,*68

$GLGSV,3,3,09,84,05,087,*5A

$GAGSV,1,1,0,*74

$PQGSV,1,1,0,*73

$PQGSV,1,1,0,*73

$GNGSA,A,3,08,10,15,16,18,20,21,26,27,,,,0.9,0.6,0.7,1*3A

$GNGSA,A,3,70,71,75,85,86,,,,,,,,0.9,0.6,0.7,2*3A

$GNVTG,,T,,M,0.0,N,0.0,K,A*3D

$GNRMC,140300.00,A,5133.590612,N,00957.729238,E,0.0,,260619,0.0,E,A*0A

$GNGGA,140300.00,5133.590612,N,00957.729238,E,1,12,0.6,241.0,M,47.0,M,,*76

$GPGSV,3,1,12,08,39,295,29,10,56,137,39,15,12,043,28,16,43,195,33*75

$GPGSV,3,2,12,18,13,250,28,20,55,085,33,21,33,070,24,26,18,180,25*73

$GPGSV,3,3,12,27,80,292,36,30,08,326,21,11,01,268,,13,04,014,*7A

$GLGSV,3,1,09,70,43,106,33,86,50,299,28,76,35,262,38,75,11,216,37*63

$GLGSV,3,2,09,69,27,033,30,85,56,061,36,71,14,156,23,77,24,327,*68

$GLGSV,3,3,09,84,05,087,*5A

$GAGSV,1,1,0,*74

$PQGSV,1,1,0,*73

$PQGSV,1,1,0,*73

$GNGSA,A,3,08,10,15,16,18,20,21,26,27,,,,0.9,0.6,0.7,1*3A

$GNGSA,A,3,70,71,75,85,86,,,,,,,,0.9,0.6,0.7,2*3A

$GNVTG,,T,,M,0.0,N,0.0,K,A*3D

$GNRMC,140300.00,A,5133.590612,N,00957.729238,E,0.0,,260619,0.0,E,A*0A

$GNGGA,140300.00,5133.590612,N,00957.729238,E,1,12,0.6,241.0,M,47.0,M,,*76

$GPGSV,3,1,11,08,39,295,27,10,56,137,38,15,12,043,29,16,43,195,35*7E

$GPGSV,3,2,11,18,13,250,30,20,55,085,33,27,80,292,37,30,08,326,21*77

$GPGSV,3,3,11,07,11,298,,11,01,268,,13,04,014,*43

$GLGSV,3,1,09,70,43,106,34,86,50,299,25,76,35,262,38,75,11,216,37*69

$GLGSV,3,2,09,69,27,033,32,85,56,061,37,71,14,156,23,77,24,327,*6B

$GLGSV,3,3,09,84,05,087,*5A

$GAGSV,1,1,0,*74

$PQGSV,1,1,0,*73

$PQGSV,1,1,0,*73

$GNGSA,A,3,07,08,10,15,16,18,20,27,30,,,,0.9,0.6,0.7,1*39

$GNGSA,A,3,70,71,75,85,86,,,,,,,,0.9,0.6,0.7,2*3A

$GNVTG,,T,,M,0.0,N,0.0,K,A*3D

$GNRMC,140301.00,A,5133.590612,N,00957.729238,E,0.0,,260619,0.0,E,A*0B

$GNGGA,140301.00,5133.590612,N,00957.729238,E,1,12,0.6,241.0,M,47.0,M,,*77

$GPGSV,3,1,11,08,39,295,27,10,56,137,38,15,12,043,29,16,43,195,35*7E

$GPGSV,3,2,11,18,13,250,30,20,55,085,33,27,80,292,37,30,08,326,21*77

$GPGSV,3,3,11,07,11,298,,11,01,268,,13,04,014,*43

$GLGSV,3,1,09,70,43,106,34,86,50,299,25,76,35,262,38,75,11,216,37*69

$GLGSV,3,2,09,69,27,033,32,85,56,061,37,71,14,156,23,77,24,327,*6B

$GLGSV,3,3,09,84,05,087,*5A

$GAGSV,1,1,0,*74

$PQGSV,1,1,0,*73

$PQGSV,1,1,0,*73

$GNGSA,A,3,07,08,10,15,16,18,20,27,30,,,,0.9,0.6,0.7,1*39

$GNGSA,A,3,70,71,75,85,86,,,,,,,,0.9,0.6,0.7,2*3A

$GNVTG,,T,,M,0.0,N,0.0,K,A*3D

$GNRMC,140301.00,A,5133.590612,N,00957.729238,E,0.0,,260619,0.0,E,A*0B

$GNGGA,140301.00,5133.590612,N,00957.729238,E,1,12,0.6,241.0,M,47.0,M,,*77

$GPGSV,4,1,13,07,11,298,25,08,39,295,30,10,56,137,38,15,12,043,29*75

$GPGSV,4,2,13,16,43,195,35,18,13,250,28,20,55,085,29,26,18,180,26*74

$GPGSV,4,3,13,27,80,292,38,30,08,326,24,11,01,268,,13,04,014,*77

$GPGSV,4,4,13,21,33,070,*4F

$GLGSV,3,1,09,70,43,106,33,86,50,299,28,76,35,262,38,75,11,216,35*61

$GLGSV,3,2,09,69,27,033,29,85,56,061,36,77,24,327,,84,05,087,*66

$GLGSV,3,3,09,71,14,156,*5D

$GAGSV,1,1,0,*74

$PQGSV,1,1,0,*73

$PQGSV,1,1,0,*73

$GNGSA,A,3,07,08,10,15,16,18,20,21,26,27,30,,0.9,0.6,0.7,1*3E

$GNGSA,A,3,70,71,75,85,86,,,,,,,,0.9,0.6,0.7,2*3A

$GNVTG,,T,,M,0.0,N,0.0,K,A*3D

$GNRMC,140302.00,A,5133.590612,N,00957.729238,E,0.0,,260619,0.0,E,A*08

$GNGGA,140302.00,5133.590612,N,00957.729238,E,1,12,0.6,241.0,M,47.0,M,,*74

$GPGSV,4,1,13,07,11,298,25,08,39,295,30,10,56,137,38,15,12,043,29*75

$GPGSV,4,2,13,16,43,195,35,18,13,250,28,20,55,085,29,26,18,180,26*74

$GPGSV,4,3,13,27,80,292,38,30,08,326,24,11,01,268,,13,04,014,*77

$GPGSV,4,4,13,21,33,070,*4F

$GLGSV,3,1,09,70,43,106,33,86,50,299,28,76,35,262,38,75,11,216,35*61

$GLGSV,3,2,09,69,27,033,29,85,56,061,36,77,24,327,,84,05,087,*66

$GLGSV,3,3,09,71,14,156,*5D

$GAGSV,1,1,0,*74

$PQGSV,1,1,0,*73

$PQGSV,1,1,0,*73

$GNGSA,A,3,07,08,10,15,16,18,20,21,26,27,30,,0.9,0.6,0.7,1*3E

$GNGSA,A,3,70,71,75,85,86,,,,,,,,0.9,0.6,0.7,2*3A

$GNVTG,,T,,M,0.0,N,0.0,K,A*3D

$GNRMC,140302.00,A,5133.590612,N,00957.729238,E,0.0,,260619,0.0,E,A*08

$GNGGA,140302.00,5133.590612,N,00957.729238,E,1,12,0.6,241.0,M,47.0,M,,*74

$GPGSV,4,1,13,07,11,298,26,08,39,295,34,10,56,137,38,15,12,043,30*7A

$GPGSV,4,2,13,16,43,195,34,18,13,250,31,20,55,085,28,26,18,180,24*7E

$GPGSV,4,3,13,27,80,292,38,30,08,326,26,11,01,268,,13,04,014,*75

$GPGSV,4,4,13,21,33,070,*4F

$GLGSV,3,1,09,70,43,106,34,86,50,299,28,76,35,262,38,75,11,216,35*66

$GLGSV,3,2,09,69,27,033,30,85,56,061,36,77,24,327,,84,05,087,*6E

$GLGSV,3,3,09,71,14,156,*5D

$GAGSV,1,1,0,*74

$PQGSV,1,1,0,*73

$PQGSV,1,1,0,*73

$GPGSV,4,1,13,07,11,298,26,08,39,295,34,10,56,137,38,15,12,043,30*7A

$GPGSV,4,2,13,16,43,195,34,18,13,250,31,20,55,085,28,26,18,180,24*7E

$GPGSV,4,3,13,27,80,292,38,30,08,326,26,11,01,268,,13,04,014,*75

$GPGSV,4,4,13,21,33,070,*4F

$GLGSV,3,1,09,70,43,106,34,86,50,299,28,76,35,262,38,75,11,216,35*66

$GLGSV,3,2,09,69,27,033,30,85,56,061,36,77,24,327,,84,05,087,*6E

$GLGSV,3,3,09,71,14,156,*5D

$GAGSV,1,1,0,*74

$PQGSV,1,1,0,*73

$PQGSV,1,1,0,*73

$GNGSA,A,3,07,08,10,15,16,18,20,21,26,27,30,,0.9,0.6,0.7,1*3E

$GNGSA,A,3,70,71,75,85,86,,,,,,,,0.9,0.6,0.7,2*3A

$GNVTG,,T,,M,0.0,N,0.0,K,A*3D

$GNRMC,140303.00,A,5133.590611,N,00957.729236,E,0.0,,260619,0.0,E,A*04

$GNGGA,140303.00,5133.590611,N,00957.729236,E,1,12,0.6,241.0,M,47.0,M,,*78

$GNGSA,A,3,07,08,10,15,16,18,20,21,26,27,30,,0.9,0.6,0.7,1*3E

$GNGSA,A,3,70,71,75,85,86,,,,,,,,0.9,0.6,0.7,2*3A

$GNVTG,,T,,M,0.0,N,0.0,K,A*3D

$GNRMC,140303.00,A,5133.590611,N,00957.729236,E,0.0,,260619,0.0,E,A*04

$GNGGA,140303.00,5133.590611,N,00957.729236,E,1,12,0.6,241.0,M,47.0,M,,*78

$GPGSV,4,1,13,07,11,298,26,08,39,295,32,10,56,137,37,15,12,043,29*7B

$GPGSV,4,2,13,16,43,195,33,18,13,250,29,20,55,085,28,26,18,180,24*70

$GPGSV,4,3,13,27,80,292,37,30,08,326,26,11,01,268,,13,04,014,*7A

$GPGSV,4,4,13,21,33,070,*4F

$GLGSV,3,1,09,70,43,106,34,86,50,299,29,76,35,262,38,75,11,216,35*67

$GLGSV,3,2,09,69,27,033,29,85,56,061,36,77,24,327,,84,05,087,*66

$GLGSV,3,3,09,71,14,156,*5D

$GAGSV,1,1,0,*74

$PQGSV,1,1,0,*73

$PQGSV,1,1,0,*73

$GNGSA,A,3,07,08,10,15,16,18,20,21,26,27,30,,0.9,0.6,0.7,1*3E

$GNGSA,A,3,70,71,75,85,86,,,,,,,,0.9,0.6,0.7,2*3A

$GNVTG,,T,,M,0.0,N,0.0,K,A*3D

$GNRMC,140304.00,A,5133.590611,N,00957.729235,E,0.0,,260619,0.0,E,A*00

$GNGGA,140304.00,5133.590611,N,00957.729235,E,1,12,0.6,241.0,M,47.0,M,,*7C

$GPGSV,4,1,13,07,11,298,26,08,39,295,32,10,56,137,37,15,12,043,29*7B

$GPGSV,4,2,13,16,43,195,33,18,13,250,29,20,55,085,28,26,18,180,24*70

$GPGSV,4,3,13,27,80,292,37,30,08,326,26,11,01,268,,13,04,014,*7A

$GPGSV,4,4,13,21,33,070,*4F

$GLGSV,3,1,09,70,43,106,34,86,50,299,29,76,35,262,38,75,11,216,35*67

$GLGSV,3,2,09,69,27,033,29,85,56,061,36,77,24,327,,84,05,087,*66

$GLGSV,3,3,09,71,14,156,*5D

$GAGSV,1,1,0,*74

$PQGSV,1,1,0,*73

$PQGSV,1,1,0,*73

$GNGSA,A,3,07,08,10,15,16,18,20,21,26,27,30,,0.9,0.6,0.7,1*3E

$GNGSA,A,3,70,71,75,85,86,,,,,,,,0.9,0.6,0.7,2*3A

$GNVTG,,T,,M,0.0,N,0.0,K,A*3D

$GNRMC,140304.00,A,5133.590611,N,00957.729235,E,0.0,,260619,0.0,E,A*00

$GNGGA,140304.00,5133.590611,N,00957.729235,E,1,12,0.6,241.0,M,47.0,M,,*7C

$GPGSV,4,1,13,07,11,298,23,08,39,295,30,10,56,137,39,15,12,043,29*72

$GPGSV,4,2,13,16,43,195,34,18,13,250,30,20,55,085,30,26,18,180,26*74

$GPGSV,4,3,13,27,80,292,37,30,08,326,23,11,01,268,,13,04,014,*7F

$GPGSV,4,4,13,21,33,070,*4F

$GLGSV,3,1,09,70,43,106,35,86,50,299,30,76,35,262,38,75,11,216,35*6E

$GLGSV,3,2,09,69,27,033,31,85,56,061,35,77,24,327,,84,05,087,*6C

$GLGSV,3,3,09,71,14,156,*5D

$GAGSV,1,1,0,*74

$PQGSV,1,1,0,*73

$PQGSV,1,1,0,*73

$GNGSA,A,3,07,08,10,15,16,18,20,21,26,27,30,,0.9,0.6,0.7,1*3E

$GNGSA,A,3,70,71,75,85,86,,,,,,,,0.9,0.6,0.7,2*3A

$GNVTG,,T,,M,0.0,N,0.0,K,A*3D

$GNRMC,140305.00,A,5133.590612,N,00957.729236,E,0.0,,260619,0.0,E,A*01

$GNGGA,140305.00,5133.590612,N,00957.729236,E,1,12,0.6,241.0,M,47.0,M,,*7D

$GPGSV,4,1,13,07,11,298,23,08,39,295,30,10,56,137,39,15,12,043,29*72

$GPGSV,4,2,13,16,43,195,34,18,13,250,30,20,55,085,30,26,18,180,26*74

$GPGSV,4,3,13,27,80,292,37,30,08,326,23,11,01,268,,13,04,014,*7F

$GPGSV,4,4,13,21,33,070,*4F

$GLGSV,3,1,09,70,43,106,35,86,50,299,30,76,35,262,38,75,11,216,35*6E

$GLGSV,3,2,09,69,27,033,31,85,56,061,35,77,24,327,,84,05,087,*6C

$GLGSV,3,3,09,71,14,156,*5D

$GAGSV,1,1,0,*74

$PQGSV,1,1,0,*73

$PQGSV,1,1,0,*73

$GNGSA,A,3,07,08,10,15,16,18,20,21,26,27,30,,0.9,0.6,0.7,1*3E

$GNGSA,A,3,70,71,75,85,86,,,,,,,,0.9,0.6,0.7,2*3A

$GNVTG,,T,,M,0.0,N,0.0,K,A*3D

$GNRMC,140305.00,A,5133.590612,N,00957.729236,E,0.0,,260619,0.0,E,A*01

$GNGGA,140305.00,5133.590612,N,00957.729236,E,1,12,0.6,241.0,M,47.0,M,,*7D

$GPGSV,3,1,12,08,39,295,30,10,56,137,38,15,12,043,29,16,43,195,35*7B

$GPGSV,3,2,12,18,13,250,29,20,55,085,31,26,18,180,27,27,80,292,37*70

$GPGSV,3,3,12,30,08,326,25,11,01,268,,13,04,014,,21,33,070,*7B

$GLGSV,3,1,09,70,43,106,36,86,50,299,28,76,35,262,36,75,11,216,34*6B

$GLGSV,3,2,09,69,27,033,28,85,56,061,34,77,24,327,,84,05,087,*65

$GLGSV,3,3,09,71,14,156,*5D

$GAGSV,1,1,0,*74

$PQGSV,1,1,0,*73

$PQGSV,1,1,0,*73

$GNGSA,A,3,08,10,15,16,18,20,21,26,27,30,,,1.0,0.7,0.7,1*30

$GNGSA,A,3,70,71,75,85,86,,,,,,,,1.0,0.7,0.7,2*33

$GNVTG,,T,,M,0.0,N,0.0,K,A*3D

$GNRMC,140306.00,A,5133.590611,N,00957.729236,E,0.0,,260619,0.0,E,A*01

$GNGGA,140306.00,5133.590611,N,00957.729236,E,1,12,0.7,241.0,M,47.0,M,,*7C

$GPGSV,3,1,12,08,39,295,30,10,56,137,38,15,12,043,29,16,43,195,35*7B

$GPGSV,3,2,12,18,13,250,29,20,55,085,31,26,18,180,27,27,80,292,37*70

$GPGSV,3,3,12,30,08,326,25,11,01,268,,13,04,014,,21,33,070,*7B

$GLGSV,3,1,09,70,43,106,36,86,50,299,28,76,35,262,36,75,11,216,34*6B

$GLGSV,3,2,09,69,27,033,28,85,56,061,34,77,24,327,,84,05,087,*65

$GLGSV,3,3,09,71,14,156,*5D

$GAGSV,1,1,0,*74

$PQGSV,1,1,0,*73

$PQGSV,1,1,0,*73

$GNGSA,A,3,08,10,15,16,18,20,21,26,27,30,,,1.0,0.7,0.7,1*30

$GNGSA,A,3,70,71,75,85,86,,,,,,,,1.0,0.7,0.7,2*33

$GNVTG,,T,,M,0.0,N,0.0,K,A*3D

$GNRMC,140306.00,A,5133.590611,N,00957.729236,E,0.0,,260619,0.0,E,A*01

$GNGGA,140306.00,5133.590611,N,00957.729236,E,1,12,0.7,241.0,M,47.0,M,,*7C

$GPGSV,4,1,13,08,39,295,29,10,56,137,37,15,12,043,29,16,43,195,36*79

$GPGSV,4,2,13,18,13,250,30,20,55,085,31,26,18,180,28,27,80,292,37*71

$GPGSV,4,3,13,30,08,326,24,07,11,298,,11,01,268,,13,04,014,*7C

$GPGSV,4,4,13,21,33,070,*4F

$GLGSV,3,1,09,70,43,106,34,86,50,299,30,76,35,262,37,75,11,216,35*60

$GLGSV,3,2,09,69,27,033,30,85,56,061,34,77,24,327,,84,05,087,*6C

$GLGSV,3,3,09,71,14,156,*5D

