$GNGNS,141654.3,,,,,NN,,,,,,*4D

$GPVTG,,T,,M,,N,,K,N*2C

$GPGSA,A,1,,,,,,,,,,,,,,,*1E

$GNGSA,A,1,,,,,,,,,,,,,,,*00

$GPGGA,,,,,,0,,,,,,,,*66

$GPRMC,,V,,,,,,,,,,N*53

$GNGNS,141654.3,,,,,NN,,,,,,*4D

$GPVTG,,T,,M,,N,,K,N*2C

$GPGSA,A,1,,,,,,,,,,,,,,,*1E

$GNGSA,A,1,,,,,,,,,,,,,,,*00

$GPGGA,,,,,,0,,,,,,,,*66

$GPRMC,,V,,,,,,,,,,N*53

$GLGSV,3,1,10,70,47,097,27,86,56,309,22,69,22,028,22,85,51,071,37*60

$GLGSV,3,2,10,71,21,153,26,77,26,320,,76,30,255,,75,04,213,*60

$GLGSV,3,3,10,84,00,092,,87,02,282,*66

$GPGSV,4,1,13,08,46,296,26,10,59,126,30,16,35,192,30,20,51,074,37*7F

$GPGSV,4,2,13,21,27,073,28,26,10,178,26,27,85,250,25,07,07,291,*78

$GPGSV,4,3,13,11,06,271,,13,01,008,,15,11,037,,18,19,254,*77

$GPGSV,4,4,13,30,07,320,*4E

$GNGNS,141654.6,,,,,NN,,,,,,*48

$GPVTG,,T,,M,,N,,K,N*2C

$GPGSA,A,1,,,,,,,,,,,,,,,*1E

$GNGSA,A,1,,,,,,,,,,,,,,,*00

$GPGGA,,,,,,0,,,,,,,,*66

$GPRMC,,V,,,,,,,,,,N*53

$GLGSV,3,1,10,70,47,097,27,86,56,309,22,69,22,028,22,85,51,071,37*60

$GLGSV,3,2,10,71,21,153,26,77,26,320,,76,30,255,,75,04,213,*60

$GLGSV,3,3,10,84,00,092,,87,02,282,*66

$GPGSV,4,1,13,08,46,296,26,10,59,126,30,16,35,192,30,20,51,074,37*7F

$GPGSV,4,2,13,21,27,073,28,26,10,178,26,27,85,250,25,07,07,291,*78

$GPGSV,4,3,13,11,06,271,,13,01,008,,15,11,037,,18,19,254,*77

$GPGSV,4,4,13,30,07,320,*4E

$GNGNS,141654.6,,,,,NN,,,,,,*48

$GPVTG,,T,,M,,N,,K,N*2C

$GPGSA,A,1,,,,,,,,,,,,,,,*1E

$GNGSA,A,1,,,,,,,,,,,,,,,*00

$GPGGA,,,,,,0,,,,,,,,*66

$GPRMC,,V,,,,,,,,,,N*53

$GLGSV,3,1,10,70,47,097,27,86,56,309,22,69,22,028,22,85,51,071,37*60

$GLGSV,3,2,10,71,21,153,26,77,26,320,,76,30,255,,75,04,213,*60

$GLGSV,3,3,10,84,00,092,,87,02,282,*66

$GPGSV,4,1,13,08,46,296,26,10,59,126,30,16,35,192,30,20,51,074,37*7F

$GPGSV,4,2,13,21,27,073,28,26,10,178,26,27,85,250,25,07,07,291,*78

$GPGSV,4,3,13,11,06,271,,13,01,008,,15,11,037,,18,19,254,*77

$GPGSV,4,4,13,30,07,320,*4E

$GNGNS,141655.3,,,,,NN,,,,,,*4C

$GPVTG,,T,,M,,N,,K,N*2C

$GPGSA,A,1,,,,,,,,,,,,,,,*1E

$GNGSA,A,1,,,,,,,,,,,,,,,*00

$GPGGA,,,,,,0,,,,,,,,*66

$GPRMC,,V,,,,,,,,,,N*53

$GLGSV,3,1,10,70,47,097,27,86,56,309,22,69,22,028,22,85,51,071,37*60

$GLGSV,3,2,10,71,21,153,26,77,26,320,,76,30,255,,75,04,213,*60

$GLGSV,3,3,10,84,00,092,,87,02,282,*66

$GPGSV,4,1,13,08,46,296,26,10,59,126,30,16,35,192,30,20,51,074,37*7F

$GPGSV,4,2,13,21,27,073,28,26,10,178,26,27,85,250,25,07,07,291,*78

$GPGSV,4,3,13,11,06,271,,13,01,008,,15,11,037,,18,19,254,*77

$GPGSV,4,4,13,30,07,320,*4E

$GNGNS,141655.3,,,,,NN,,,,,,*4C

$GPVTG,,T,,M,,N,,K,N*2C

$GPGSA,A,1,,,,,,,,,,,,,,,*1E

$GNGSA,A,1,,,,,,,,,,,,,,,*00

$GPGGA,,,,,,0,,,,,,,,*66

$GPRMC,,V,,,,,,,,,,N*53

$GLGSV,3,1,10,70,47,097,25,86,56,309,24,76,30,255,20,69,22,028,22*6D

$GLGSV,3,2,10,85,51,071,39,71,21,153,25,77,26,320,,75,04,213,*66

$GLGSV,3,3,10,84,00,092,,87,02,282,*66

$GPGSV,4,1,13,07,07,291,20,08,46,296,25,10,59,126,30,16,35,192,30*75

$GPGSV,4,2,13,18,19,254,20,20,51,074,36,21,27,073,31,26,10,178,26*72

$GPGSV,4,3,13,27,85,254,26,11,06,271,,13,01,008,,15,11,037,*7A

$GPGSV,4,4,13,30,07,320,*4E

$GPGGA,141656.3,5133.527992,N,00957.756986,E,1,09,0.7,245.2,M,47.0,M,,*5C

$GNGNS,141656.3,5133.527992,N,00957.756986,E,AA,15,0.7,245.2,47.0,,*65

$GPVTG,233.6,T,233.7,M,0.7,N,1.4,K,A*20

$GPGSA,A,3,07,08,10,16,18,20,21,26,27,,,,1.3,0.7,1.1*37

$GNGSA,A,3,07,08,10,16,18,20,21,26,27,,,,1.3,0.7,1.1*29

$GNGSA,A,3,70,86,76,69,85,71,,,,,,,1.3,0.7,1.1*25

$GPRMC,141656.3,A,5133.527992,N,00957.756986,E,0.7,233.6,260619,0.1,W,A*13

$PSTIS,*61

$GLGSV,3,1,10,70,47,097,25,86,56,309,24,76,30,255,20,69,22,028,22*6D

$GLGSV,3,2,10,85,51,071,39,71,21,153,25,77,26,320,,75,04,213,*66

$GLGSV,3,3,10,84,00,092,,87,02,282,*66

$GPGSV,4,1,13,07,07,291,20,08,46,296,25,10,59,126,30,16,35,192,30*75

$GPGSV,4,2,13,18,19,254,20,20,51,074,36,21,27,073,31,26,10,178,26*72

$GPGSV,4,3,13,27,85,254,26,11,06,271,,13,01,008,,15,11,037,*7A

$GPGSV,4,4,13,30,07,320,*4E

$GPGGA,141656.3,5133.527992,N,00957.756986,E,1,09,0.7,245.2,M,47.0,M,,*5C

$GNGNS,141656.3,5133.527992,N,00957.756986,E,AA,15,0.7,245.2,47.0,,*65

$GPVTG,233.6,T,233.7,M,0.7,N,1.4,K,A*20

$GPGSA,A,3,07,08,10,16,18,20,21,26,27,,,,1.3,0.7,1.1*37

$GNGSA,A,3,07,08,10,16,18,20,21,26,27,,,,1.3,0.7,1.1*29

$GNGSA,A,3,70,86,76,69,85,71,,,,,,,1.3,0.7,1.1*25

$GPRMC,141656.3,A,5133.527992,N,00957.756986,E,0.7,233.6,260619,0.1,W,A*13

$PSTIS,*61

$GNGNS,141658.0,,,,,NN,,,,,,*42

$GPVTG,,T,,M,,N,,K,N*2C

$GPGSA,A,1,,,,,,,,,,,,,,,*1E

$GNGSA,A,1,,,,,,,,,,,,,,,*00

$GPGGA,,,,,,0,,,,,,,,*66

$GPRMC,,V,,,,,,,,,,N*53

$GNGNS,141658.0,,,,,NN,,,,,,*42

$GPVTG,,T,,M,,N,,K,N*2C

$GPGSA,A,1,,,,,,,,,,,,,,,*1E

$GNGSA,A,1,,,,,,,,,,,,,,,*00

$GPGGA,,,,,,0,,,,,,,,*66

$GPRMC,,V,,,,,,,,,,N*53

$GLGSV,3,1,10,85,51,071,37,70,47,097,,86,56,309,,77,26,320,*65

$GLGSV,3,2,10,76,30,255,,75,04,213,,69,22,028,,84,00,092,*61

$GLGSV,3,3,10,87,02,282,,71,21,153,*63

$GPGSV,4,1,13,20,51,074,34,07,07,291,,08,46,296,,10,59,126,*79

$GPGSV,4,2,13,11,06,271,,13,01,008,,15,11,037,,16,35,192,*7F

$GPGSV,4,3,13,18,19,254,,21,27,073,,26,10,178,,27,85,250,*78

$GPGSV,4,4,13,30,07,320,*4E

$GNGNS,141658.1,,,,,NN,,,,,,*43

$GPVTG,,T,,M,,N,,K,N*2C

$GPGSA,A,1,,,,,,,,,,,,,,,*1E

$GNGSA,A,1,,,,,,,,,,,,,,,*00

$GPGGA,,,,,,0,,,,,,,,*66

$GPRMC,,V,,,,,,,,,,N*53

$GLGSV,3,1,10,85,51,071,37,70,47,097,,86,56,309,,77,26,320,*65

$GLGSV,3,2,10,76,30,255,,75,04,213,,69,22,028,,84,00,092,*61

$GLGSV,3,3,10,87,02,282,,71,21,153,*63

$GPGSV,4,1,13,20,51,074,34,07,07,291,,08,46,296,,10,59,126,*79

$GPGSV,4,2,13,11,06,271,,13,01,008,,15,11,037,,16,35,192,*7F

$GPGSV,4,3,13,18,19,254,,21,27,073,,26,10,178,,27,85,250,*78

$GPGSV,4,4,13,30,07,320,*4E

$GNGNS,141658.1,,,,,NN,,,,,,*43

$GPVTG,,T,,M,,N,,K,N*2C

$GPGSA,A,1,,,,,,,,,,,,,,,*1E

$GNGSA,A,1,,,,,,,,,,,,,,,*00

$GPGGA,,,,,,0,,,,,,,,*66

$GPRMC,,V,,,,,,,,,,N*53

$GLGSV,3,1,10,85,51,071,39,70,47,097,,86,56,309,,77,26,320,*6B

$GLGSV,3,2,10,76,30,255,,75,04,213,,69,22,028,,84,00,092,*61

$GLGSV,3,3,10,87,02,282,,71,21,153,*63

$GPGSV,4,1,13,07,07,291,19,08,46,296,32,10,59,126,32,16,35,192,32*79

$GPGSV,4,2,13,20,51,074,38,21,27,073,31,26,10,178,24,27,85,250,28*7B

$GPGSV,4,3,13,11,06,271,,13,01,008,,15,11,037,,18,19,254,*77

$GPGSV,4,4,13,30,07,320,*4E

$GNGNS,141659.0,,,,,NN,,,,,,*43

$GPVTG,,T,,M,,N,,K,N*2C

$GPGSA,A,1,,,,,,,,,,,,,,,*1E

$GNGSA,A,1,,,,,,,,,,,,,,,*00

$GPGGA,,,,,,0,,,,,,,,*66

$GPRMC,,V,,,,,,,,,,N*53

$GLGSV,3,1,10,85,51,071,39,70,47,097,,86,56,309,,77,26,320,*6B

$GLGSV,3,2,10,76,30,255,,75,04,213,,69,22,028,,84,00,092,*61

$GLGSV,3,3,10,87,02,282,,71,21,153,*63

$GPGSV,4,1,13,07,07,291,19,08,46,296,32,10,59,126,32,16,35,192,32*79

$GPGSV,4,2,13,20,51,074,38,21,27,073,31,26,10,178,24,27,85,250,28*7B

$GPGSV,4,3,13,11,06,271,,13,01,008,,15,11,037,,18,19,254,*77

$GPGSV,4,4,13,30,07,320,*4E

$GNGNS,141659.0,,,,,NN,,,,,,*43

$GPVTG,,T,,M,,N,,K,N*2C

$GPGSA,A,1,,,,,,,,,,,,,,,*1E

$GNGSA,A,1,,,,,,,,,,,,,,,*00

$GPGGA,,,,,,0,,,,,,,,*66

$GPRMC,,V,,,,,,,,,,N*53

$GLGSV,3,1,10,70,47,097,26,77,26,320,22,76,30,255,22,75,04,213,20*69

$GLGSV,3,2,10,69,22,028,21,85,51,071,34,71,21,153,22,86,56,309,*6E

$GLGSV,3,3,10,84,00,092,,87,02,282,*66

$GPGSV,4,1,13,07,07,291,20,08,46,296,32,10,59,126,27,11,06,271,25*78

$GPGSV,4,2,13,16,35,192,33,18,19,254,19,20,51,074,32,21,27,073,26*7E

$GPGSV,4,3,13,26,10,178,25,27,85,254,30,30,07,320,25,13,01,008,*71

$GPGSV,4,4,13,15,11,037,*4B

$GPGGA,141700.0,5133.529176,N,00957.752928,E,1,11,0.6,258.6,M,47.0,M,,*51

$GNGNS,141700.0,5133.529176,N,00957.752928,E,AA,18,0.6,258.6,47.0,,*6C

$GPVTG,97.4,T,97.5,M,0.0,N,0.0,K,A*22

$GPGSA,A,2,07,08,10,11,16,18,20,21,26,27,30,,0.9,0.6,0.7*38

$GNGSA,A,2,07,08,10,11,16,18,20,21,26,27,30,,0.9,0.6,0.7*26

$GNGSA,A,2,70,77,76,75,69,85,71,,,,,,0.9,0.6,0.7*25

$GPRMC,141700.0,A,5133.529176,N,00957.752928,E,0.0,97.4,260619,0.1,W,A*27

$PSTIS,*61

$GLGSV,3,1,10,70,47,097,26,77,26,320,22,76,30,255,22,75,04,213,20*69

$GLGSV,3,2,10,69,22,028,21,85,51,071,34,71,21,153,22,86,56,309,*6E

$GLGSV,3,3,10,84,00,092,,87,02,282,*66

$GPGSV,4,1,13,07,07,291,20,08,46,296,32,10,59,126,27,11,06,271,25*78

$GPGSV,4,2,13,16,35,192,33,18,19,254,19,20,51,074,32,21,27,073,26*7E

$GPGSV,4,3,13,26,10,178,25,27,85,254,30,30,07,320,25,13,01,008,*71

$GPGSV,4,4,13,15,11,037,*4B

$GPGGA,141700.0,5133.529176,N,00957.752928,E,1,11,0.6,258.6,M,47.0,M,,*51

$GNGNS,141700.0,5133.529176,N,00957.752928,E,AA,18,0.6,258.6,47.0,,*6C

$GPVTG,97.4,T,97.5,M,0.0,N,0.0,K,A*22

$GPGSA,A,2,07,08,10,11,16,18,20,21,26,27,30,,0.9,0.6,0.7*38

$GNGSA,A,2,07,08,10,11,16,18,20,21,26,27,30,,0.9,0.6,0.7*26

$GNGSA,A,2,70,77,76,75,69,85,71,,,,,,0.9,0.6,0.7*25

$GPRMC,141700.0,A,5133.529176,N,00957.752928,E,0.0,97.4,260619,0.1,W,A*27

$PSTIS,*61

$GNGNS,141702.0,,,,,NN,,,,,,*4C

$GPVTG,,T,,M,,N,,K,N*2C

$GPGSA,A,1,,,,,,,,,,,,,,,*1E

$GNGSA,A,1,,,,,,,,,,,,,,,*00

$GPGGA,,,,,,0,,,,,,,,*66

$GPRMC,,V,,,,,,,,,,N*53

$GNGNS,141702.0,,,,,NN,,,,,,*4C

$GPVTG,,T,,M,,N,,K,N*2C

$GPGSA,A,1,,,,,,,,,,,,,,,*1E

$GNGSA,A,1,,,,,,,,,,,,,,,*00

$GPGGA,,,,,,0,,,,,,,,*66

$GPRMC,,V,,,,,,,,,,N*53

$GLGSV,3,1,10,70,47,097,29,69,22,028,25,85,51,071,35,71,21,153,30*6D

$GLGSV,3,1,10,70,47,097,29,69,22,028,25,85,51,071,35,71,21,153,30*6D

$GLGSV,3,2,10,86,56,309,,77,26,319,,76,30,255,,75,04,213,*6B

$GLGSV,3,3,10,84,00,092,,87,02,282,*66

$GPGSV,4,1,13,10,59,126,32,20,51,074,34,07,07,291,,08,46,296,*78

$GPGSV,4,2,13,11,06,271,,13,01,008,,15,11,037,,16,35,192,*7F

$GPGSV,4,3,13,18,19,254,,21,27,073,,26,10,178,,27,85,248,*71

$GPGSV,4,4,13,30,07,320,*4E

$GPGGA,141701.7,5133.529238,N,00957.753126,E,1,02,4.3,257.3,M,47.0,M,,*50

$GNGNS,141701.7,5133.529238,N,00957.753126,E,AA,06,4.3,257.3,47.0,,*60

$GPVTG,97.4,T,97.5,M,0.0,N,0.0,K,A*22

$GPGSA,A,2,10,20,,,,,,,,,,,4.4,4.3,0.9*3E

$GNGSA,A,2,10,20,,,,,,,,,,,4.4,4.3,0.9*20

$GNGSA,A,2,70,69,85,71,,,,,,,,,4.4,4.3,0.9*20

$GPRMC,141701.7,A,5133.529238,N,00957.753126,E,0.0,97.4,260619,0.1,W,A*2F

$PSTIS,*61

$GLGSV,3,2,10,86,56,309,,77,26,319,,76,30,255,,75,04,213,*6B

$GLGSV,3,3,10,84,00,092,,87,02,282,*66

$GPGSV,4,1,13,10,59,126,32,20,51,074,34,07,07,291,,08,46,296,*78

$GPGSV,4,2,13,11,06,271,,13,01,008,,15,11,037,,16,35,192,*7F

$GPGSV,4,3,13,18,19,254,,21,27,073,,26,10,178,,27,85,248,*71

$GPGSV,4,4,13,30,07,320,*4E

$GPGGA,141701.7,5133.529238,N,00957.753126,E,1,02,4.3,257.3,M,47.0,M,,*50

$GNGNS,141701.7,5133.529238,N,00957.753126,E,AA,06,4.3,257.3,47.0,,*60

$GPVTG,97.4,T,97.5,M,0.0,N,0.0,K,A*22

$GPGSA,A,2,10,20,,,,,,,,,,,4.4,4.3,0.9*3E

$GNGSA,A,2,10,20,,,,,,,,,,,4.4,4.3,0.9*20

$GNGSA,A,2,70,69,85,71,,,,,,,,,4.4,4.3,0.9*20

$GPRMC,141701.7,A,5133.529238,N,00957.753126,E,0.0,97.4,260619,0.1,W,A*2F

$PSTIS,*61

$GNGNS,141704.0,,,,,NN,,,,,,*4A

$GPVTG,,T,,M,,N,,K,N*2C

$GPGSA,A,1,,,,,,,,,,,,,,,*1E

$GNGSA,A,1,,,,,,,,,,,,,,,*00

$GPGGA,,,,,,0,,,,,,,,*66

$GPRMC,,V,,,,,,,,,,N*53

$GNGNS,141704.0,,,,,NN,,,,,,*4A

$GPVTG,,T,,M,,N,,K,N*2C

$GPGSA,A,1,,,,,,,,,,,,,,,*1E

$GNGSA,A,1,,,,,,,,,,,,,,,*00

$GPGGA,,,,,,0,,,,,,,,*66

$GPRMC,,V,,,,,,,,,,N*53

$GLGSV,3,1,10,85,51,071,37,70,47,097,,86,56,309,,77,26,319,*6F

$GLGSV,3,2,10,76,30,255,,75,04,213,,69,22,028,,84,00,092,*61

$GLGSV,3,3,10,87,03,282,,71,21,153,*62

$GPGSV,4,1,13,10,59,126,30,16,35,192,33,20,51,074,35,27,85,248,32*7A

$GPGSV,4,2,13,07,07,291,,08,46,296,,11,06,271,,13,01,008,*79

$GPGSV,4,3,13,15,11,037,,18,19,254,,21,27,073,,26,10,178,*77

$GLGSV,3,1,10,85,51,071,37,70,47,097,,86,56,309,,77,26,319,*6F

$GLGSV,3,2,10,76,30,255,,75,04,213,,69,22,028,,84,00,092,*61

$GLGSV,3,3,10,87,03,282,,71,21,153,*62

$GPGSV,4,1,13,10,59,126,30,16,35,192,33,20,51,074,35,27,85,248,32*7A

$GPGSV,4,2,13,07,07,291,,08,46,296,,11,06,271,,13,01,008,*79

$GPGSV,4,3,13,15,11,037,,18,19,254,,21,27,073,,26,10,178,*77

$GPGSV,4,4,13,30,07,320,*4E

$GPGGA,141704.0,5133.529866,N,00957.753333,E,1,04,2.8,257.7,M,47.0,M,,*5A

$GNGNS,141704.0,5133.529866,N,00957.753333,E,AA,05,2.8,257.7,47.0,,*6F

$GPVTG,97.4,T,97.5,M,0.0,N,0.0,K,A*22

$GPGSA,A,2,10,16,20,27,,,,,,,,,3.0,2.8,1.0*3A

$GNGSA,A,2,10,16,20,27,,,,,,,,,3.0,2.8,1.0*24

$GNGSA,A,2,85,,,,,,,,,,,,3.0,2.8,1.0*28

$GPRMC,141704.0,A,5133.529866,N,00957.753333,E,0.0,97.4,260619,0.1,W,A*2A

$PSTIS,*61

$GPGSV,4,4,13,30,07,320,*4E

$GPGGA,141704.0,5133.529866,N,00957.753333,E,1,04,2.8,257.7,M,47.0,M,,*5A

$GNGNS,141704.0,5133.529866,N,00957.753333,E,AA,05,2.8,257.7,47.0,,*6F

$GPVTG,97.4,T,97.5,M,0.0,N,0.0,K,A*22

$GPGSA,A,2,10,16,20,27,,,,,,,,,3.0,2.8,1.0*3A

$GNGSA,A,2,10,16,20,27,,,,,,,,,3.0,2.8,1.0*24

$GNGSA,A,2,85,,,,,,,,,,,,3.0,2.8,1.0*28

$GPRMC,141704.0,A,5133.529866,N,00957.753333,E,0.0,97.4,260619,0.1,W,A*2A

$PSTIS,*61

$GLGSV,3,1,10,85,51,071,37,70,47,097,,86,56,309,,77,26,319,*6F

$GLGSV,3,2,10,76,30,255,,75,04,213,,69,22,028,,84,00,092,*61

$GLGSV,3,3,10,87,03,282,,71,21,153,*62

$GPGSV,4,1,13,10,59,126,30,16,35,192,33,20,51,074,35,27,85,248,32*7A

$GPGSV,4,2,13,07,07,291,,08,46,296,,11,06,271,,13,01,008,*79

$GPGSV,4,3,13,15,11,037,,18,19,254,,21,27,073,,26,10,178,*77

$GPGSV,4,4,13,30,07,320,*4E

$GNGNS,141706.0,,,,,NN,,,,,,*48

$GPVTG,,T,,M,,N,,K,N*2C

$GPGSA,A,1,,,,,,,,,,,,,,,*1E

$GNGSA,A,1,,,,,,,,,,,,,,,*00

$GPGGA,,,,,,0,,,,,,,,*66

$GPRMC,,V,,,,,,,,,,N*53

$GLGSV,3,1,10,85,51,071,37,70,47,097,,86,56,309,,77,26,319,*6F

$GLGSV,3,2,10,76,30,255,,75,04,213,,69,22,028,,84,00,092,*61

$GLGSV,3,3,10,87,03,282,,71,21,153,*62

$GPGSV,4,1,13,10,59,126,30,16,35,192,33,20,51,074,35,27,85,248,32*7A

$GPGSV,4,2,13,07,07,291,,08,46,296,,11,06,271,,13,01,008,*79

$GPGSV,4,3,13,15,11,037,,18,19,254,,21,27,073,,26,10,178,*77

$GPGSV,4,4,13,30,07,320,*4E

$GNGNS,141706.0,,,,,NN,,,,,,*48

$GPVTG,,T,,M,,N,,K,N*2C

$GPGSA,A,1,,,,,,,,,,,,,,,*1E

$GNGSA,A,1,,,,,,,,,,,,,,,*00

$GPGGA,,,,,,0,,,,,,,,*66

$GPRMC,,V,,,,,,,,,,N*53

$GLGSV,3,1,10,70,47,097,26,85,51,071,36,86,56,309,,77,26,319,*6A

$GLGSV,3,2,10,76,30,255,,75,04,213,,69,22,028,,84,00,092,*61

$GLGSV,3,3,10,87,03,282,,71,21,153,*62

$GPGSV,4,1,13,16,35,192,33,27,85,248,31,07,07,291,,08,46,296,*7C

$GPGSV,4,2,13,10,59,126,,11,06,271,,13,01,008,,15,11,037,*7C

$GPGSV,4,3,13,18,19,254,,20,51,074,,21,27,073,,26,10,178,*72

$GPGSV,4,4,13,30,07,320,*4E

$GPGGA,141706.3,5133.529943,N,00957.754070,E,1,02,3.1,256.2,M,47.0,M,,*54

$GNGNS,141706.3,5133.529943,N,00957.754070,E,AA,04,3.1,256.2,47.0,,*66

$GPVTG,97.4,T,97.5,M,0.0,N,0.0,K,A*22

$GPGSA,A,2,16,27,,,,,,,,,,,3.2,3.1,1.0*33

$GNGSA,A,2,16,27,,,,,,,,,,,3.2,3.1,1.0*2D

$GNGSA,A,2,70,85,,,,,,,,,,,3.2,3.1,1.0*25

$GPRMC,141706.3,A,5133.529943,N,00957.754070,E,0.0,97.4,260619,0.1,W,A*2E

$PSTIS,*61

$GLGSV,3,1,10,70,47,097,26,85,51,071,36,86,56,309,,77,26,319,*6A

$GLGSV,3,2,10,76,30,255,,75,04,213,,69,22,028,,84,00,092,*61

$GLGSV,3,3,10,87,03,282,,71,21,153,*62

$GPGSV,4,1,13,16,35,192,33,27,85,248,31,07,07,291,,08,46,296,*7C

$GPGSV,4,2,13,10,59,126,,11,06,271,,13,01,008,,15,11,037,*7C

$GPGSV,4,3,13,18,19,254,,20,51,074,,21,27,073,,26,10,178,*72

$GPGSV,4,4,13,30,07,320,*4E

$GPGGA,141706.3,5133.529943,N,00957.754070,E,1,02,3.1,256.2,M,47.0,M,,*54

$GNGNS,141706.3,5133.529943,N,00957.754070,E,AA,04,3.1,256.2,47.0,,*66

$GPVTG,97.4,T,97.5,M,0.0,N,0.0,K,A*22

$GPGSA,A,2,16,27,,,,,,,,,,,3.2,3.1,1.0*33

$GNGSA,A,2,16,27,,,,,,,,,,,3.2,3.1,1.0*2D

$GNGSA,A,2,70,85,,,,,,,,,,,3.2,3.1,1.0*25

$GPRMC,141706.3,A,5133.529943,N,00957.754070,E,0.0,97.4,260619,0.1,W,A*2E

$PSTIS,*61

$GNGNS,141709.0,,,,,NN,,,,,,*47

$GPVTG,,T,,M,,N,,K,N*2C

$GPGSA,A,1,,,,,,,,,,,,,,,*1E

$GNGSA,A,1,,,,,,,,,,,,,,,*00

$GPGGA,,,,,,0,,,,,,,,*66

$GPRMC,,V,,,,,,,,,,N*53

$GNGNS,141709.0,,,,,NN,,,,,,*47

$GPVTG,,T,,M,,N,,K,N*2C

$GPGSA,A,1,,,,,,,,,,,,,,,*1E

$GNGSA,A,1,,,,,,,,,,,,,,,*00

$GPGGA,,,,,,0,,,,,,,,*66

$GPRMC,,V,,,,,,,,,,N*53

$GLGSV,3,1,10,85,51,071,37,70,47,097,,86,56,309,,77,26,319,*6F

$GLGSV,3,2,10,76,30,255,,75,04,213,,69,22,028,,84,00,092,*61

$GLGSV,3,3,10,87,03,282,,71,21,153,*62

$GPGSV,4,1,13,16,35,192,35,27,85,248,35,07,07,291,,08,46,296,*7E

$GPGSV,4,2,13,10,59,126,,11,06,271,,13,01,008,,15,11,037,*7C

$GPGSV,4,3,13,18,19,254,,20,51,074,,21,27,073,,26,10,178,*72

$GPGSV,4,4,13,30,07,320,*4E

$GPGGA,141708.6,5133.530010,N,00957.754640,E,1,02,3.9,254.3,M,47.0,M,,*56

$GNGNS,141708.6,5133.530010,N,00957.754640,E,AA,03,3.9,254.3,47.0,,*63

$GPVTG,97.4,T,97.5,M,0.0,N,0.0,K,A*22

$GPGSA,A,2,16,27,,,,,,,,,,,4.0,3.9,1.0*3E

$GNGSA,A,2,16,27,,,,,,,,,,,4.0,3.9,1.0*20

$GNGSA,A,2,85,,,,,,,,,,,,4.0,3.9,1.0*2F

$GPRMC,141708.6,A,5133.530010,N,00957.754640,E,0.0,97.4,260619,0.1,W,A*27

$PSTIS,*61

$GLGSV,3,1,10,85,51,071,37,70,47,097,,86,56,309,,77,26,319,*6F

$GLGSV,3,2,10,76,30,255,,75,04,213,,69,22,028,,84,00,092,*61

$GLGSV,3,3,10,87,03,282,,71,21,153,*62

$GPGSV,4,1,13,16,35,192,35,27,85,248,35,07,07,291,,08,46,296,*7E

$GPGSV,4,2,13,10,59,126,,11,06,271,,13,01,008,,15,11,037,*7C

$GPGSV,4,3,13,18,19,254,,20,51,074,,21,27,073,,26,10,178,*72

$GPGSV,4,4,13,30,07,320,*4E

$GPGGA,141708.6,5133.530010,N,00957.754640,E,1,02,3.9,254.3,M,47.0,M,,*56

$GNGNS,141708.6,5133.530010,N,00957.754640,E,AA,03,3.9,254.3,47.0,,*63

$GPVTG,97.4,T,97.5,M,0.0,N,0.0,K,A*22

$GPGSA,A,2,16,27,,,,,,,,,,,4.0,3.9,1.0*3E

$GNGSA,A,2,16,27,,,,,,,,,,,4.0,3.9,1.0*20

$GNGSA,A,2,85,,,,,,,,,,,,4.0,3.9,1.0*2F

$GPRMC,141708.6,A,5133.530010,N,00957.754640,E,0.0,97.4,260619,0.1,W,A*27

$PSTIS,*61

$GNGNS,141711.0,,,,,NN,,,,,,*4E

$GPVTG,,T,,M,,N,,K,N*2C

$GPGSA,A,1,,,,,,,,,,,,,,,*1E

$GNGSA,A,1,,,,,,,,,,,,,,,*00

$GPGGA,,,,,,0,,,,,,,,*66

$GNGNS,141711.0,,,,,NN,,,,,,*4E

$GPVTG,,T,,M,,N,,K,N*2C

$GPGSA,A,1,,,,,,,,,,,,,,,*1E

$GNGSA,A,1,,,,,,,,,,,,,,,*00

$GPGGA,,,,,,0,,,,,,,,*66

$GPRMC,,V,,,,,,,,,,N*53

$GPRMC,,V,,,,,,,,,,N*53

$GLGSV,3,1,10,85,51,071,35,70,47,097,,86,56,309,,77,26,319,*6D

$GLGSV,3,2,10,76,30,255,,75,04,213,,69,22,028,,84,00,092,*61

$GLGSV,3,3,10,87,03,282,,71,21,153,*62

$GPGSV,4,1,13,16,35,192,32,20,51,074,36,27,85,248,34,07,07,291,*7F

$GLGSV,3,1,10,85,51,071,35,70,47,097,,86,56,309,,77,26,319,*6D

$GLGSV,3,2,10,76,30,255,,75,04,213,,69,22,028,,84,00,092,*61

$GLGSV,3,3,10,87,03,282,,71,21,153,*62

$GPGSV,4,1,13,16,35,192,32,20,51,074,36,27,85,248,34,07,07,291,*7F

$GPGSV,4,2,13,08,46,296,,10,59,126,,11,06,271,,13,01,008,*7B

$GPGSV,4,3,13,15,11,037,,18,19,254,,21,27,073,,26,10,178,*77

$GPGSV,4,4,13,30,07,320,*4E

$GPGGA,141710.9,5133.529953,N,00957.754347,E,1,03,3.4,255.2,M,47.0,M,,*58

$GNGNS,141710.9,5133.529953,N,00957.754347,E,AA,04,3.4,255.2,47.0,,*6B

$GPVTG,97.4,T,97.5,M,0.0,N,0.0,K,A*22

$GPGSA,A,2,16,20,27,,,,,,,,,,3.5,3.4,1.0*33

$GNGSA,A,2,16,20,27,,,,,,,,,,3.5,3.4,1.0*2D

$GNGSA,A,2,85,,,,,,,,,,,,3.5,3.4,1.0*20

$GPRMC,141710.9,A,5133.529953,N,00957.754347,E,0.0,97.4,260619,0.1,W,A*25

$PSTIS,*61

$GPGSV,4,2,13,08,46,296,,10,59,126,,11,06,271,,13,01,008,*7B

$GPGSV,4,3,13,15,11,037,,18,19,254,,21,27,073,,26,10,178,*77

$GPGSV,4,4,13,30,07,320,*4E

$GPGGA,141710.9,5133.529953,N,00957.754347,E,1,03,3.4,255.2,M,47.0,M,,*58

$GNGNS,141710.9,5133.529953,N,00957.754347,E,AA,04,3.4,255.2,47.0,,*6B

$GPVTG,97.4,T,97.5,M,0.0,N,0.0,K,A*22

$GPGSA,A,2,16,20,27,,,,,,,,,,3.5,3.4,1.0*33

$GNGSA,A,2,16,20,27,,,,,,,,,,3.5,3.4,1.0*2D

$GNGSA,A,2,85,,,,,,,,,,,,3.5,3.4,1.0*20

$GPRMC,141710.9,A,5133.529953,N,00957.754347,E,0.0,97.4,260619,0.1,W,A*25

$PSTIS,*61

$GNGNS,141713.0,,,,,NN,,,,,,*4C

$GPVTG,,T,,M,,N,,K,N*2C

$GPGSA,A,1,,,,,,,,,,,,,,,*1E

$GNGSA,A,1,,,,,,,,,,,,,,,*00

$GPGGA,,,,,,0,,,,,,,,*66

$GPRMC,,V,,,,,,,,,,N*53

$GNGNS,141713.0,,,,,NN,,,,,,*4C

$GPVTG,,T,,M,,N,,K,N*2C

$GPGSA,A,1,,,,,,,,,,,,,,,*1E

$GNGSA,A,1,,,,,,,,,,,,,,,*00

$GPGGA,,,,,,0,,,,,,,,*66

$GPRMC,,V,,,,,,,,,,N*53

$GLGSV,3,1,10,85,51,071,35,71,21,153,30,70,47,097,,86,56,309,*63

$GLGSV,3,2,10,77,26,319,,76,29,255,,75,04,213,,69,22,028,*61

$GLGSV,3,3,10,84,00,092,,87,03,282,*67

$GPGSV,4,1,13,10,59,126,32,07,07,291,,08,46,296,,11,06,272,*7B

$GPGSV,4,2,13,13,01,008,,15,11,037,,16,35,192,,18,19,254,*7F

$GPGSV,4,3,13,20,51,074,,21,27,073,,26,10,178,,27,85,247,*79

$GPGSV,4,4,13,30,07,320,*4E

$GNGNS,141713.2,,,,,NN,,,,,,*4E

$GPVTG,,T,,M,,N,,K,N*2C

$GLGSV,3,1,10,85,51,071,35,71,21,153,30,70,47,097,,86,56,309,*63

$GLGSV,3,2,10,77,26,319,,76,29,255,,75,04,213,,69,22,028,*61

$GLGSV,3,3,10,84,00,092,,87,03,282,*67

$GPGSV,4,1,13,10,59,126,32,07,07,291,,08,46,296,,11,06,272,*7B

$GPGSV,4,2,13,13,01,008,,15,11,037,,16,35,192,,18,19,254,*7F

$GPGSV,4,3,13,20,51,074,,21,27,073,,26,10,178,,27,85,247,*79

$GPGSV,4,4,13,30,07,320,*4E

$GNGNS,141713.2,,,,,NN,,,,,,*4E

$GPVTG,,T,,M,,N,,K,N*2C

$GPGSA,A,1,,,,,,,,,,,,,,,*1E

$GNGSA,A,1,,,,,,,,,,,,,,,*00

$GPGGA,,,,,,0,,,,,,,,*66

$GPRMC,,V,,,,,,,,,,N*53

$GPGSA,A,1,,,,,,,,,,,,,,,*1E

$GNGSA,A,1,,,,,,,,,,,,,,,*00

$GPGGA,,,,,,0,,,,,,,,*66

$GPRMC,,V,,,,,,,,,,N*53

$GLGSV,3,1,10,85,51,071,36,71,21,153,30,70,47,097,,86,56,309,*60

$GLGSV,3,2,10,77,26,319,,76,29,255,,75,04,213,,69,22,028,*61

$GLGSV,3,3,10,84,00,092,,87,03,282,*67

$GPGSV,4,1,13,07,07,291,29,08,46,296,33,10,59,126,32,16,35,192,33*7A

$GPGSV,4,2,13,18,19,254,25,20,51,074,35,21,27,073,31,26,10,178,30*73

$GPGSV,4,3,13,27,85,247,35,11,06,272,,13,01,008,,15,11,037,*79

$GPGSV,4,4,13,30,07,320,*4E

$GPGGA,141714.0,5133.530569,N,00957.754512,E,1,09,0.9,250.0,M,47.0,M,,*5D

$GNGNS,141714.0,5133.530569,N,00957.754512,E,AA,11,0.9,250.0,47.0,,*60

$GPVTG,97.4,T,97.5,M,0.0,N,0.0,K,A*22

$GPGSA,A,2,07,08,10,16,18,20,21,26,27,,,,1.2,0.9,0.8*31

$GNGSA,A,2,07,08,10,16,18,20,21,26,27,,,,1.2,0.9,0.8*2F

$GNGSA,A,2,85,71,,,,,,,,,,,1.2,0.9,0.8*24

$GPRMC,141714.0,A,5133.530569,N,00957.754512,E,0.0,97.4,260619,0.1,W,A*23

$PSTIS,*61

$GLGSV,3,1,10,85,51,071,36,71,21,153,30,70,47,097,,86,56,309,*60

$GLGSV,3,2,10,77,26,319,,76,29,255,,75,04,213,,69,22,028,*61

$GLGSV,3,3,10,84,00,092,,87,03,282,*67

$GPGSV,4,1,13,07,07,291,29,08,46,296,33,10,59,126,32,16,35,192,33*7A

$GPGSV,4,2,13,18,19,254,25,20,51,074,35,21,27,073,31,26,10,178,30*73

$GPGSV,4,3,13,27,85,247,35,11,06,272,,13,01,008,,15,11,037,*79

$GPGSV,4,4,13,30,07,320,*4E

$GPGGA,141714.0,5133.530569,N,00957.754512,E,1,09,0.9,250.0,M,47.0,M,,*5D

$GNGNS,141714.0,5133.530569,N,00957.754512,E,AA,11,0.9,250.0,47.0,,*60

$GPVTG,97.4,T,97.5,M,0.0,N,0.0,K,A*22

$GPGSA,A,2,07,08,10,16,18,20,21,26,27,,,,1.2,0.9,0.8*31

$GNGSA,A,2,07,08,10,16,18,20,21,26,27,,,,1.2,0.9,0.8*2F

$GNGSA,A,2,85,71,,,,,,,,,,,1.2,0.9,0.8*24

$GPRMC,141714.0,A,5133.530569,N,00957.754512,E,0.0,97.4,260619,0.1,W,A*23

$PSTIS,*61

$GNGNS,141716.0,,,,,NN,,,,,,*49

$GPVTG,,T,,M,,N,,K,N*2C

$GPGSA,A,1,,,,,,,,,,,,,,,*1E

$GNGSA,A,1,,,,,,,,,,,,,,,*00

$GNGNS,141716.0,,,,,NN,,,,,,*49

$GPVTG,,T,,M,,N,,K,N*2C

$GPGSA,A,1,,,,,,,,,,,,,,,*1E

$GNGSA,A,1,,,,,,,,,,,,,,,*00

$GPGGA,,,,,,0,,,,,,,,*66

$GPRMC,,V,,,,,,,,,,N*53

$GPGGA,,,,,,0,,,,,,,,*66

$GPRMC,,V,,,,,,,,,,N*53

$GLGSV,3,1,10,85,51,073,36,70,47,097,,86,56,309,,77,26,319,*6C

$GLGSV,3,2,10,76,29,255,,75,04,213,,69,22,028,,84,00,092,*69

$GLGSV,3,3,10,87,03,282,,71,21,153,*62

$GPGSV,4,1,13,20,51,074,36,07,07,291,,08,46,296,,10,59,126,*7B

$GPGSV,4,2,13,11,06,272,,13,01,008,,15,11,037,,16,35,192,*7C

$GPGSV,4,3,13,18,19,254,,21,26,073,,26,10,178,,27,85,247,*7F

$GPGSV,4,4,13,30,07,320,*4E

$GPGGA,141715.8,5133.530558,N,00957.754511,E,1,01,500.0,250.0,M,47.0,M,,*51

$GNGNS,141715.8,5133.530558,N,00957.754511,E,AA,02,500.0,250.0,47.0,,*66

$GPVTG,97.4,T,97.5,M,0.0,N,0.0,K,A*22

$GPGSA,A,2,20,,,,,,,,,,,,500.0,500.0,500.0*34

$GNGSA,A,2,20,,,,,,,,,,,,500.0,500.0,500.0*2A

$GNGSA,A,2,85,,,,,,,,,,,,500.0,500.0,500.0*25

$GPRMC,141715.8,A,5133.530558,N,00957.754511,E,0.0,97.4,260619,0.1,W,A*2B

$PSTIS,*61

$GLGSV,3,1,10,85,51,073,36,70,47,097,,86,56,309,,77,26,319,*6C

$GLGSV,3,2,10,76,29,255,,75,04,213,,69,22,028,,84,00,092,*69

$GLGSV,3,3,10,87,03,282,,71,21,153,*62

$GPGSV,4,1,13,20,51,074,36,07,07,291,,08,46,296,,10,59,126,*7B

$GPGSV,4,2,13,11,06,272,,13,01,008,,15,11,037,,16,35,192,*7C

$GPGSV,4,3,13,18,19,254,,21,26,073,,26,10,178,,27,85,247,*7F

$GPGSV,4,4,13,30,07,320,*4E

$GPGGA,141715.8,5133.530558,N,00957.754511,E,1,01,500.0,250.0,M,47.0,M,,*51

$GNGNS,141715.8,5133.530558,N,00957.754511,E,AA,02,500.0,250.0,47.0,,*66

$GPVTG,97.4,T,97.5,M,0.0,N,0.0,K,A*22

$GPGSA,A,2,20,,,,,,,,,,,,500.0,500.0,500.0*34

$GNGSA,A,2,20,,,,,,,,,,,,500.0,500.0,500.0*2A

$GNGSA,A,2,85,,,,,,,,,,,,500.0,500.0,500.0*25

$GPRMC,141715.8,A,5133.530558,N,00957.754511,E,0.0,97.4,260619,0.1,W,A*2B

$PSTIS,*61

$GNGNS,141718.0,,,,,NN,,,,,,*47

$GPVTG,,T,,M,,N,,K,N*2C

$GPGSA,A,1,,,,,,,,,,,,,,,*1E

$GNGSA,A,1,,,,,,,,,,,,,,,*00

$GPGGA,,,,,,0,,,,,,,,*66

$GPRMC,,V,,,,,,,,,,N*53

$GNGNS,141718.0,,,,,NN,,,,,,*47

$GPVTG,,T,,M,,N,,K,N*2C

$GPGSA,A,1,,,,,,,,,,,,,,,*1E

$GNGSA,A,1,,,,,,,,,,,,,,,*00

$GPGGA,,,,,,0,,,,,,,,*66

$GPRMC,,V,,,,,,,,,,N*53

$GLGSV,3,1,10,85,51,073,35,70,47,097,,86,56,309,,77,26,319,*6F

$GLGSV,3,1,10,85,51,073,35,70,47,097,,86,56,309,,77,26,319,*6F

$GLGSV,3,2,10,76,29,255,,75,04,213,,69,22,028,,84,00,092,*69

$GLGSV,3,3,10,87,03,282,,71,21,153,*62

$GPGSV,4,1,13,20,51,074,35,07,07,291,,08,46,296,,10,59,126,*78

$GPGSV,4,2,13,11,06,272,,13,01,008,,15,11,037,,16,35,192,*7C

$GPGSV,4,3,13,18,19,254,,21,26,073,,26,10,178,,27,85,247,*7F

$GPGSV,4,4,13,30,07,320,*4E

$GPGGA,141718.0,5133.530548,N,00957.754510,E,1,01,500.0,250.1,M,47.0,M,,*55

$GNGNS,141718.0,5133.530548,N,00957.754510,E,AA,02,500.0,250.1,47.0,,*62

$GPVTG,97.4,T,97.5,M,0.0,N,0.0,K,A*22

$GPGSA,A,2,20,,,,,,,,,,,,500.0,500.0,500.0*34

$GNGSA,A,2,20,,,,,,,,,,,,500.0,500.0,500.0*2A

$GNGSA,A,2,85,,,,,,,,,,,,500.0,500.0,500.0*25

$GPRMC,141718.0,A,5133.530548,N,00957.754510,E,0.0,97.4,260619,0.1,W,A*2E

$PSTIS,*61

$GLGSV,3,2,10,76,29,255,,75,04,213,,69,22,028,,84,00,092,*69

$GLGSV,3,3,10,87,03,282,,71,21,153,*62

$GPGSV,4,1,13,20,51,074,35,07,07,291,,08,46,296,,10,59,126,*78

$GPGSV,4,2,13,11,06,272,,13,01,008,,15,11,037,,16,35,192,*7C

$GPGSV,4,3,13,18,19,254,,21,26,073,,26,10,178,,27,85,247,*7F

$GPGSV,4,4,13,30,07,320,*4E

$GPGGA,141718.0,5133.530548,N,00957.754510,E,1,01,500.0,250.1,M,47.0,M,,*55

$GNGNS,141718.0,5133.530548,N,00957.754510,E,AA,02,500.0,250.1,47.0,,*62

$GPVTG,97.4,T,97.5,M,0.0,N,0.0,K,A*22

$GPGSA,A,2,20,,,,,,,,,,,,500.0,500.0,500.0*34

$GNGSA,A,2,20,,,,,,,,,,,,500.0,500.0,500.0*2A

$GNGSA,A,2,85,,,,,,,,,,,,500.0,500.0,500.0*25

$GPRMC,141718.0,A,5133.530548,N,00957.754510,E,0.0,97.4,260619,0.1,W,A*2E

$PSTIS,*61

$GLGSV,3,1,10,85,51,073,35,70,47,097,,86,56,309,,77,26,319,*6F

$GLGSV,3,2,10,76,29,255,,75,04,213,,69,22,028,,84,00,092,*69

$GLGSV,3,3,10,87,03,282,,71,21,153,*62

$GPGSV,4,1,13,20,51,074,35,07,07,291,,08,46,296,,10,59,126,*78

$GPGSV,4,2,13,11,06,272,,13,01,008,,15,11,037,,16,35,192,*7C

$GPGSV,4,3,13,18,19,254,,21,26,073,,26,10,178,,27,85,247,*7F

$GPGSV,4,4,13,30,07,320,*4E

$GNGNS,141720.0,,,,,NN,,,,,,*4C

$GPVTG,,T,,M,,N,,K,N*2C

$GPGSA,A,1,,,,,,,,,,,,,,,*1E

$GNGSA,A,1,,,,,,,,,,,,,,,*00

$GPGGA,,,,,,0,,,,,,,,*66

$GPRMC,,V,,,,,,,,,,N*53

$GLGSV,3,1,10,85,51,073,35,70,47,097,,86,56,309,,77,26,319,*6F

$GLGSV,3,2,10,76,29,255,,75,04,213,,69,22,028,,84,00,092,*69

$GLGSV,3,3,10,87,03,282,,71,21,153,*62

$GPGSV,4,1,13,20,51,074,35,07,07,291,,08,46,296,,10,59,126,*78

$GPGSV,4,2,13,11,06,272,,13,01,008,,15,11,037,,16,35,192,*7C

$GPGSV,4,3,13,18,19,254,,21,26,073,,26,10,178,,27,85,247,*7F

$GPGSV,4,4,13,30,07,320,*4E

$GNGNS,141720.0,,,,,NN,,,,,,*4C

$GPVTG,,T,,M,,N,,K,N*2C

$GPGSA,A,1,,,,,,,,,,,,,,,*1E

$GNGSA,A,1,,,,,,,,,,,,,,,*00

$GPGGA,,,,,,0,,,,,,,,*66

$GPRMC,,V,,,,,,,,,,N*53

$GLGSV,3,1,10,85,51,073,35,70,48,097,,86,56,309,,77,26,319,*60

$GLGSV,3,2,10,76,29,255,,75,04,213,,69,22,028,,84,00,092,*69

$GLGSV,3,3,10,87,03,282,,71,21,153,*62

$GPGSV,4,1,13,27,85,247,34,07,07,291,,08,46,296,,10,59,126,*75

$GPGSV,4,2,13,11,06,272,,13,01,008,,15,11,037,,16,35,192,*7C

$GPGSV,4,3,13,18,19,254,,20,51,074,,21,26,073,,26,10,178,*73

$GPGSV,4,4,13,30,07,320,*4E

$GNGNS,141720.3,,,,,NN,,,,,,*4F

$GPVTG,,T,,M,,N,,K,N*2C

$GPGSA,A,1,,,,,,,,,,,,,,,*1E

$GNGSA,A,1,,,,,,,,,,,,,,,*00

$GPGGA,,,,,,0,,,,,,,,*66

$GPRMC,,V,,,,,,,,,,N*53

$GLGSV,3,1,10,85,51,073,35,70,48,097,,86,56,309,,77,26,319,*60

$GLGSV,3,2,10,76,29,255,,75,04,213,,69,22,028,,84,00,092,*69

$GLGSV,3,3,10,87,03,282,,71,21,153,*62

$GPGSV,4,1,13,27,85,247,34,07,07,291,,08,46,296,,10,59,126,*75

$GPGSV,4,2,13,11,06,272,,13,01,008,,15,11,037,,16,35,192,*7C

$GPGSV,4,3,13,18,19,254,,20,51,074,,21,26,073,,26,10,178,*73

$GPGSV,4,4,13,30,07,320,*4E

$GNGNS,141720.3,,,,,NN,,,,,,*4F

$GPVTG,,T,,M,,N,,K,N*2C

$GPGSA,A,1,,,,,,,,,,,,,,,*1E

$GNGSA,A,1,,,,,,,,,,,,,,,*00

$GPGGA,,,,,,0,,,,,,,,*66

$GPRMC,,V,,,,,,,,,,N*53

$GLGSV,3,1,10,85,51,073,35,70,48,097,,86,56,309,,77,26,319,*60

$GLGSV,3,2,10,76,29,255,,75,04,213,,69,22,028,,84,00,092,*69

$GLGSV,3,3,10,87,03,282,,71,21,153,*62

$GPGSV,4,1,13,27,85,247,34,07,07,291,,08,46,296,,10,59,126,*75

$GPGSV,4,2,13,11,06,272,,13,01,008,,15,11,037,,16,35,192,*7C

$GPGSV,4,3,13,18,19,254,,20,51,074,,21,26,073,,26,10,178,*73

$GPGSV,4,4,13,30,07,320,*4E

$GNGNS,141721.0,,,,,NN,,,,,,*4D

$GPVTG,,T,,M,,N,,K,N*2C

$GPGSA,A,1,,,,,,,,,,,,,,,*1E

$GNGSA,A,1,,,,,,,,,,,,,,,*00

$GPGGA,,,,,,0,,,,,,,,*66

$GPRMC,,V,,,,,,,,,,N*53

$GLGSV,3,1,10,85,51,073,35,70,48,097,,86,56,309,,77,26,319,*60

$GLGSV,3,2,10,76,29,255,,75,04,213,,69,22,028,,84,00,092,*69

$GLGSV,3,3,10,87,03,282,,71,21,153,*62

$GPGSV,4,1,13,27,85,247,34,07,07,291,,08,46,296,,10,59,126,*75

$GPGSV,4,2,13,11,06,272,,13,01,008,,15,11,037,,16,35,192,*7C

$GPGSV,4,3,13,18,19,254,,20,51,074,,21,26,073,,26,10,178,*73

$GPGSV,4,4,13,30,07,320,*4E

$GNGNS,141721.0,,,,,NN,,,,,,*4D

$GPVTG,,T,,M,,N,,K,N*2C

$GPGSA,A,1,,,,,,,,,,,,,,,*1E

$GNGSA,A,1,,,,,,,,,,,,,,,*00

$GPGGA,,,,,,0,,,,,,,,*66

$GPRMC,,V,,,,,,,,,,N*53

$GLGSV,3,1,10,70,48,097,25,77,26,319,22,69,22,028,25,85,51,073,34*63

$GLGSV,3,2,10,71,21,153,27,86,56,309,,76,29,255,,75,04,213,*6B

$GLGSV,3,3,10,84,00,092,,87,03,282,*67

$GPGSV,4,1,13,07,07,291,22,08,46,296,31,10,59,126,30,16,35,192,30*72

$GPGSV,4,2,13,18,19,254,24,20,51,074,34,21,26,073,30,26,10,178,27*75

$GPGSV,4,3,13,27,85,247,33,30,07,320,23,11,06,272,,13,01,008,*7B

$GPGSV,4,4,13,15,11,037,*4B

$GLGSV,3,1,10,70,48,097,25,77,26,319,22,69,22,028,25,85,51,073,34*63

$GLGSV,3,2,10,71,21,153,27,86,56,309,,76,29,255,,75,04,213,*6B

$GLGSV,3,3,10,84,00,092,,87,03,282,*67

$GPGSV,4,1,13,07,07,291,22,08,46,296,31,10,59,126,30,16,35,192,30*72

$GPGSV,4,2,13,18,19,254,24,20,51,074,34,21,26,073,30,26,10,178,27*75

$GPGSV,4,3,13,27,85,247,33,30,07,320,23,11,06,272,,13,01,008,*7B

$GPGSV,4,4,13,15,11,037,*4B

$GPGGA,141722.0,5133.530476,N,00957.754732,E,1,10,0.7,246.7,M,47.0,M,,*51

$GNGNS,141722.0,5133.530476,N,00957.754732,E,AA,15,0.7,246.7,47.0,,*60

$GPVTG,97.4,T,97.5,M,0.0,N,0.0,K,A*22

$GPGSA,A,2,07,08,10,16,18,20,21,26,27,30,,,1.0,0.7,0.7*31

$GNGSA,A,2,07,08,10,16,18,20,21,26,27,30,,,1.0,0.7,0.7*2F

$GNGSA,A,2,70,77,69,85,71,,,,,,,,1.0,0.7,0.7*2F

$GPRMC,141722.0,A,5133.530476,N,00957.754732,E,0.0,97.4,260619,0.1,W,A*29

$PSTIS,*61

$GPGGA,141722.0,5133.530476,N,00957.754732,E,1,10,0.7,246.7,M,47.0,M,,*51

$GNGNS,141722.0,5133.530476,N,00957.754732,E,AA,15,0.7,246.7,47.0,,*60

$GPVTG,97.4,T,97.5,M,0.0,N,0.0,K,A*22

$GPGSA,A,2,07,08,10,16,18,20,21,26,27,30,,,1.0,0.7,0.7*31

$GNGSA,A,2,07,08,10,16,18,20,21,26,27,30,,,1.0,0.7,0.7*2F

$GNGSA,A,2,70,77,69,85,71,,,,,,,,1.0,0.7,0.7*2F

$GPRMC,141722.0,A,5133.530476,N,00957.754732,E,0.0,97.4,260619,0.1,W,A*29

$PSTIS,*61

$GNGNS,141724.0,,,,,NN,,,,,,*48

$GPVTG,,T,,M,,N,,K,N*2C

$GPGSA,A,1,,,,,,,,,,,,,,,*1E

$GNGSA,A,1,,,,,,,,,,,,,,,*00

$GPGGA,,,,,,0,,,,,,,,*66

$GPRMC,,V,,,,,,,,,,N*53

$GNGNS,141724.0,,,,,NN,,,,,,*48

$GPVTG,,T,,M,,N,,K,N*2C

$GPGSA,A,1,,,,,,,,,,,,,,,*1E

$GNGSA,A,1,,,,,,,,,,,,,,,*00

$GPGGA,,,,,,0,,,,,,,,*66

$GPRMC,,V,,,,,,,,,,N*53

$GLGSV,3,1,10,85,51,073,34,70,48,097,,86,56,309,,77,26,319,*61

$GLGSV,3,2,10,76,29,255,,75,04,213,,69,22,028,,84,00,092,*69

$GLGSV,3,3,10,87,03,282,,71,21,153,*62

$GPGSV,4,1,13,20,51,074,37,07,07,291,,08,46,296,,10,59,125,*79

$GPGSV,4,2,13,11,06,272,,13,01,008,,15,11,037,,16,35,192,*7C

$GPGSV,4,3,13,18,19,254,,21,26,073,,26,10,178,,27,85,246,*7E

$GPGSV,4,4,13,30,07,320,*4E

$GPGGA,141723.7,5133.530475,N,00957.754732,E,1,01,500.0,246.7,M,47.0,M,,*56

$GNGNS,141723.7,5133.530475,N,00957.754732,E,AA,02,500.0,246.7,47.0,,*61

$GPVTG,97.4,T,97.5,M,0.0,N,0.0,K,A*22

$GPGSA,A,2,20,,,,,,,,,,,,500.0,500.0,500.0*34

$GNGSA,A,2,20,,,,,,,,,,,,500.0,500.0,500.0*2A

$GNGSA,A,2,85,,,,,,,,,,,,500.0,500.0,500.0*25

$GPRMC,141723.7,A,5133.530475,N,00957.754732,E,0.0,97.4,260619,0.1,W,A*2C

$PSTIS,*61

$GLGSV,3,1,10,85,51,073,34,70,48,097,,86,56,309,,77,26,319,*61

$GLGSV,3,2,10,76,29,255,,75,04,213,,69,22,028,,84,00,092,*69

$GLGSV,3,3,10,87,03,282,,71,21,153,*62

$GPGSV,4,1,13,20,51,074,37,07,07,291,,08,46,296,,10,59,125,*79

$GPGSV,4,2,13,11,06,272,,13,01,008,,15,11,037,,16,35,192,*7C

$GPGSV,4,3,13,18,19,254,,21,26,073,,26,10,178,,27,85,246,*7E

$GPGSV,4,4,13,30,07,320,*4E

$GPGGA,141723.7,5133.530475,N,00957.754732,E,1,01,500.0,246.7,M,47.0,M,,*56

$GNGNS,141723.7,5133.530475,N,00957.754732,E,AA,02,500.0,246.7,47.0,,*61

$GPVTG,97.4,T,97.5,M,0.0,N,0.0,K,A*22

$GPGSA,A,2,20,,,,,,,,,,,,500.0,500.0,500.0*34

$GNGSA,A,2,20,,,,,,,,,,,,500.0,500.0,500.0*2A

$GNGSA,A,2,85,,,,,,,,,,,,500.0,500.0,500.0*25

$GPRMC,141723.7,A,5133.530475,N,00957.754732,E,0.0,97.4,260619,0.1,W,A*2C

$PSTIS,*61

$GNGNS,141726.0,,,,,NN,,,,,,*4A

$GPVTG,,T,,M,,N,,K,N*2C

$GPGSA,A,1,,,,,,,,,,,,,,,*1E

$GNGSA,A,1,,,,,,,,,,,,,,,*00

$GPGGA,,,,,,0,,,,,,,,*66

$GPRMC,,V,,,,,,,,,,N*53

$GNGNS,141726.0,,,,,NN,,,,,,*4A

$GPVTG,,T,,M,,N,,K,N*2C

$GPGSA,A,1,,,,,,,,,,,,,,,*1E

$GNGSA,A,1,,,,,,,,,,,,,,,*00

$GPGGA,,,,,,0,,,,,,,,*66

$GPRMC,,V,,,,,,,,,,N*53

$GLGSV,3,1,10,70,48,097,26,69,22,028,27,85,51,073,35,71,21,153,27*6B

$GLGSV,3,1,10,70,48,097,26,69,22,028,27,85,51,073,35,71,21,153,27*6B

$GLGSV,3,2,10,86,56,309,,77,26,319,,76,29,255,,75,04,213,*63

$GLGSV,3,3,10,84,00,092,,87,03,282,*67

$GPGSV,4,1,13,20,51,074,35,07,07,291,,08,46,296,,10,59,125,*7B

$GPGSV,4,2,13,11,06,272,,13,01,008,,15,11,037,,16,35,192,*7C

$GPGSV,4,3,13,18,19,254,,21,26,073,,26,10,178,,27,85,246,*7E

$GPGSV,4,4,13,30,07,320,*4E

$GPGGA,141726.0,5133.530238,N,00957.754764,E,1,01,5.1,244.8,M,47.0,M,,*54

$GNGNS,141726.0,5133.530238,N,00957.754764,E,AA,05,5.1,244.8,47.0,,*64

$GPVTG,97.4,T,97.5,M,0.0,N,0.0,K,A*22

$GPGSA,A,2,20,,,,,,,,,,,,5.1,5.1,1.0*30

$GNGSA,A,2,20,,,,,,,,,,,,5.1,5.1,1.0*2E

$GNGSA,A,2,70,69,85,71,,,,,,,,,5.1,5.1,1.0*2F

$GPRMC,141726.0,A,5133.530238,N,00957.754764,E,0.0,97.4,260619,0.1,W,A*22

$PSTIS,*61

$GLGSV,3,2,10,86,56,309,,77,26,319,,76,29,255,,75,04,213,*63

$GLGSV,3,3,10,84,00,092,,87,03,282,*67

$GPGSV,4,1,13,20,51,074,35,07,07,291,,08,46,296,,10,59,125,*7B

$GPGSV,4,2,13,11,06,272,,13,01,008,,15,11,037,,16,35,192,*7C

$GPGSV,4,3,13,18,19,254,,21,26,073,,26,10,178,,27,85,246,*7E

$GPGSV,4,4,13,30,07,320,*4E

$GPGGA,141726.0,5133.530238,N,00957.754764,E,1,01,5.1,244.8,M,47.0,M,,*54

$GNGNS,141726.0,5133.530238,N,00957.754764,E,AA,05,5.1,244.8,47.0,,*64

$GPVTG,97.4,T,97.5,M,0.0,N,0.0,K,A*22

$GPGSA,A,2,20,,,,,,,,,,,,5.1,5.1,1.0*30

$GNGSA,A,2,20,,,,,,,,,,,,5.1,5.1,1.0*2E

$GNGSA,A,2,70,69,85,71,,,,,,,,,5.1,5.1,1.0*2F

$GPRMC,141726.0,A,5133.530238,N,00957.754764,E,0.0,97.4,260619,0.1,W,A*22

$PSTIS,*61

$GLGSV,3,1,10,70,48,097,26,69,22,028,27,85,51,073,35,71,21,153,27*6B

$GLGSV,3,2,10,86,56,309,,77,26,319,,76,29,255,,75,04,213,*63

$GLGSV,3,3,10,84,00,092,,87,03,282,*67

$GPGSV,4,1,13,20,51,074,35,07,07,291,,08,46,296,,10,59,125,*7B

$GPGSV,4,2,13,11,06,272,,13,01,008,,15,11,037,,16,35,192,*7C

$GPGSV,4,3,13,18,19,254,,21,26,073,,26,10,178,,27,85,246,*7E

$GPGSV,4,4,13,30,07,320,*4E

$GNGNS,141728.0,,,,,NN,,,,,,*44

$GPVTG,,T,,M,,N,,K,N*2C

$GPGSA,A,1,,,,,,,,,,,,,,,*1E

$GNGSA,A,1,,,,,,,,,,,,,,,*00

$GPGGA,,,,,,0,,,,,,,,*66

$GPRMC,,V,,,,,,,,,,N*53

$GLGSV,3,1,10,70,48,097,26,69,22,028,27,85,51,073,35,71,21,153,27*6B

$GLGSV,3,2,10,86,56,309,,77,26,319,,76,29,255,,75,04,213,*63

$GLGSV,3,3,10,84,00,092,,87,03,282,*67

$GPGSV,4,1,13,20,51,074,35,07,07,291,,08,46,296,,10,59,125,*7B

$GPGSV,4,2,13,11,06,272,,13,01,008,,15,11,037,,16,35,192,*7C

$GPGSV,4,3,13,18,19,254,,21,26,073,,26,10,178,,27,85,246,*7E

$GPGSV,4,4,13,30,07,320,*4E

$GNGNS,141728.0,,,,,NN,,,,,,*44

$GPVTG,,T,,M,,N,,K,N*2C

$GPGSA,A,1,,,,,,,,,,,,,,,*1E

$GNGSA,A,1,,,,,,,,,,,,,,,*00

$GPGGA,,,,,,0,,,,,,,,*66

$GPRMC,,V,,,,,,,,,,N*53

$GLGSV,3,1,10,77,26,319,24,85,51,073,34,71,21,153,29,70,48,097,*69

$GLGSV,3,2,10,86,56,309,,76,29,255,,75,04,213,,69,22,028,*69

$GLGSV,3,3,10,84,00,092,,87,03,282,*67

$GPGSV,4,1,13,20,51,074,35,27,85,246,34,07,07,291,,08,46,296,*7F

$GPGSV,4,2,13,10,59,125,,11,06,272,,13,01,008,,15,11,036,*7D

$GPGSV,4,3,13,16,35,192,,18,19,254,,21,26,073,,26,10,178,*7D

$GPGSV,4,4,13,30,07,320,*4E

$GNGNS,141728.3,,,,,NN,,,,,,*47

$GPVTG,,T,,M,,N,,K,N*2C

$GPGSA,A,1,,,,,,,,,,,,,,,*1E

$GNGSA,A,1,,,,,,,,,,,,,,,*00

$GPGGA,,,,,,0,,,,,,,,*66

$GPRMC,,V,,,,,,,,,,N*53

$GLGSV,3,1,10,77,26,319,24,85,51,073,34,71,21,153,29,70,48,097,*69

$GLGSV,3,2,10,86,56,309,,76,29,255,,75,04,213,,69,22,028,*69

$GLGSV,3,3,10,84,00,092,,87,03,282,*67

$GPGSV,4,1,13,20,51,074,35,27,85,246,34,07,07,291,,08,46,296,*7F

$GPGSV,4,2,13,10,59,125,,11,06,272,,13,01,008,,15,11,036,*7D

$GPGSV,4,3,13,16,35,192,,18,19,254,,21,26,073,,26,10,178,*7D

$GPGSV,4,4,13,30,07,320,*4E

$GNGNS,141728.3,,,,,NN,,,,,,*47

$GPVTG,,T,,M,,N,,K,N*2C

$GPGSA,A,1,,,,,,,,,,,,,,,*1E

$GNGSA,A,1,,,,,,,,,,,,,,,*00

$GPGGA,,,,,,0,,,,,,,,*66

$GPRMC,,V,,,,,,,,,,N*53

$GLGSV,3,1,10,77,26,319,24,85,51,073,34,71,21,153,29,70,48,097,*69

$GLGSV,3,2,10,86,56,309,,76,29,255,,75,04,213,,69,22,028,*69

$GLGSV,3,3,10,84,00,092,,87,03,282,*67

$GPGSV,4,1,13,20,51,074,35,27,85,246,34,07,07,291,,08,46,296,*7F

$GPGSV,4,2,13,10,59,125,,11,06,272,,13,01,008,,15,11,036,*7D

$GPGSV,4,3,13,16,35,192,,18,19,254,,21,26,073,,26,10,178,*7D

$GPGSV,4,4,13,30,07,320,*4E

$GPGGA,141729.0,5133.530194,N,00957.754742,E,1,02,1.6,245.6,M,47.0,M,,*55

$GNGNS,141729.0,5133.530194,N,00957.754742,E,AA,05,1.6,245.6,47.0,,*66

$GPVTG,97.4,T,97.5,M,0.0,N,0.0,K,A*22

$GPGSA,A,2,20,27,,,,,,,,,,,1.8,1.6,0.9*33

$GNGSA,A,2,20,27,,,,,,,,,,,1.8,1.6,0.9*2D

$GNGSA,A,2,77,85,71,,,,,,,,,,1.8,1.6,0.9*21

$GPRMC,141729.0,A,5133.530194,N,00957.754742,E,0.0,97.4,260619,0.1,W,A*2C

$PSTIS,*61

$GLGSV,3,1,10,77,26,319,24,85,51,073,34,71,21,153,29,70,48,097,*69

$GLGSV,3,2,10,86,56,309,,76,29,255,,75,04,213,,69,22,028,*69

$GLGSV,3,3,10,84,00,092,,87,03,282,*67

$GPGSV,4,1,13,20,51,074,35,27,85,246,34,07,07,291,,08,46,296,*7F

$GPGSV,4,2,13,10,59,125,,11,06,272,,13,01,008,,15,11,036,*7D

$GPGSV,4,3,13,16,35,192,,18,19,254,,21,26,073,,26,10,178,*7D

$GPGSV,4,4,13,30,07,320,*4E

$GPGGA,141729.0,5133.530194,N,00957.754742,E,1,02,1.6,245.6,M,47.0,M,,*55

$GNGNS,141729.0,5133.530194,N,00957.754742,E,AA,05,1.6,245.6,47.0,,*66

$GPVTG,97.4,T,97.5,M,0.0,N,0.0,K,A*22

$GPGSA,A,2,20,27,,,,,,,,,,,1.8,1.6,0.9*33

$GNGSA,A,2,20,27,,,,,,,,,,,1.8,1.6,0.9*2D

$GNGSA,A,2,77,85,71,,,,,,,,,,1.8,1.6,0.9*21

$GPRMC,141729.0,A,5133.530194,N,00957.754742,E,0.0,97.4,260619,0.1,W,A*2C

$PSTIS,*61

$GNGNS,141731.0,,,,,NN,,,,,,*4C

$GPVTG,,T,,M,,N,,K,N*2C

$GPGSA,A,1,,,,,,,,,,,,,,,*1E

$GNGSA,A,1,,,,,,,,,,,,,,,*00

$GPGGA,,,,,,0,,,,,,,,*66

$GPRMC,,V,,,,,,,,,,N*53

$GNGNS,141731.0,,,,,NN,,,,,,*4C

$GPVTG,,T,,M,,N,,K,N*2C

$GPGSA,A,1,,,,,,,,,,,,,,,*1E

$GNGSA,A,1,,,,,,,,,,,,,,,*00

$GPGGA,,,,,,0,,,,,,,,*66

$GPRMC,,V,,,,,,,,,,N*53

$GLGSV,3,1,10,85,51,073,36,70,48,097,,86,56,309,,77,26,319,*63

$GLGSV,3,2,10,76,29,255,,75,04,213,,69,22,028,,84,00,092,*69

$GLGSV,3,3,10,87,03,282,,71,21,153,*62

$GPGSV,4,1,13,20,51,074,35,27,85,246,33,07,07,291,,08,46,296,*78

$GPGSV,4,2,13,10,60,125,,11,06,272,,13,01,008,,15,11,036,*77

$GPGSV,4,3,13,16,35,192,,18,19,254,,21,26,073,,26,10,178,*7D

$GPGSV,4,4,13,30,07,320,*4E

$GNGNS,141730.9,,,,,NN,,,,,,*44

$GPVTG,,T,,M,,N,,K,N*2C

$GPGSA,A,1,,,,,,,,,,,,,,,*1E

$GNGSA,A,1,,,,,,,,,,,,,,,*00

$GPGGA,,,,,,0,,,,,,,,*66

$GPRMC,,V,,,,,,,,,,N*53

$GLGSV,3,1,10,85,51,073,36,70,48,097,,86,56,309,,77,26,319,*63

$GLGSV,3,2,10,76,29,255,,75,04,213,,69,22,028,,84,00,092,*69

$GLGSV,3,3,10,87,03,282,,71,21,153,*62

$GPGSV,4,1,13,20,51,074,35,27,85,246,33,07,07,291,,08,46,296,*78

$GPGSV,4,2,13,10,60,125,,11,06,272,,13,01,008,,15,11,036,*77

$GPGSV,4,3,13,16,35,192,,18,19,254,,21,26,073,,26,10,178,*7D

$GPGSV,4,4,13,30,07,320,*4E

$GNGNS,141730.9,,,,,NN,,,,,,*44

$GPVTG,,T,,M,,N,,K,N*2C

$GPGSA,A,1,,,,,,,,,,,,,,,*1E

$GNGSA,A,1,,,,,,,,,,,,,,,*00

$GPGGA,,,,,,0,,,,,,,,*66

$GPRMC,,V,,,,,,,,,,N*53

$GLGSV,3,1,10,70,48,097,26,77,26,319,22,69,22,028,24,85,51,073,35*60

$GLGSV,3,2,10,71,21,153,25,86,56,309,,76,29,255,,75,04,213,*69

$GLGSV,3,3,10,84,00,092,,87,03,282,*67

$GPGSV,4,1,13,08,46,296,30,10,60,125,31,16,35,192,29,18,19,254,23*7A

$GPGSV,4,2,13,20,51,074,35,21,26,073,29,26,10,178,23,27,85,246,32*75

$GPGSV,4,3,13,07,07,291,,11,06,272,,13,01,008,,15,11,036,*7D

$GPGSV,4,4,13,30,07,320,*4E

$GPGGA,141732.0,5133.529925,N,00957.755186,E,1,08,0.8,246.0,M,47.0,M,,*5A

$GNGNS,141732.0,5133.529925,N,00957.755186,E,AA,13,0.8,246.0,47.0,,*64

$GPVTG,97.4,T,97.5,M,0.0,N,0.0,K,A*22

$GPGSA,A,2,08,10,16,18,20,21,26,27,,,,,1.1,0.8,0.8*34

$GNGSA,A,2,08,10,16,18,20,21,26,27,,,,,1.1,0.8,0.8*2A

$GNGSA,A,2,70,77,69,85,71,,,,,,,,1.1,0.8,0.8*2E

$GPRMC,141732.0,A,5133.529925,N,00957.755186,E,0.0,97.4,260619,0.1,W,A*23

$PSTIS,*61

$GLGSV,3,1,10,70,48,097,26,77,26,319,22,69,22,028,24,85,51,073,35*60

$GLGSV,3,2,10,71,21,153,25,86,56,309,,76,29,255,,75,04,213,*69

$GLGSV,3,3,10,84,00,092,,87,03,282,*67

$GPGSV,4,1,13,08,46,296,30,10,60,125,31,16,35,192,29,18,19,254,23*7A

$GPGSV,4,2,13,20,51,074,35,21,26,073,29,26,10,178,23,27,85,246,32*75

$GPGSV,4,3,13,07,07,291,,11,06,272,,13,01,008,,15,11,036,*7D

$GPGSV,4,4,13,30,07,320,*4E

$GPGGA,141732.0,5133.529925,N,00957.755186,E,1,08,0.8,246.0,M,47.0,M,,*5A

$GNGNS,141732.0,5133.529925,N,00957.755186,E,AA,13,0.8,246.0,47.0,,*64

$GPVTG,97.4,T,97.5,M,0.0,N,0.0,K,A*22

$GPGSA,A,2,08,10,16,18,20,21,26,27,,,,,1.1,0.8,0.8*34

$GNGSA,A,2,08,10,16,18,20,21,26,27,,,,,1.1,0.8,0.8*2A

$GNGSA,A,2,70,77,69,85,71,,,,,,,,1.1,0.8,0.8*2E

$GPRMC,141732.0,A,5133.529925,N,00957.755186,E,0.0,97.4,260619,0.1,W,A*23

$PSTIS,*61

$GNGNS,141734.0,,,,,NN,,,,,,*49

$GPVTG,,T,,M,,N,,K,N*2C

$GPGSA,A,1,,,,,,,,,,,,,,,*1E

$GNGSA,A,1,,,,,,,,,,,,,,,*00

$GPGGA,,,,,,0,,,,,,,,*66

$GPRMC,,V,,,,,,,,,,N*53

$GNGNS,141734.0,,,,,NN,,,,,,*49

$GPVTG,,T,,M,,N,,K,N*2C

$GPGSA,A,1,,,,,,,,,,,,,,,*1E

$GNGSA,A,1,,,,,,,,,,,,,,,*00

$GPGGA,,,,,,0,,,,,,,,*66

$GPRMC,,V,,,,,,,,,,N*53

$GLGSV,3,1,10,69,22,028,25,85,51,073,34,70,48,097,,86,56,309,*6C

$GLGSV,3,2,10,77,26,319,,76,29,255,,75,04,213,,84,00,092,*63

$GLGSV,3,3,10,87,03,282,,71,21,153,*62

$GPGSV,4,1,13,20,51,074,34,07,07,291,,08,46,296,,10,60,125,*70

$GPGSV,4,2,13,11,06,272,,13,01,008,,15,11,036,,16,35,192,*7D

$GPGSV,4,3,13,18,19,254,,21,26,073,,26,10,178,,27,85,244,*7C

$GPGSV,4,4,13,30,07,320,*4E

$GNGNS,141733.7,,,,,NN,,,,,,*49

$GPVTG,,T,,M,,N,,K,N*2C

$GPGSA,A,1,,,,,,,,,,,,,,,*1E

$GNGSA,A,1,,,,,,,,,,,,,,,*00

$GPGGA,,,,,,0,,,,,,,,*66

$GPRMC,,V,,,,,,,,,,N*53

$GLGSV,3,1,10,69,22,028,25,85,51,073,34,70,48,097,,86,56,309,*6C

$GLGSV,3,2,10,77,26,319,,76,29,255,,75,04,213,,84,00,092,*63

$GLGSV,3,3,10,87,03,282,,71,21,153,*62

$GPGSV,4,1,13,20,51,074,34,07,07,291,,08,46,296,,10,60,125,*70

$GPGSV,4,2,13,11,06,272,,13,01,008,,15,11,036,,16,35,192,*7D

$GPGSV,4,3,13,18,19,254,,21,26,073,,26,10,178,,27,85,244,*7C

$GPGSV,4,4,13,30,07,320,*4E

$GNGNS,141733.7,,,,,NN,,,,,,*49

$GPVTG,,T,,M,,N,,K,N*2C

$GPGSA,A,1,,,,,,,,,,,,,,,*1E

$GNGSA,A,1,,,,,,,,,,,,,,,*00

$GPGGA,,,,,,0,,,,,,,,*66

$GPRMC,,V,,,,,,,,,,N*53

$GLGSV,3,1,10,70,48,097,27,77,26,319,24,76,29,255,22,69,22,028,24*64

$GLGSV,3,2,10,85,51,073,34,71,21,153,28,86,56,309,,75,04,213,*66

$GLGSV,3,3,10,84,00,092,,87,03,282,*67

$GPGSV,4,1,13,08,46,296,30,10,60,125,31,16,35,192,29,18,19,254,20*79

$GPGSV,4,2,13,20,51,074,33,21,26,073,27,26,10,178,26,27,85,244,31*79

$GPGSV,4,3,13,30,07,320,22,07,07,291,,11,06,272,,13,01,008,*79

$GPGSV,4,4,13,15,11,036,*4A

$GPGGA,141735.0,5133.530266,N,00957.755187,E,1,09,0.7,244.7,M,47.0,M,,*53

$GNGNS,141735.0,5133.530266,N,00957.755187,E,AA,15,0.7,244.7,47.0,,*6A

$GPVTG,97.4,T,97.5,M,0.0,N,0.0,K,A*22

$GPGSA,A,2,08,10,16,18,20,21,26,27,30,,,,1.0,0.7,0.8*39

$GNGSA,A,2,08,10,16,18,20,21,26,27,30,,,,1.0,0.7,0.8*27

$GNGSA,A,2,70,77,76,69,85,71,,,,,,,1.0,0.7,0.8*21

$GPRMC,141735.0,A,5133.530266,N,00957.755187,E,0.0,97.4,260619,0.1,W,A*21

$PSTIS,*61

$GLGSV,3,1,10,70,48,097,27,77,26,319,24,76,29,255,22,69,22,028,24*64

$GLGSV,3,2,10,85,51,073,34,71,21,153,28,86,56,309,,75,04,213,*66

$GLGSV,3,3,10,84,00,092,,87,03,282,*67

$GPGSV,4,1,13,08,46,296,30,10,60,125,31,16,35,192,29,18,19,254,20*79

$GPGSV,4,2,13,20,51,074,33,21,26,073,27,26,10,178,26,27,85,244,31*79

$GPGSV,4,3,13,30,07,320,22,07,07,291,,11,06,272,,13,01,008,*79

$GPGSV,4,4,13,15,11,036,*4A

$GPGGA,141735.0,5133.530266,N,00957.755187,E,1,09,0.7,244.7,M,47.0,M,,*53

$GNGNS,141735.0,5133.530266,N,00957.755187,E,AA,15,0.7,244.7,47.0,,*6A

$GPVTG,97.4,T,97.5,M,0.0,N,0.0,K,A*22

$GPGSA,A,2,08,10,16,18,20,21,26,27,30,,,,1.0,0.7,0.8*39

$GNGSA,A,2,08,10,16,18,20,21,26,27,30,,,,1.0,0.7,0.8*27

$GNGSA,A,2,70,77,76,69,85,71,,,,,,,1.0,0.7,0.8*21

$GPRMC,141735.0,A,5133.530266,N,00957.755187,E,0.0,97.4,260619,0.1,W,A*21

$PSTIS,*61

$GNGNS,141737.0,,,,,NN,,,,,,*4A

$GPVTG,,T,,M,,N,,K,N*2C

$GPGSA,A,1,,,,,,,,,,,,,,,*1E

$GNGSA,A,1,,,,,,,,,,,,,,,*00

$GPGGA,,,,,,0,,,,,,,,*66

$GPRMC,,V,,,,,,,,,,N*53

$GNGNS,141737.0,,,,,NN,,,,,,*4A

$GPVTG,,T,,M,,N,,K,N*2C

$GPGSA,A,1,,,,,,,,,,,,,,,*1E

$GNGSA,A,1,,,,,,,,,,,,,,,*00

$GPGGA,,,,,,0,,,,,,,,*66

$GPRMC,,V,,,,,,,,,,N*53

$GLGSV,3,1,10,85,51,073,36,71,21,153,29,70,48,097,,86,56,309,*65

$GLGSV,3,2,10,77,26,319,,76,29,255,,75,04,213,,69,22,028,*61

$GLGSV,3,3,10,84,00,092,,87,03,282,*67

$GPGSV,4,1,13,20,51,074,36,07,07,291,,08,46,296,,10,60,125,*72

$GPGSV,4,2,13,11,06,272,,13,01,008,,15,11,036,,16,35,192,*7D

$GLGSV,3,1,10,85,51,073,36,71,21,153,29,70,48,097,,86,56,309,*65

$GLGSV,3,2,10,77,26,319,,76,29,255,,75,04,213,,69,22,028,*61

$GLGSV,3,3,10,84,00,092,,87,03,282,*67

$GPGSV,4,1,13,20,51,074,36,07,07,291,,08,46,296,,10,60,125,*72

$GPGSV,4,2,13,11,06,272,,13,01,008,,15,11,036,,16,35,192,*7D

$GPGSV,4,3,13,18,19,254,,21,26,073,,26,10,178,,27,85,244,*7C

$GPGSV,4,4,13,30,07,320,*4E

$GPGGA,141736.7,5133.530278,N,00957.755186,E,1,01,337.5,244.7,M,47.0,M,,*54

$GNGNS,141736.7,5133.530278,N,00957.755186,E,AA,03,337.5,244.7,47.0,,*62

$GPVTG,97.4,T,97.5,M,0.0,N,0.0,K,A*22

$GPGSA,A,2,20,,,,,,,,,,,,337.5,337.5,1.0*30

$GNGSA,A,2,20,,,,,,,,,,,,337.5,337.5,1.0*2E

$GNGSA,A,2,85,71,,,,,,,,,,,337.5,337.5,1.0*27

$GPRMC,141736.7,A,5133.530278,N,00957.755186,E,0.0,97.4,260619,0.1,W,A*2B

$PSTIS,*61

$GPGSV,4,3,13,18,19,254,,21,26,073,,26,10,178,,27,85,244,*7C

$GPGSV,4,4,13,30,07,320,*4E

$GPGGA,141736.7,5133.530278,N,00957.755186,E,1,01,337.5,244.7,M,47.0,M,,*54

$GNGNS,141736.7,5133.530278,N,00957.755186,E,AA,03,337.5,244.7,47.0,,*62

$GPVTG,97.4,T,97.5,M,0.0,N,0.0,K,A*22

$GPGSA,A,2,20,,,,,,,,,,,,337.5,337.5,1.0*30

$GNGSA,A,2,20,,,,,,,,,,,,337.5,337.5,1.0*2E

$GNGSA,A,2,85,71,,,,,,,,,,,337.5,337.5,1.0*27

$GPRMC,141736.7,A,5133.530278,N,00957.755186,E,0.0,97.4,260619,0.1,W,A*2B

$PSTIS,*61

$GNGNS,141739.0,,,,,NN,,,,,,*44

$GPVTG,,T,,M,,N,,K,N*2C

$GPGSA,A,1,,,,,,,,,,,,,,,*1E

$GNGSA,A,1,,,,,,,,,,,,,,,*00

$GPGGA,,,,,,0,,,,,,,,*66

$GPRMC,,V,,,,,,,,,,N*53

$GNGNS,141739.0,,,,,NN,,,,,,*44

$GPVTG,,T,,M,,N,,K,N*2C

$GPGSA,A,1,,,,,,,,,,,,,,,*1E

$GNGSA,A,1,,,,,,,,,,,,,,,*00

$GPGGA,,,,,,0,,,,,,,,*66

$GPRMC,,V,,,,,,,,,,N*53

$GLGSV,3,1,10,85,51,073,34,70,48,097,,86,56,309,,77,26,319,*61

$GLGSV,3,1,10,85,51,073,34,70,48,097,,86,56,309,,77,26,319,*61

$GLGSV,3,2,10,76,29,255,,75,04,213,,69,22,028,,84,00,092,*69

$GLGSV,3,3,10,87,03,282,,71,21,153,*62

$GPGSV,4,1,13,07,07,291,,08,46,296,,10,60,125,,11,06,272,*73

$GPGSV,4,2,13,13,01,008,,15,11,036,,16,35,192,,18,19,254,*7E

$GPGSV,4,3,13,20,51,074,,21,26,073,,26,10,178,,27,85,244,*7B

$GPGSV,4,4,13,30,07,320,*4E

$GNGNS,141738.9,,,,,NN,,,,,,*4C

$GPVTG,,T,,M,,N,,K,N*2C

$GPGSA,A,1,,,,,,,,,,,,,,,*1E

$GNGSA,A,1,,,,,,,,,,,,,,,*00

$GPGGA,,,,,,0,,,,,,,,*66

$GPRMC,,V,,,,,,,,,,N*53

$GLGSV,3,2,10,76,29,255,,75,04,213,,69,22,028,,84,00,092,*69

$GLGSV,3,3,10,87,03,282,,71,21,153,*62

$GPGSV,4,1,13,07,07,291,,08,46,296,,10,60,125,,11,06,272,*73

$GPGSV,4,2,13,13,01,008,,15,11,036,,16,35,192,,18,19,254,*7E

$GPGSV,4,3,13,20,51,074,,21,26,073,,26,10,178,,27,85,244,*7B

$GPGSV,4,4,13,30,07,320,*4E

$GNGNS,141738.9,,,,,NN,,,,,,*4C

$GPVTG,,T,,M,,N,,K,N*2C

$GPGSA,A,1,,,,,,,,,,,,,,,*1E

$GNGSA,A,1,,,,,,,,,,,,,,,*00

$GPGGA,,,,,,0,,,,,,,,*66

$GPRMC,,V,,,,,,,,,,N*53

$GLGSV,3,1,10,70,48,097,30,77,26,319,26,76,29,255,26,75,04,213,22*61

$GLGSV,3,2,10,69,22,028,22,85,51,073,36,71,21,153,26,86,56,309,*69

$GLGSV,3,3,10,84,00,092,,87,03,282,*67

$GPGSV,4,1,13,07,07,291,24,08,46,296,26,10,60,125,31,16,35,192,30*7A

$GPGSV,4,2,13,18,19,254,25,20,51,074,34,21,26,073,28,26,10,178,23*79

$GPGSV,4,3,13,27,85,244,32,11,06,272,,13,01,008,,15,11,036,*7C

$GPGSV,4,4,13,30,07,320,*4E

$GPGGA,141740.0,5133.530271,N,00957.755027,E,1,09,0.7,244.2,M,47.0,M,,*59

$GNGNS,141740.0,5133.530271,N,00957.755027,E,AA,15,0.7,244.2,47.0,,*60

$GPVTG,97.4,T,97.5,M,0.0,N,0.0,K,A*22

$GPGSA,A,2,07,08,10,16,18,20,21,26,27,,,,1.0,0.7,0.8*3D

$GNGSA,A,2,07,08,10,16,18,20,21,26,27,,,,1.0,0.7,0.8*23

$GNGSA,A,2,70,77,76,69,85,71,,,,,,,1.0,0.7,0.8*21

$GPRMC,141740.0,A,5133.530271,N,00957.755027,E,0.0,97.4,260619,0.1,W,A*2E

$PSTIS,*61

$GLGSV,3,1,10,70,48,097,30,77,26,319,26,76,29,255,26,75,04,213,22*61

$GLGSV,3,2,10,69,22,028,22,85,51,073,36,71,21,153,26,86,56,309,*69

$GLGSV,3,3,10,84,00,092,,87,03,282,*67

$GPGSV,4,1,13,07,07,291,24,08,46,296,26,10,60,125,31,16,35,192,30*7A

$GPGSV,4,2,13,18,19,254,25,20,51,074,34,21,26,073,28,26,10,178,23*79

$GPGSV,4,3,13,27,85,244,32,11,06,272,,13,01,008,,15,11,036,*7C

$GPGSV,4,4,13,30,07,320,*4E

$GPGGA,141740.0,5133.530271,N,00957.755027,E,1,09,0.7,244.2,M,47.0,M,,*59

$GNGNS,141740.0,5133.530271,N,00957.755027,E,AA,15,0.7,244.2,47.0,,*60

$GPVTG,97.4,T,97.5,M,0.0,N,0.0,K,A*22

$GPGSA,A,2,07,08,10,16,18,20,21,26,27,,,,1.0,0.7,0.8*3D

$GNGSA,A,2,07,08,10,16,18,20,21,26,27,,,,1.0,0.7,0.8*23

$GNGSA,A,2,70,77,76,69,85,71,,,,,,,1.0,0.7,0.8*21

$GPRMC,141740.0,A,5133.530271,N,00957.755027,E,0.0,97.4,260619,0.1,W,A*2E

$PSTIS,*61

$GNGNS,141742.0,,,,,NN,,,,,,*48

$GPVTG,,T,,M,,N,,K,N*2C

$GPGSA,A,1,,,,,,,,,,,,,,,*1E

$GNGSA,A,1,,,,,,,,,,,,,,,*00

$GPGGA,,,,,,0,,,,,,,,*66

$GPRMC,,V,,,,,,,,,,N*53

$GNGNS,141742.0,,,,,NN,,,,,,*48

$GPVTG,,T,,M,,N,,K,N*2C

$GPGSA,A,1,,,,,,,,,,,,,,,*1E

$GNGSA,A,1,,,,,,,,,,,,,,,*00

$GPGGA,,,,,,0,,,,,,,,*66

$GPRMC,,V,,,,,,,,,,N*53

$GLGSV,3,1,10,85,51,073,35,71,21,153,29,70,48,097,,86,56,309,*66

$GLGSV,3,2,10,77,26,319,,76,29,255,,75,04,213,,69,22,028,*61

$GLGSV,3,3,10,84,00,092,,87,03,282,*67

$GPGSV,4,1,13,10,60,125,34,20,51,074,37,07,07,291,,08,46,296,*74

$GPGSV,4,2,13,11,06,272,,13,01,007,,15,11,036,,16,35,192,*72

$GPGSV,4,3,13,18,19,254,,21,26,073,,26,10,178,,27,85,244,*7C

$GPGSV,4,4,13,30,07,320,*4E

$GPGGA,141741.7,5133.530269,N,00957.755022,E,1,02,12.0,244.2,M,47.0,M,,*6C

$GNGNS,141741.7,5133.530269,N,00957.755022,E,AA,04,12.0,244.2,47.0,,*5E

$GPVTG,97.4,T,97.5,M,0.0,N,0.0,K,A*22

$GPGSA,A,2,10,20,,,,,,,,,,,12.0,12.0,1.0*31

$GNGSA,A,2,10,20,,,,,,,,,,,12.0,12.0,1.0*2F

$GNGSA,A,2,85,71,,,,,,,,,,,12.0,12.0,1.0*27

$GPRMC,141741.7,A,5133.530269,N,00957.755022,E,0.0,97.4,260619,0.1,W,A*24

$PSTIS,*61

$GLGSV,3,1,10,85,51,073,35,71,21,153,29,70,48,097,,86,56,309,*66

$GLGSV,3,2,10,77,26,319,,76,29,255,,75,04,213,,69,22,028,*61

$GLGSV,3,3,10,84,00,092,,87,03,282,*67

$GPGSV,4,1,13,10,60,125,34,20,51,074,37,07,07,291,,08,46,296,*74

$GPGSV,4,2,13,11,06,272,,13,01,007,,15,11,036,,16,35,192,*72

$GPGSV,4,3,13,18,19,254,,21,26,073,,26,10,178,,27,85,244,*7C

$GPGSV,4,4,13,30,07,320,*4E

$GPGGA,141741.7,5133.530269,N,00957.755022,E,1,02,12.0,244.2,M,47.0,M,,*6C

$GNGNS,141741.7,5133.530269,N,00957.755022,E,AA,04,12.0,244.2,47.0,,*5E

$GPVTG,97.4,T,97.5,M,0.0,N,0.0,K,A*22

$GPGSA,A,2,10,20,,,,,,,,,,,12.0,12.0,1.0*31

$GNGSA,A,2,10,20,,,,,,,,,,,12.0,12.0,1.0*2F

$GNGSA,A,2,85,71,,,,,,,,,,,12.0,12.0,1.0*27

$GPRMC,141741.7,A,5133.530269,N,00957.755022,E,0.0,97.4,260619,0.1,W,A*24

$PSTIS,*61

$GNGNS,141744.0,,,,,NN,,,,,,*4E

$GPVTG,,T,,M,,N,,K,N*2C

$GPGSA,A,1,,,,,,,,,,,,,,,*1E

$GNGSA,A,1,,,,,,,,,,,,,,,*00

$GPGGA,,,,,,0,,,,,,,,*66

$GPRMC,,V,,,,,,,,,,N*53

$GNGNS,141744.0,,,,,NN,,,,,,*4E

$GPVTG,,T,,M,,N,,K,N*2C

$GPGSA,A,1,,,,,,,,,,,,,,,*1E

$GNGSA,A,1,,,,,,,,,,,,,,,*00

$GPGGA,,,,,,0,,,,,,,,*66

$GPRMC,,V,,,,,,,,,,N*53

$GLGSV,3,1,10,85,51,073,35,70,48,097,,86,56,309,,77,26,319,*60

$GLGSV,3,2,10,76,29,255,,75,04,213,,69,22,028,,84,00,092,*69

$GLGSV,3,3,10,87,03,282,,71,21,153,*62

$GPGSV,4,1,13,20,51,074,35,07,07,291,,08,46,296,,10,60,125,*71

$GPGSV,4,2,13,11,06,272,,13,01,007,,15,11,036,,16,35,192,*72

$GPGSV,4,3,13,18,19,254,,21,26,073,,26,10,178,,27,85,243,*7B

$GPGSV,4,4,13,30,07,320,*4E

$GNGNS,141743.9,,,,,NN,,,,,,*40

$GPVTG,,T,,M,,N,,K,N*2C

$GPGSA,A,1,,,,,,,,,,,,,,,*1E

$GNGSA,A,1,,,,,,,,,,,,,,,*00

$GPGGA,,,,,,0,,,,,,,,*66

$GPRMC,,V,,,,,,,,,,N*53

$GLGSV,3,1,10,85,51,073,35,70,48,097,,86,56,309,,77,26,319,*60

$GLGSV,3,2,10,76,29,255,,75,04,213,,69,22,028,,84,00,092,*69

$GLGSV,3,3,10,87,03,282,,71,21,153,*62

$GPGSV,4,1,13,20,51,074,35,07,07,291,,08,46,296,,10,60,125,*71

$GPGSV,4,2,13,11,06,272,,13,01,007,,15,11,036,,16,35,192,*72

$GPGSV,4,3,13,18,19,254,,21,26,073,,26,10,178,,27,85,243,*7B

$GPGSV,4,4,13,30,07,320,*4E

$GNGNS,141743.9,,,,,NN,,,,,,*40

$GPVTG,,T,,M,,N,,K,N*2C

$GPGSA,A,1,,,,,,,,,,,,,,,*1E

$GNGSA,A,1,,,,,,,,,,,,,,,*00

$GPGGA,,,,,,0,,,,,,,,*66

$GPRMC,,V,,,,,,,,,,N*53

$GLGSV,3,1,10,70,48,097,27,77,26,319,24,69,22,028,22,85,51,073,35*61

$GLGSV,3,2,10,71,21,153,28,86,56,309,,76,29,255,,75,04,213,*64

$GLGSV,3,3,10,84,00,092,,87,03,282,*67

$GPGSV,4,1,13,07,07,291,22,08,46,296,28,10,60,125,30,16,35,192,32*71

$GPGSV,4,2,13,18,19,254,21,20,51,074,34,21,26,073,25,26,10,178,25*76

$GPGSV,4,3,13,27,86,247,31,30,07,320,24,11,06,272,,13,01,007,*72

$GPGSV,4,4,13,15,11,036,*4A

$GPGGA,141745.0,5133.530429,N,00957.755076,E,1,10,0.7,244.8,M,47.0,M,,*51

$GNGNS,141745.0,5133.530429,N,00957.755076,E,AA,15,0.7,244.8,47.0,,*60

$GPVTG,97.4,T,97.5,M,0.0,N,0.0,K,A*22

$GPGSA,A,2,07,08,10,16,18,20,21,26,27,30,,,1.0,0.7,0.7*31

$GNGSA,A,2,07,08,10,16,18,20,21,26,27,30,,,1.0,0.7,0.7*2F

$GNGSA,A,2,70,77,69,85,71,,,,,,,,1.0,0.7,0.7*2F

$GPRMC,141745.0,A,5133.530429,N,00957.755076,E,0.0,97.4,260619,0.1,W,A*24

$PSTIS,*61

$GLGSV,3,1,10,70,48,097,27,77,26,319,24,69,22,028,22,85,51,073,35*61

$GLGSV,3,2,10,71,21,153,28,86,56,309,,76,29,255,,75,04,213,*64

$GLGSV,3,3,10,84,00,092,,87,03,282,*67

$GPGSV,4,1,13,07,07,291,22,08,46,296,28,10,60,125,30,16,35,192,32*71

$GPGSV,4,2,13,18,19,254,21,20,51,074,34,21,26,073,25,26,10,178,25*76

$GPGSV,4,3,13,27,86,247,31,30,07,320,24,11,06,272,,13,01,007,*72

$GPGSV,4,4,13,15,11,036,*4A

$GPGGA,141745.0,5133.530429,N,00957.755076,E,1,10,0.7,244.8,M,47.0,M,,*51

$GNGNS,141745.0,5133.530429,N,00957.755076,E,AA,15,0.7,244.8,47.0,,*60

$GPVTG,97.4,T,97.5,M,0.0,N,0.0,K,A*22

$GPGSA,A,2,07,08,10,16,18,20,21,26,27,30,,,1.0,0.7,0.7*31

$GNGSA,A,2,07,08,10,16,18,20,21,26,27,30,,,1.0,0.7,0.7*2F

$GNGSA,A,2,70,77,69,85,71,,,,,,,,1.0,0.7,0.7*2F

$GPRMC,141745.0,A,5133.530429,N,00957.755076,E,0.0,97.4,260619,0.1,W,A*24

$PSTIS,*61

$GNGNS,141747.0,,,,,NN,,,,,,*4D

$GPVTG,,T,,M,,N,,K,N*2C

$GNGNS,141747.0,,,,,NN,,,,,,*4D

$GPVTG,,T,,M,,N,,K,N*2C

$GPGSA,A,1,,,,,,,,,,,,,,,*1E

$GNGSA,A,1,,,,,,,,,,,,,,,*00

$GPGGA,,,,,,0,,,,,,,,*66

$GPRMC,,V,,,,,,,,,,N*53

$GPGSA,A,1,,,,,,,,,,,,,,,*1E

$GNGSA,A,1,,,,,,,,,,,,,,,*00

$GPGGA,,,,,,0,,,,,,,,*66

$GPRMC,,V,,,,,,,,,,N*53

$GLGSV,3,1,10,85,51,073,35,71,22,153,30,70,48,097,,86,56,309,*6D

$GLGSV,3,2,10,77,26,319,,76,29,255,,75,04,213,,69,22,028,*61

$GLGSV,3,3,10,84,00,092,,87,03,282,*67

$GPGSV,4,1,13,16,35,192,34,27,85,243,34,07,07,291,,08,46,296,*75

$GPGSV,4,2,13,10,60,125,,11,06,272,,13,01,007,,15,11,036,*78

$GPGSV,4,3,13,18,19,254,,20,51,074,,21,26,073,,26,10,178,*73

$GPGSV,4,4,13,30,07,320,*4E

$GPGGA,141746.7,5133.530432,N,00957.755087,E,1,02,2.7,244.8,M,47.0,M,,*50

$GNGNS,141746.7,5133.530432,N,00957.755087,E,AA,04,2.7,244.8,47.0,,*62

$GPVTG,97.4,T,97.5,M,0.0,N,0.0,K,A*22

$GPGSA,A,2,16,27,,,,,,,,,,,2.9,2.7,1.0*3E

$GNGSA,A,2,16,27,,,,,,,,,,,2.9,2.7,1.0*20

$GNGSA,A,2,85,71,,,,,,,,,,,2.9,2.7,1.0*29

$GPRMC,141746.7,A,5133.530432,N,00957.755087,E,0.0,97.4,260619,0.1,W,A*24

$PSTIS,*61

$GLGSV,3,1,10,85,51,073,35,71,22,153,30,70,48,097,,86,56,309,*6D

$GLGSV,3,2,10,77,26,319,,76,29,255,,75,04,213,,69,22,028,*61

$GLGSV,3,3,10,84,00,092,,87,03,282,*67

$GPGSV,4,1,13,16,35,192,34,27,85,243,34,07,07,291,,08,46,296,*75

$GPGSV,4,2,13,10,60,125,,11,06,272,,13,01,007,,15,11,036,*78

$GPGSV,4,3,13,18,19,254,,20,51,074,,21,26,073,,26,10,178,*73

$GPGSV,4,4,13,30,07,320,*4E

$GPGGA,141746.7,5133.530432,N,00957.755087,E,1,02,2.7,244.8,M,47.0,M,,*50

$GNGNS,141746.7,5133.530432,N,00957.755087,E,AA,04,2.7,244.8,47.0,,*62

$GPVTG,97.4,T,97.5,M,0.0,N,0.0,K,A*22

$GPGSA,A,2,16,27,,,,,,,,,,,2.9,2.7,1.0*3E

$GNGSA,A,2,16,27,,,,,,,,,,,2.9,2.7,1.0*20

$GNGSA,A,2,85,71,,,,,,,,,,,2.9,2.7,1.0*29

$GPRMC,141746.7,A,5133.530432,N,00957.755087,E,0.0,97.4,260619,0.1,W,A*24

$PSTIS,*61

$GNGNS,141749.0,,,,,NN,,,,,,*43

$GPVTG,,T,,M,,N,,K,N*2C

$GPGSA,A,1,,,,,,,,,,,,,,,*1E

$GNGSA,A,1,,,,,,,,,,,,,,,*00

$GPGGA,,,,,,0,,,,,,,,*66

$GPRMC,,V,,,,,,,,,,N*53

$GNGNS,141749.0,,,,,NN,,,,,,*43

$GPVTG,,T,,M,,N,,K,N*2C

$GPGSA,A,1,,,,,,,,,,,,,,,*1E

$GNGSA,A,1,,,,,,,,,,,,,,,*00

$GPGGA,,,,,,0,,,,,,,,*66

$GPRMC,,V,,,,,,,,,,N*53

$GLGSV,3,1,10,85,51,073,34,70,48,097,,86,56,309,,77,27,319,*60

$GLGSV,3,2,10,76,29,255,,75,04,213,,69,22,028,,84,00,092,*69

$GLGSV,3,3,10,87,03,282,,71,22,153,*61

$GPGSV,4,1,13,07,07,291,,08,46,296,,10,60,125,,11,06,272,*73

$GPGSV,4,2,13,13,01,007,,15,11,036,,16,35,192,,18,19,254,*71

$GPGSV,4,3,13,20,51,074,,21,26,073,,26,10,178,,27,85,243,*7C

$GPGSV,4,4,13,30,07,320,*4E

$GNGNS,141748.9,,,,,NN,,,,,,*4B

$GPVTG,,T,,M,,N,,K,N*2C

$GPGSA,A,1,,,,,,,,,,,,,,,*1E

$GNGSA,A,1,,,,,,,,,,,,,,,*00

$GPGGA,,,,,,0,,,,,,,,*66

$GPRMC,,V,,,,,,,,,,N*53

$GLGSV,3,1,10,85,51,073,34,70,48,097,,86,56,309,,77,27,319,*60

$GLGSV,3,2,10,76,29,255,,75,04,213,,69,22,028,,84,00,092,*69

$GLGSV,3,3,10,87,03,282,,71,22,153,*61

$GPGSV,4,1,13,07,07,291,,08,46,296,,10,60,125,,11,06,272,*73

$GPGSV,4,2,13,13,01,007,,15,11,036,,16,35,192,,18,19,254,*71

$GPGSV,4,3,13,20,51,074,,21,26,073,,26,10,178,,27,85,243,*7C

$GPGSV,4,4,13,30,07,320,*4E

$GNGNS,141748.9,,,,,NN,,,,,,*4B

$GPVTG,,T,,M,,N,,K,N*2C

$GPGSA,A,1,,,,,,,,,,,,,,,*1E

$GNGSA,A,1,,,,,,,,,,,,,,,*00

$GPGGA,,,,,,0,,,,,,,,*66

$GPRMC,,V,,,,,,,,,,N*53

$GLGSV,3,1,10,70,48,097,25,86,56,309,21,77,27,319,22,76,29,255,21*65

$GLGSV,3,2,10,75,04,213,21,85,51,073,33,71,22,153,27,69,22,028,*6C

$GLGSV,3,3,10,84,00,092,,87,03,282,*67

$GPGSV,4,1,13,07,07,291,24,08,46,296,29,10,60,125,30,16,35,192,31*75

$GPGSV,4,2,13,18,19,254,23,20,51,074,34,21,26,073,27,26,10,178,26*75

$GPGSV,4,3,13,27,85,243,32,30,07,320,23,11,06,272,,13,01,007,*71

$GPGSV,4,4,13,15,11,036,*4A

$GPGGA,141750.0,5133.530683,N,00957.754590,E,1,10,0.7,245.3,M,47.0,M,,*51

$GNGNS,141750.0,5133.530683,N,00957.754590,E,AA,16,0.7,245.3,47.0,,*63

$GPVTG,97.4,T,97.5,M,0.0,N,0.0,K,A*22

$GPGSA,A,2,07,08,10,16,18,20,21,26,27,30,,,1.0,0.7,0.7*31

$GNGSA,A,2,07,08,10,16,18,20,21,26,27,30,,,1.0,0.7,0.7*2F

$GNGSA,A,2,70,86,77,76,85,71,,,,,,,1.0,0.7,0.7*2F

$GPRMC,141750.0,A,5133.530683,N,00957.754590,E,0.0,97.4,260619,0.1,W,A*2E

$PSTIS,*61

$GLGSV,3,1,10,70,48,097,25,86,56,309,21,77,27,319,22,76,29,255,21*65

$GLGSV,3,2,10,75,04,213,21,85,51,073,33,71,22,153,27,69,22,028,*6C

$GLGSV,3,3,10,84,00,092,,87,03,282,*67

$GPGSV,4,1,13,07,07,291,24,08,46,296,29,10,60,125,30,16,35,192,31*75

$GPGSV,4,2,13,18,19,254,23,20,51,074,34,21,26,073,27,26,10,178,26*75

$GPGSV,4,3,13,27,85,243,32,30,07,320,23,11,06,272,,13,01,007,*71

$GPGSV,4,4,13,15,11,036,*4A

$GPGGA,141750.0,5133.530683,N,00957.754590,E,1,10,0.7,245.3,M,47.0,M,,*51

$GNGNS,141750.0,5133.530683,N,00957.754590,E,AA,16,0.7,245.3,47.0,,*63

$GPVTG,97.4,T,97.5,M,0.0,N,0.0,K,A*22

$GPGSA,A,2,07,08,10,16,18,20,21,26,27,30,,,1.0,0.7,0.7*31

