$PSAMID,SLL_3.4.8_KXB24_T12,*31

$GPGGA,135618.223,,,,,0,,,,,,,,*73

$GPGLL,5133.5064,N,00957.7948,E,135618.223,V,N*40

$GPVTG,0.0,T,,M,0.0,N,0.0,K,N*02

$GPGSV,1,1,02,20,56,090,37,27,77,295,35*7A

$GLGSV,1,1,03,76,37,267,39,85,59,057,35,86,48,296,40*54

$GPRMC,135618.223,V,,,,,,,260619,,,N*4C

$PSAMCLK,2059,30939622,0,9561571,59463,309396223*43

$GPGGA,135618.309,,,,,0,,,,,,,,*7A

$GPGLL,5133.5273,N,00957.8012,E,135618.309,V,N*44

$GPVTG,0.0,T,,M,0.0,N,0.0,K,N*02

$GPGSV,1,1,03,08,38,296,37,20,56,090,37,27,77,295,35*41

$GLGSV,1,1,03,76,37,267,39,85,59,057,35,86,48,296,40*54

$GPRMC,135618.309,V,,,,,,,260619,,,N*45

$PSAMCLK,2059,30939631,5,9561571,5210,309396309*76

$PSAMID,SLL_3.4.8_KXB24_T12,*31

$GPGGA,135619.316,5133.5016,N,00957.7923,E,1,09,1.2,241.8,M,47.5,M,,*50

$GPGLL,5133.5016,N,00957.7923,E,135619.316,A,A*56

$GPVTG,0.0,T,,M,0.6,N,1.1,K,A*0B

$GPGSV,2,1,05,08,38,296,37,10,54,141,32,16,46,197,25,20,56,090,37*71

$GPGSV,2,2,05,27,77,295,35*41

$GLGSV,1,1,04,70,41,111,34,76,37,267,39,85,59,057,35,86,48,296,40*67

$GPGSA,A,3,27,20,10,16,08,,,,,,,,3.4,1.2,3.2*3E

$GNGSA,A,3,70,76,85,86,,,,,,,,,3.4,1.2,3.2*2C

$GPRMC,135619.316,A,5133.5016,N,00957.7923,E,0.6,0.0,260619,,,A*6D

$PSAMCLK,2059,30939732,9,9561464,66342,309397316*41

$GPGGA,135620.000,5133.5064,N,00957.7936,E,1,13,0.6,241.8,M,47.5,M,,*51

$GPGLL,5133.5064,N,00957.7936,E,135620.000,A,A*59

$GPVTG,0.0,T,,M,0.6,N,1.2,K,A*08

$GPGSV,2,1,08,07,12,300,18,08,38,296,37,10,54,141,32,16,46,197,25*7E

$GPGSV,2,2,08,20,56,090,37,21,35,070,22,26,20,180,22,27,77,295,35*7D

$GLGSV,2,1,05,69,29,036,24,70,41,111,34,76,37,267,39,85,59,057,35*69

$GLGSV,2,2,05,86,48,297,40*5A

$GPGSA,A,3,27,20,10,16,08,21,26,07,,,,,1.6,0.6,1.4*3F

$GNGSA,A,3,69,70,76,85,86,,,,,,,,1.6,0.6,1.4*22

$GPRMC,135620.000,A,5133.5064,N,00957.7936,E,0.6,0.0,260619,,,A*62

$PSAMCLK,2059,30939800,13,9561740,107836,309398000*44

$GPGGA,135621.000,5133.5079,N,00957.7955,E,1,15,0.6,257.6,M,47.5,M,,*56

$GPGLL,5133.5079,N,00957.7955,E,135621.000,A,A*51

$GPVTG,0.0,T,,M,0.6,N,1.1,K,A*0B

$GPGSV,3,1,09,07,12,300,18,08,38,296,36,10,54,141,32,16,46,197,25*7F

$GPGSV,3,2,09,18,12,250,20,20,56,090,37,21,35,070,22,26,20,180,23*7E

$GPGSV,3,3,09,27,77,295,35*4D

$GLGSV,2,1,06,69,29,036,25,70,41,111,33,75,14,217,20,76,37,267,38*69

$GLGSV,2,2,06,85,59,057,35,86,48,297,39*62

$GPGSA,A,3,27,20,10,16,08,21,26,07,18,,,,1.4,0.6,1.2*32

$GNGSA,A,3,69,70,75,76,85,86,,,,,,,1.4,0.6,1.2*24

$GPRMC,135621.000,A,5133.5079,N,00957.7955,E,0.6,0.0,260619,,,A*6A

$PSAMCLK,2059,30939900,15,9561449,168574,309399000*4A

$GPGGA,135622.000,5133.5044,N,00957.7990,E,1,15,0.6,248.4,M,47.5,M,,*5E

$GPGLL,5133.5044,N,00957.7990,E,135622.000,A,A*55

$GPVTG,0.0,T,,M,0.3,N,0.6,K,A*08

$GPGSV,3,1,09,07,12,300,22,08,38,296,36,10,54,141,32,16,46,197,26*75

$GPGSV,3,2,09,18,12,250,20,20,56,090,36,21,35,070,22,26,20,180,24*78

$GPGSV,3,3,09,27,77,295,35*4D

$GLGSV,2,1,06,69,29,036,25,70,41,111,33,75,14,217,20,76,37,267,38*69

$GLGSV,2,2,06,85,59,057,35,86,48,297,39*62

$GPGSA,A,3,27,20,10,16,08,21,26,07,18,,,,1.4,0.6,1.2*32

$GNGSA,A,3,69,70,75,76,85,86,,,,,,,1.4,0.6,1.2*24

$GPRMC,135622.000,A,5133.5044,N,00957.7990,E,0.3,0.0,260619,,,A*6B

$PSAMCLK,2059,30940000,15,9561590,0,309400000*76

$PSAMDLOK,76,0x00F,0x000*58

$PSAMDLOK,85,0x00F,0x000*54

$PSAMDLOK,70,0x000,0x000*28

$PSAMDLOK,86,0x00F,0x000*57

$PSAMDLOK,69,0x000,0x00F*56

$GPGGA,135623.000,5133.5061,N,00957.7968,E,1,15,0.6,238.5,M,47.5,M,,*59

$GPGLL,5133.5061,N,00957.7968,E,135623.000,A,A*54

$GPVTG,136.7,T,,M,0.7,N,1.4,K,A*0C

$GPGSV,3,1,09,07,12,300,24,08,38,296,35,10,54,141,32,16,46,197,26*70

$GPGSV,3,2,09,18,12,250,20,20,56,090,36,21,35,070,22,26,20,180,24*78

$GPGSV,3,3,09,27,77,295,35*4D

$GLGSV,2,1,06,69,29,036,25,70,41,111,33,75,14,217,20,76,37,267,38*69

$GLGSV,2,2,06,85,59,057,35,86,48,297,38*63

$GPGSA,A,3,27,20,10,16,08,21,26,07,18,,,,1.4,0.6,1.2*32

$GNGSA,A,3,69,70,75,76,85,86,,,,,,,1.4,0.6,1.2*24

$GPRMC,135623.000,A,5133.5061,N,00957.7968,E,0.7,136.7,260619,,,A*6D

$PSAMCLK,2059,30940100,15,9561577,60652,309401000*78

$GPGGA,135624.000,5133.5059,N,00957.7966,E,1,15,0.6,236.4,M,47.5,M,,*54

$GPGLL,5133.5059,N,00957.7966,E,135624.000,A,A*56

$GPVTG,137.0,T,,M,0.2,N,0.4,K,A*0E

$GPGSV,3,1,09,07,12,300,24,08,38,296,35,10,54,141,32,16,46,197,26*70

$GPGSV,3,2,09,18,12,250,20,20,56,090,36,21,35,070,21,26,20,180,25*7A

$GPGSV,3,3,09,27,77,295,35*4D

$GLGSV,2,1,06,69,29,036,25,70,41,111,33,75,14,217,20,76,37,267,37*66

$GLGSV,2,2,06,85,59,057,35,86,48,297,38*63

$GPGSA,A,3,27,20,10,16,08,21,26,07,18,,,,1.4,0.6,1.2*32

$GNGSA,A,3,69,70,75,76,85,86,,,,,,,1.4,0.6,1.2*24

$GPRMC,135624.000,A,5133.5059,N,00957.7966,E,0.2,137.0,260619,,,A*6C

$PSAMCLK,2059,30940200,15,9561672,121344,309402000*48

$PSAMDLERR,27,2,0x1FE*23

$PSAMDLERR,10,3,0x1BE*22

$PSAMDLOK,8,0x066,0x018*1E

$PSAMDLOK,16,0x012,0x3FF*28

$PSAMDLOK,26,0x012,0x3FE*28

$PSAMDLOK,20,0x1FE,0x200*2D

$PSAMDLOK,7,0x020,0x3FC*1C

$PSAMDLOK,21,0x002,0x3FE*2E

$PSAMDLOK,18,0x000,0x3F0*53

$PSAMDLOK,70,0x000,0x000*28

$PSAMDLOK,86,0x000,0x000*21

$PSAMDLOK,76,0x000,0x00F*58

$PSAMDLOK,85,0x000,0x00F*54

$PSAMDLOK,69,0x000,0x00F*56

$GPGGA,135625.000,5133.5064,N,00957.7967,E,1,14,0.8,238.1,M,47.5,M,,*5E

$GPGLL,5133.5064,N,00957.7967,E,135625.000,A,A*58

$GPVTG,51.3,T,,M,1.0,N,1.9,K,A*33

$GPGSV,3,1,09,07,12,300,24,08,38,296,34,10,54,141,32,16,46,197,26*71

$GPGSV,3,2,09,18,12,250,20,20,56,090,35,21,35,070,21,26,20,180,25*79

$GPGSV,3,3,09,27,77,295,35*4D

$GLGSV,2,1,06,69,29,036,25,70,41,111,33,75,14,217,20,76,37,267,36*67

$GLGSV,2,2,06,85,59,057,34,86,48,297,37*6D

$GPGSA,A,3,27,20,10,16,08,21,26,07,18,,,,1.6,0.8,1.2*3E

$GNGSA,A,3,70,75,76,85,86,,,,,,,,1.6,0.8,1.2*27

$GPRMC,135625.000,A,5133.5064,N,00957.7967,E,1.0,51.3,260619,,,A*53

$PSAMCLK,2059,30940300,14,9561478,182041,309403000*4E

$GPGGA,135626.000,5133.5072,N,00957.7975,E,1,14,0.8,237.2,M,47.5,M,,*55

$GPGLL,5133.5072,N,00957.7975,E,135626.000,A,A*5F

$GPVTG,40.6,T,,M,2.1,N,3.9,K,A*36

$GPGSV,3,1,09,07,12,300,24,08,38,296,34,10,54,141,32,16,46,197,26*71

$GPGSV,3,2,09,18,12,250,20,20,56,090,34,21,35,070,21,26,20,180,25*78

$GPGSV,3,3,09,27,77,295,34*4C

$GLGSV,2,1,07,69,29,036,23,70,41,111,32,71,11,156,11,75,14,217,20*66

$GLGSV,2,2,07,76,37,267,35,85,59,057,33,86,48,297,37*5B

$GPGSA,A,3,27,20,10,16,08,21,26,07,18,,,,1.6,0.8,1.2*3E

$GNGSA,A,3,70,75,76,85,86,,,,,,,,1.6,0.8,1.2*27

$GPRMC,135626.000,A,5133.5072,N,00957.7975,E,2.1,40.6,260619,,,A*53

$PSAMCLK,2059,30940400,14,9561443,242733,309404000*4B

$PSAMDLOK,86,0x000,0x000*21

$PSAMDLOK,76,0x000,0x00F*58

$PSAMDLOK,85,0x000,0x00F*54

$PSAMDLOK,70,0x000,0x00F*5E

$PSAMDLOK,75,0x000,0x00F*5B

$PSAMDLOK,69,0x000,0x00F*56

$GPGGA,135627.000,5133.5075,N,00957.7971,E,1,12,1.0,238.4,M,47.6,M,,*52

$GPGLL,5133.5075,N,00957.7971,E,135627.000,A,A*5D

$GPVTG,33.2,T,,M,0.5,N,1.0,K,A*3B

$GPGSV,3,1,09,07,12,300,24,08,38,296,33,10,54,141,31,16,46,197,26*75

$GPGSV,3,2,09,18,12,250,20,20,56,090,33,21,35,070,21,26,20,180,25*7F

$GPGSV,3,3,09,27,77,295,33*4B

$GLGSV,2,1,07,69,29,036,22,70,41,111,31,71,11,156,15,75,14,217,20*60

$GLGSV,2,2,07,76,37,267,34,85,59,057,32,86,48,297,36*5A

$GPGSA,A,3,27,20,10,16,08,26,07,18,,,,,1.8,1.0,1.4*3C

$GNGSA,A,3,70,76,85,86,,,,,,,,,1.8,1.0,1.4*24

$GPRMC,135627.000,A,5133.5075,N,00957.7971,E,0.5,33.2,260619,,,A*57

$PSAMCLK,2059,30940500,12,9561513,303429,309405000*45

$GPGGA,135628.000,5133.5075,N,00957.7971,E,1,13,0.8,238.6,M,47.6,M,,*57

$GPGLL,5133.5075,N,00957.7971,E,135628.000,A,A*52

$GPVTG,20.4,T,,M,0.7,N,1.3,K,A*3E

$GPGSV,3,1,09,07,12,300,23,08,38,296,33,10,54,141,31,16,46,197,26*72

$GPGSV,3,2,09,18,12,250,20,20,56,090,32,21,35,070,21,26,20,180,25*7E

$GPGSV,3,3,09,27,77,295,33*4B

$GLGSV,2,1,07,69,29,036,20,70,41,111,30,71,11,156,15,75,14,217,19*69

$GLGSV,2,2,07,76,37,267,32,85,59,057,31,86,48,297,35*5C

$GPGSA,A,3,27,20,10,16,08,21,26,07,18,,,,1.6,0.8,1.4*38

$GNGSA,A,3,70,76,85,86,,,,,,,,,1.6,0.8,1.4*23

$GPRMC,135628.000,A,5133.5075,N,00957.7971,E,0.7,20.4,260619,,,A*5E

$PSAMCLK,2059,30940600,13,9561492,364123,309406000*42

$PSAMDLOK,86,0x000,0x00F*57

$PSAMDLOK,85,0x000,0x00F*54

$PSAMDLOK,70,0x000,0x00F*5E

$PSAMDLOK,75,0x000,0x00F*5B

$PSAMDLOK,76,0x000,0x00F*58

$PSAMDLOK,71,0x000,0x00F*5F

$PSAMDLOK,69,0x000,0x00F*56

$GPGGA,135629.000,5133.5076,N,00957.7969,E,1,11,0.8,239.1,M,47.5,M,,*5B

$GPGLL,5133.5076,N,00957.7969,E,135629.000,A,A*59

$GPVTG,20.0,T,,M,0.3,N,0.6,K,A*3A

$GPGSV,3,1,09,07,12,300,23,08,38,296,33,10,54,141,31,16,46,197,26*72

$GPGSV,3,2,09,18,12,250,20,20,56,090,32,21,35,070,21,26,20,180,25*7E

$GPGSV,3,3,09,27,77,295,32*4A

$GLGSV,2,1,07,69,29,036,19,70,41,111,30,71,11,156,15,75,14,217,19*63

$GLGSV,2,2,07,76,37,267,31,85,59,057,31,86,48,297,34*5E

$GPGSA,A,3,27,20,10,16,08,21,26,,,,,,2.2,0.8,2.0*36

$GNGSA,A,3,70,76,85,86,,,,,,,,,2.2,0.8,2.0*23

$GPRMC,135629.000,A,5133.5076,N,00957.7969,E,0.3,20.0,260619,,,A*55

$PSAMCLK,2059,30940700,11,9561415,424813,309407000*46

$GPGGA,135630.000,5133.5074,N,00957.7966,E,1,12,0.8,240.8,M,47.5,M,,*5A

$GPGLL,5133.5074,N,00957.7966,E,135630.000,A,A*5C

$GPVTG,19.8,T,,M,0.0,N,0.0,K,A*3D

$GPGSV,3,1,09,07,12,300,21,08,38,296,32,10,54,141,30,16,46,197,25*73

$GPGSV,3,2,09,18,12,250,19,20,56,090,31,21,35,070,21,26,20,180,25*77

$GPGSV,3,3,09,27,77,295,32*4A

$GLGSV,2,1,07,69,29,036,17,70,41,111,29,71,11,156,15,75,14,217,19*65

$GLGSV,2,2,07,76,37,267,30,85,59,057,30,86,48,297,34*5E

$GPGSA,A,3,27,20,10,16,08,21,26,,,,,,2.0,0.8,1.6*31

$GNGSA,A,3,70,71,76,85,86,,,,,,,,2.0,0.8,1.6*22

$GPRMC,135630.000,A,5133.5074,N,00957.7966,E,0.0,19.8,260619,,,A*51

$PSAMCLK,2059,30940800,12,9561501,485509,309408000*4C

$PSAMDLERR,8,5,0x386*16

$PSAMDLOK,27,0x001,0x3FE*2B

$PSAMDLOK,10,0x20E,0x3FE*59

$PSAMDLOK,20,0x000,0x3FF*2E

$PSAMDLOK,16,0x000,0x3FF*2B

$PSAMDLOK,26,0x000,0x3FF*28

$PSAMDLOK,21,0x100,0x3FF*2E

$PSAMDLOK,18,0x000,0x3FF*25

$PSAMDLOK,86,0x000,0x00F*57

$PSAMDLOK,85,0x000,0x00F*54

$PSAMDLOK,70,0x000,0x00F*5E

$PSAMDLOK,76,0x000,0x00F*58

$PSAMDLOK,75,0x000,0x00F*5B

$PSAMDLOK,69,0x000,0x00F*56

$GPGGA,135631.000,5133.5074,N,00957.7966,E,1,12,1.2,240.8,M,47.5,M,,*50

$GPGLL,5133.5074,N,00957.7966,E,135631.000,A,A*5D

$GPVTG,20.4,T,,M,0.0,N,0.0,K,A*3B

$GPGSV,3,1,09,07,12,300,20,08,38,296,32,10,54,141,30,16,46,197,25*72

$GPGSV,3,2,09,18,12,250,19,20,56,090,30,21,35,070,20,26,20,180,24*76

$GPGSV,3,3,09,27,77,295,31*49

$GLGSV,2,1,07,69,29,036,16,70,41,111,28,71,11,156,15,75,14,217,19*65

$GLGSV,2,2,07,76,37,267,29,85,59,057,30,86,48,297,33*51

$GPGSA,A,3,27,20,10,16,08,26,18,,,,,,2.0,1.2,1.6*30

$GNGSA,A,3,70,71,76,85,86,,,,,,,,2.0,1.2,1.6*29

$GPRMC,135631.000,A,5133.5074,N,00957.7966,E,0.0,20.4,260619,,,A*56

$PSAMCLK,2059,30940900,12,9561533,546203,309409000*4E

$GPGGA,135632.000,5133.5074,N,00957.7966,E,1,12,1.2,240.8,M,47.5,M,,*53

$GPGLL,5133.5074,N,00957.7966,E,135632.000,A,A*5E

$GPVTG,20.8,T,,M,0.0,N,0.0,K,A*37

$GPGSV,3,1,09,07,12,300,18,08,38,296,31,10,54,141,29,16,46,197,25*72

$GPGSV,3,2,09,18,12,250,19,20,56,090,29,21,35,070,20,26,20,180,24*7E

$GPGSV,3,3,09,27,77,295,31*49

$GLGSV,2,1,07,69,29,036,14,70,41,111,27,71,11,156,15,75,14,217,19*68

$GLGSV,2,2,07,76,37,267,29,85,59,057,29,86,48,297,32*58

$GPGSA,A,3,27,20,10,16,08,26,18,,,,,,2.0,1.2,1.6*30

$GNGSA,A,3,70,71,76,85,86,,,,,,,,2.0,1.2,1.6*29

$GPRMC,135632.000,A,5133.5074,N,00957.7966,E,0.0,20.8,260619,,,A*59

$PSAMCLK,2059,30941000,12,9561461,606896,309410000*49

$PSAMDLOK,86,0x000,0x00F*57

$PSAMDLOK,85,0x000,0x00F*54

$PSAMDLOK,76,0x000,0x00F*58

$PSAMDLOK,70,0x000,0x00F*5E

$PSAMDLOK,75,0x000,0x00F*5B

$PSAMDLOK,71,0x000,0x00F*5F

$PSAMDLOK,69,0x000,0x00F*56

$GPGGA,135633.000,5133.5074,N,00957.7966,E,1,13,0.8,240.8,M,47.5,M,,*58

$GPGLL,5133.5074,N,00957.7966,E,135633.000,A,A*5F

$GPVTG,21.0,T,,M,0.0,N,0.0,K,A*3E

$GPGSV,3,1,09,07,12,300,18,08,38,296,30,10,54,141,28,16,46,197,24*73

$GPGSV,3,2,09,18,12,250,19,20,56,090,29,21,35,070,20,26,20,180,24*7E

$GPGSV,3,3,09,27,77,295,30*48

$GLGSV,2,1,07,69,29,036,13,70,41,111,27,71,11,156,15,75,14,217,18*6E

$GLGSV,2,2,07,76,37,267,28,85,59,057,29,86,48,297,32*59

$GPGSA,A,3,27,20,10,16,08,21,26,18,,,,,1.8,0.8,1.4*31

$GNGSA,A,3,70,71,76,85,86,,,,,,,,1.8,0.8,1.4*2B

$GPRMC,135633.000,A,5133.5074,N,00957.7966,E,0.0,21.0,260619,,,A*51

$PSAMCLK,2059,30941100,13,9561290,667588,309411000*45

$GPGGA,135634.000,5133.5074,N,00957.7966,E,1,11,1.2,240.8,M,47.5,M,,*56

$GPGLL,5133.5074,N,00957.7966,E,135634.000,A,A*58

$GPVTG,21.1,T,,M,0.0,N,0.0,K,A*3F

$GPGSV,3,1,09,07,12,300,18,08,38,296,29,10,54,141,28,16,46,197,24*7B

$GPGSV,3,2,09,18,12,250,19,20,56,090,28,21,35,070,20,26,20,180,24*7F

$GPGSV,3,3,09,27,77,295,30*48

$GLGSV,2,1,07,69,29,036,11,70,41,111,26,71,11,156,15,75,14,217,18*6D

$GLGSV,2,2,07,76,37,267,27,85,59,057,28,86,48,297,31*54

$GPGSA,A,3,27,20,10,16,08,26,18,,,,,,2.4,1.2,2.0*31

$GNGSA,A,3,70,76,85,86,,,,,,,,,2.4,1.2,2.0*2E

$GPRMC,135634.000,A,5133.5074,N,00957.7966,E,0.0,21.1,260619,,,A*57

$PSAMCLK,2059,30941200,11,9561250,728276,309412000*47

$PSAMDLOK,86,0x000,0x00F*57

$PSAMDLOK,85,0x000,0x00F*54

$PSAMDLOK,76,0x000,0x00F*58

$PSAMDLOK,70,0x000,0x00F*5E

$PSAMDLOK,75,0x000,0x00F*5B

$PSAMDLOK,71,0x000,0x00F*5F

$PSAMDLOK,69,0x000,0x00F*56

$GPGGA,135635.000,5133.5074,N,00957.7966,E,1,11,1.2,240.8,M,47.5,M,,*57

$GPGLL,5133.5074,N,00957.7966,E,135635.000,A,A*59

$GPVTG,21.1,T,,M,0.0,N,0.0,K,A*3F

$GPGSV,3,1,09,07,12,300,17,08,38,296,29,10,54,141,27,16,46,197,24*7B

$GPGSV,3,2,09,18,12,250,19,20,56,090,27,21,35,070,20,26,20,180,26*72

$GPGSV,3,3,09,27,77,295,30*48

$GLGSV,2,1,07,69,29,036,10,70,41,111,26,71,11,156,15,75,14,217,18*6C

$GLGSV,2,2,07,76,37,267,27,85,59,057,28,86,48,297,30*55

$GPGSA,A,3,27,20,10,16,08,26,18,,,,,,2.4,1.2,2.0*31

$GNGSA,A,3,70,76,85,86,,,,,,,,,2.4,1.2,2.0*2E

$GPRMC,135635.000,A,5133.5074,N,00957.7966,E,0.0,21.1,260619,,,A*56

$PSAMCLK,2059,30941300,11,9561207,788965,309413000*46

$GPGGA,135636.000,5133.5074,N,00957.7966,E,1,12,0.8,240.8,M,47.5,M,,*5C

$GPGLL,5133.5074,N,00957.7966,E,135636.000,A,A*5A

$GPVTG,21.1,T,,M,0.0,N,0.0,K,A*3F

$GPGSV,3,1,09,07,12,300,17,08,38,296,28,10,54,141,26,16,46,197,24*7B

$GPGSV,3,2,09,18,12,250,19,20,56,090,27,21,35,070,20,26,20,180,26*72

$GPGSV,3,3,09,27,77,295,29*40

$GLGSV,2,1,07,69,29,036,10,70,41,111,25,71,11,156,15,75,14,217,18*6F

$GLGSV,2,2,07,76,37,267,27,85,59,057,27,86,48,297,30*5A

$GPGSA,A,3,27,20,10,16,08,21,26,07,,,,,1.6,0.8,1.4*31

$GNGSA,A,3,70,76,85,86,,,,,,,,,1.6,0.8,1.4*23

$GPRMC,135636.000,A,5133.5074,N,00957.7966,E,0.0,21.1,260619,,,A*55

$PSAMCLK,2059,30941400,12,9561263,849652,309414000*4E

$PSAMDLOK,26,0x040,0x3FF*2C

$PSAMDLOK,27,0x000,0x3FF*29

$PSAMDLOK,16,0x000,0x3FF*2B

$PSAMDLOK,10,0x001,0x3FF*2C

$PSAMDLOK,8,0x001,0x3FC*10

$PSAMDLOK,20,0x000,0x3FF*2E

$PSAMDLOK,7,0x000,0x3F0*6D

$PSAMDLOK,86,0x000,0x00F*57

$PSAMDLOK,85,0x000,0x00F*54

$PSAMDLOK,70,0x000,0x00F*5E

$PSAMDLOK,75,0x000,0x00F*5B

$PSAMDLOK,69,0x000,0x00F*56

$GPGGA,135637.000,5133.5074,N,00957.7966,E,1,11,0.8,240.8,M,47.5,M,,*5E

$GPGLL,5133.5074,N,00957.7966,E,135637.000,A,A*5B

$GPVTG,21.2,T,,M,0.0,N,0.0,K,A*3C

$GPGSV,3,1,09,07,12,300,17,08,38,296,27,10,54,141,26,16,46,197,23*73

$GPGSV,3,2,09,18,12,250,19,20,56,090,26,21,35,070,20,26,20,180,26*73

$GPGSV,3,3,09,27,77,295,29*40

$GLGSV,2,1,07,69,29,036,10,70,41,111,25,71,11,156,15,75,14,217,17*60

$GLGSV,2,2,07,76,37,267,26,85,59,057,27,86,48,297,30*5B

$GPGSA,A,3,27,20,10,16,08,21,26,,,,,,2.2,0.8,2.0*36

$GNGSA,A,3,70,76,85,86,,,,,,,,,2.2,0.8,2.0*23

$GPRMC,135637.000,A,5133.5074,N,00957.7966,E,0.0,21.2,260619,,,A*57

$PSAMCLK,2059,30941500,11,9561153,910342,309415000*44

$GPGGA,135638.000,5133.5074,N,00957.7966,E,1,12,0.8,240.8,M,47.5,M,,*52

$GPGLL,5133.5074,N,00957.7966,E,135638.000,A,A*54

$GPVTG,21.2,T,,M,0.0,N,0.0,K,A*3C

$GPGSV,3,1,09,07,12,300,16,08,38,296,27,10,54,141,25,16,46,197,23*71

$GPGSV,3,2,09,18,12,250,19,20,56,090,25,21,35,070,19,26,20,180,26*7A

$GPGSV,3,3,09,27,77,295,29*40

$GLGSV,2,1,07,69,29,036,10,70,41,111,24,71,11,156,15,75,14,217,17*61

$GLGSV,2,2,07,76,37,267,26,85,59,057,26,86,48,297,29*52

$GPGSA,A,3,27,20,10,16,08,21,26,18,,,,,1.8,0.8,1.6*33

$GNGSA,A,3,70,76,85,86,,,,,,,,,1.8,0.8,1.6*2F

$GPRMC,135638.000,A,5133.5074,N,00957.7966,E,0.0,21.2,260619,,,A*58

$PSAMCLK,2059,30941600,12,9561168,971030,309416000*4E

$PSAMDLOK,86,0x000,0x00F*57

$PSAMDLOK,76,0x000,0x00F*58

$PSAMDLOK,85,0x000,0x00F*54

$PSAMDLOK,70,0x000,0x00F*5E

$PSAMDLOK,71,0x000,0x00F*5F

$PSAMDLOK,69,0x000,0x00F*56

$GPGGA,135639.000,5133.5074,N,00957.7966,E,1,12,0.8,240.8,M,47.5,M,,*53

$GPGLL,5133.5074,N,00957.7966,E,135639.000,A,A*55

$GPVTG,21.2,T,,M,0.0,N,0.0,K,A*3C

$GPGSV,3,1,09,07,12,300,16,08,38,296,26,10,54,141,25,16,46,197,23*70

$GPGSV,3,2,09,18,12,250,19,20,56,090,25,21,35,070,19,26,20,180,25*79

$GPGSV,3,3,09,27,77,295,28*41

$GLGSV,2,1,07,69,29,036,10,70,41,111,24,71,11,156,15,75,14,217,16*60

$GLGSV,2,2,07,76,37,267,26,85,59,057,26,86,48,297,29*52

$GPGSA,A,3,27,20,10,16,08,21,26,07,,,,,1.6,0.8,1.4*31

$GNGSA,A,3,70,76,85,86,,,,,,,,,1.6,0.8,1.4*23

$GPRMC,135639.000,A,5133.5074,N,00957.7966,E,0.0,21.2,260619,,,A*59

$PSAMCLK,2059,30941700,12,9560954,1031715,309417000*74

$GPGGA,135640.000,5133.5074,N,00957.7966,E,1,12,0.8,240.8,M,47.5,M,,*5D

$GPGLL,5133.5074,N,00957.7966,E,135640.000,A,A*5B

$GPVTG,21.2,T,,M,0.0,N,0.0,K,A*3C

$GPGSV,3,1,09,07,12,300,16,08,38,296,26,10,54,141,25,16,46,197,23*70

$GPGSV,3,2,09,18,12,250,18,20,56,090,24,21,35,070,19,26,20,180,25*79

$GPGSV,3,3,09,27,77,295,28*41

$GLGSV,2,1,07,69,29,036,10,70,41,111,23,71,11,156,15,75,14,217,14*65

$GLGSV,2,2,07,76,37,267,26,85,59,057,26,86,48,297,29*52

$GPGSA,A,3,27,20,10,16,08,21,26,07,18,,,,1.6,0.8,1.4*38

$GNGSA,A,3,76,85,86,,,,,,,,,,1.6,0.8,1.4*24

$GPRMC,135640.000,A,5133.5074,N,00957.7966,E,0.0,21.2,260619,,,A*57

$PSAMCLK,2059,30941800,12,9561051,1092402,309418000*75

$PSAMDLOK,86,0x000,0x00F*57

$PSAMDLOK,76,0x000,0x00F*58

$PSAMDLOK,85,0x000,0x00F*54

$PSAMDLOK,70,0x000,0x00F*5E

$PSAMDLOK,71,0x000,0x00F*5F

$PSAMDLOK,69,0x000,0x00F*56

$GPGGA,135641.000,5133.5074,N,00957.7966,E,1,13,0.8,240.8,M,47.5,M,,*5D

$GPGLL,5133.5074,N,00957.7966,E,135641.000,A,A*5A

$GPVTG,21.2,T,,M,0.0,N,0.0,K,A*3C

$GPGSV,3,1,09,07,12,300,16,08,38,296,25,10,54,141,24,16,46,197,23*72

$GPGSV,3,2,09,18,12,250,18,20,56,090,24,21,35,070,19,26,20,180,25*79

$GPGSV,3,3,09,27,77,295,28*41

$GLGSV,2,1,07,69,29,036,10,70,41,111,23,71,11,156,13,75,14,217,13*64

$GLGSV,2,2,07,76,37,267,25,85,59,057,25,86,48,297,29*52

$GPGSA,A,3,27,20,10,16,08,21,26,07,18,,,,1.6,0.8,1.4*38

$GNGSA,A,3,70,76,85,86,,,,,,,,,1.6,0.8,1.4*23

$GPRMC,135641.000,A,5133.5074,N,00957.7966,E,0.0,21.2,260619,,,A*56

$PSAMCLK,2059,30941900,13,9561085,1153090,309419000*7E

$GPGGA,135642.000,5133.5063,N,00957.7969,E,1,12,0.8,241.8,M,47.5,M,,*57

$GPGLL,5133.5063,N,00957.7969,E,135642.000,A,A*50

$GPVTG,21.2,T,,M,0.0,N,0.0,K,A*3C

$GPGSV,3,1,09,07,12,300,16,08,38,296,25,10,54,141,24,16,46,197,23*72

$GPGSV,3,2,09,18,12,250,18,20,56,090,24,21,35,070,19,26,20,180,24*78

$GPGSV,3,3,09,27,77,295,28*41

$GLGSV,2,1,07,69,29,036,10,70,41,111,23,71,11,156,12,75,14,217,11*67

$GLGSV,2,2,07,76,37,267,25,85,59,057,25,86,48,297,28*53

$GPGSA,A,3,27,20,10,16,08,21,26,18,,,,,1.8,0.8,1.6*33

$GNGSA,A,3,70,76,85,86,,,,,,,,,1.8,0.8,1.6*2F

$GPRMC,135642.000,A,5133.5063,N,00957.7969,E,0.0,21.2,260619,,,A*5C

$PSAMCLK,2059,30942000,12,9561027,1213780,309420000*76

$PSAMDLOK,27,0x3E0,0x3FF*5F

$PSAMDLOK,26,0x0C0,0x3FF*5B

$PSAMDLOK,16,0x080,0x3FF*23

$PSAMDLOK,8,0x000,0x3FF*14

$PSAMDLOK,10,0x000,0x3FF*2D

$PSAMDLOK,20,0x000,0x3FF*2E

$PSAMDLOK,21,0x002,0x3FF*2D

$PSAMDLOK,18,0x000,0x3FF*25

$PSAMDLOK,7,0x020,0x3FF*19

$PSAMDLOK,86,0x000,0x00F*57

$PSAMDLOK,85,0x000,0x00F*54

$PSAMDLOK,70,0x000,0x00F*5E

$PSAMDLOK,76,0x000,0x00F*58

$PSAMDLOK,69,0x000,0x00F*56

$GPGGA,135643.000,5133.5061,N,00957.7969,E,1,10,1.0,242.3,M,47.5,M,,*57

$GPGLL,5133.5061,N,00957.7969,E,135643.000,A,A*53

$GPVTG,21.2,T,,M,0.0,N,0.0,K,A*3C

$GPGSV,3,1,09,07,12,300,16,08,38,296,25,10,54,141,24,16,46,197,26*77

$GPGSV,3,2,09,18,12,250,18,20,56,090,23,21,35,070,19,26,20,180,24*7F

$GPGSV,3,3,09,27,77,295,28*41

$GLGSV,2,1,07,69,29,036,10,70,41,111,22,71,11,156,10,75,14,217,10*65

$GLGSV,2,2,07,76,37,267,24,85,59,057,25,86,48,297,28*52

$GPGSA,A,3,27,20,10,16,08,21,26,,,,,,2.2,1.0,2.0*3F

$GNGSA,A,3,70,85,86,,,,,,,,,,2.2,1.0,2.0*2B

$GPRMC,135643.000,A,5133.5061,N,00957.7969,E,0.0,21.2,260619,,,A*5F

$PSAMCLK,2059,30942100,10,9561144,1274470,309421000*7D

$GPGGA,135644.000,5133.5061,N,00957.7968,E,1,12,0.8,242.9,M,47.5,M,,*50

$GPGLL,5133.5061,N,00957.7968,E,135644.000,A,A*55

$GPVTG,21.1,T,,M,0.0,N,0.0,K,A*3F

$GPGSV,3,1,09,07,12,300,16,08,38,296,24,10,54,141,23,16,46,197,25*72

$GPGSV,3,2,09,18,12,250,18,20,56,090,23,21,35,070,19,26,20,180,24*7F

$GPGSV,3,3,09,27,77,295,27*4E

$GLGSV,2,1,07,69,29,036,10,70,41,111,22,71,11,156,09,75,14,217,09*65

$GLGSV,2,2,07,76,37,267,24,85,59,057,24,86,48,297,28*53

$GPGSA,A,3,27,20,16,08,21,26,07,18,,,,,1.6,0.8,1.4*39

$GNGSA,A,3,70,76,85,86,,,,,,,,,1.6,0.8,1.4*23

$GPRMC,135644.000,A,5133.5061,N,00957.7968,E,0.0,21.1,260619,,,A*5A

$PSAMCLK,2059,30942200,12,9561199,1335162,309422000*7D

$PSAMDLOK,86,0x000,0x00F*57

$PSAMDLOK,85,0x000,0x00F*54

$PSAMDLOK,76,0x000,0x00F*58

$PSAMDLOK,70,0x000,0x00F*5E

$PSAMDLOK,69,0x000,0x00F*56

$GPGGA,135645.000,5133.5061,N,00957.7968,E,1,11,0.8,243.5,M,47.6,M,,*5C

$GPGLL,5133.5061,N,00957.7968,E,135645.000,A,A*54

$GPVTG,21.1,T,,M,0.0,N,0.0,K,A*3F

$GPGSV,3,1,09,07,12,300,16,08,38,296,24,10,54,141,21,16,46,197,25*70

$GPGSV,3,2,09,18,12,250,18,20,56,090,23,21,35,070,19,26,20,180,24*7F

$GPGSV,3,3,09,27,77,295,27*4E

$GLGSV,2,1,07,69,29,036,10,70,41,111,22,71,11,156,08,75,14,217,08*65

$GLGSV,2,2,07,76,37,267,23,85,59,057,24,86,48,297,28*54

$GPGSA,A,3,27,20,16,08,21,26,07,18,,,,,1.6,0.8,1.4*39

$GNGSA,A,3,76,85,86,,,,,,,,,,1.6,0.8,1.4*24

$GPRMC,135645.000,A,5133.5061,N,00957.7968,E,0.0,21.1,260619,,,A*5B

$PSAMCLK,2059,30942300,11,9561227,1395854,309423000*7E

$GPGGA,135646.000,5133.5061,N,00957.7968,E,1,11,1.0,243.5,M,47.6,M,,*56

$GPGLL,5133.5061,N,00957.7968,E,135646.000,A,A*57

$GPVTG,21.1,T,,M,0.0,N,0.0,K,A*3F

$GPGSV,3,1,09,07,12,300,16,08,38,296,24,10,54,141,20,16,46,197,25*71

$GPGSV,3,2,09,18,12,250,18,20,56,090,22,21,35,070,19,26,20,180,24*7E

$GPGSV,3,3,09,27,77,295,27*4E

$GLGSV,2,1,07,69,29,036,10,70,41,111,22,71,11,156,07,75,14,217,08*6A

$GLGSV,2,2,07,76,37,267,23,85,59,057,24,86,48,297,27*5B

$GPGSA,A,3,27,20,16,08,21,26,18,,,,,,2.0,1.0,1.6*30

$GNGSA,A,3,70,76,85,86,,,,,,,,,2.0,1.0,1.6*2D

$GPRMC,135646.000,A,5133.5061,N,00957.7968,E,0.0,21.1,260619,,,A*58

$PSAMCLK,2059,30942400,11,9561113,1456545,309424000*7F

$PSAMDLOK,86,0x000,0x00F*57

$PSAMDLOK,85,0x000,0x00F*54

$PSAMDLOK,76,0x00F,0x00F*2E

$PSAMDLOK,70,0x000,0x00F*5E

$PSAMDLOK,69,0x00F,0x00F*20

$GPGGA,135647.000,5133.5061,N,00957.7968,E,1,10,1.0,243.5,M,47.6,M,,*56

$GPGLL,5133.5061,N,00957.7968,E,135647.000,A,A*56

$GPVTG,21.1,T,,M,0.0,N,0.0,K,A*3F

$GPGSV,3,1,09,07,12,300,16,08,38,296,23,10,54,141,20,16,46,197,25*76

$GPGSV,3,2,09,18,12,250,18,20,56,090,22,21,35,070,19,26,20,180,24*7E

$GPGSV,3,3,09,27,77,295,27*4E

$GLGSV,2,1,06,69,29,036,10,70,41,111,21,75,14,217,15,76,37,267,23*60

$GLGSV,2,2,06,85,59,057,24,86,48,297,27*6D

$GPGSA,A,3,27,20,16,08,21,26,18,,,,,,2.0,1.0,1.8*3E

$GNGSA,A,3,70,76,86,,,,,,,,,,2.0,1.0,1.8*2E

$GPRMC,135647.000,A,5133.5061,N,00957.7968,E,0.0,21.1,260619,,,A*59

$PSAMCLK,2059,30942500,10,9561001,1517234,309425000*79

$GPGGA,135648.000,5133.5061,N,00957.7968,E,1,10,1.0,243.5,M,47.6,M,,*59

$GPGLL,5133.5061,N,00957.7968,E,135648.000,A,A*59

$GPVTG,21.1,T,,M,0.0,N,0.0,K,A*3F

$GPGSV,3,1,09,07,12,300,16,08,38,296,23,10,54,141,19,16,46,197,25*7C

$GPGSV,3,2,09,18,12,250,18,20,56,090,22,21,35,070,19,26,20,180,24*7E

$GPGSV,3,3,09,27,77,295,27*4E

$GLGSV,2,1,06,69,29,036,10,70,41,111,21,75,14,217,15,76,37,267,22*61

$GLGSV,2,2,06,85,59,057,23,86,48,297,26*6B

$GPGSA,A,3,27,20,16,08,21,26,18,,,,,,2.0,1.0,1.8*3E

$GNGSA,A,3,70,76,86,,,,,,,,,,2.0,1.0,1.8*2E

$GPRMC,135648.000,A,5133.5061,N,00957.7968,E,0.0,21.1,260619,,,A*56

$PSAMCLK,2059,30942600,10,9561003,1577918,309426000*78

$PSAMDLOK,27,0x2D6,0x3FF*59

$PSAMDLOK,16,0x034,0x3FF*2C

$PSAMDLOK,26,0x068,0x3FF*26

$PSAMDLOK,8,0x000,0x3FF*14

$PSAMDLOK,20,0x000,0x3FF*2E

$PSAMDLOK,21,0x002,0x3FF*2D

$PSAMDLOK,18,0x000,0x3FF*25

$PSAMDLOK,7,0x000,0x3FF*1B

$PSAMDLOK,10,0x000,0x3FF*2D

$PSAMDLOK,76,0x000,0x00F*58

$PSAMDLOK,86,0x000,0x00F*57

$PSAMDLOK,70,0x000,0x00F*5E

$PSAMDLOK,69,0x000,0x00F*56

$GPGGA,135649.000,5133.5061,N,00957.7968,E,1,09,1.0,243.5,M,47.6,M,,*50

$GPGLL,5133.5061,N,00957.7968,E,135649.000,A,A*58

$GPVTG,21.1,T,,M,0.0,N,0.0,K,A*3F

$GPGSV,3,1,09,07,12,300,15,08,38,296,30,10,54,141,18,16,46,197,25*7C

$GPGSV,3,2,09,18,12,250,18,20,56,090,22,21,35,070,19,26,20,180,24*7E

$GPGSV,3,3,09,27,77,295,27*4E

$GLGSV,2,1,06,69,29,036,09,70,42,111,21,75,14,217,15,76,37,267,22*6A

$GLGSV,2,2,06,85,59,058,23,86,48,297,26*64

$GPGSA,A,3,27,20,16,08,21,26,,,,,,,2.4,1.0,2.2*3A

$GNGSA,A,3,70,76,86,,,,,,,,,,2.4,1.0,2.2*23

$GPRMC,135649.000,A,5133.5061,N,00957.7968,E,0.0,21.1,260619,,,A*57

$PSAMCLK,2059,30942700,9,9561001,1638599,309427000*4F

$GPGGA,135650.000,5133.5061,N,00957.7968,E,1,08,1.0,243.5,M,47.6,M,,*59

$GPGLL,5133.5061,N,00957.7968,E,135650.000,A,A*50

$GPVTG,21.1,T,,M,0.0,N,0.0,K,A*3F

$GPGSV,3,1,09,07,12,299,15,08,38,296,30,10,54,141,17,16,46,197,25*72

$GPGSV,3,2,09,18,12,250,17,20,56,090,21,21,35,070,19,26,20,180,24*72

$GPGSV,3,3,09,27,77,295,27*4E

$GLGSV,2,1,06,69,29,036,08,70,42,111,21,75,14,217,14,76,37,267,22*6A

$GLGSV,2,2,06,85,59,058,22,86,48,297,26*65

$GPGSA,A,3,27,20,16,08,21,26,,,,,,,2.4,1.0,2.2*3A

$GNGSA,A,3,76,86,,,,,,,,,,,2.4,1.0,2.2*24

$GPRMC,135650.000,A,5133.5061,N,00957.7968,E,0.0,21.1,260619,,,A*5F

$PSAMCLK,2059,30942800,8,9561065,1699291,309428000*48

$PSAMDLOK,86,0x000,0x00F*57

$PSAMDLOK,76,0x000,0x00F*58

$PSAMDLOK,70,0x000,0x00F*5E

$PSAMDLOK,85,0x000,0x00F*54

$PSAMDLOK,75,0x000,0x00F*5B

$GPGGA,135651.000,5133.5061,N,00957.7968,E,1,10,1.0,243.5,M,47.6,M,,*51

$GPGLL,5133.5061,N,00957.7968,E,135651.000,A,A*51

$GPVTG,21.1,T,,M,0.0,N,0.0,K,A*3F

$GPGSV,3,1,09,07,12,299,15,08,38,296,31,10,54,141,15,16,46,197,25*71

$GPGSV,3,2,09,18,12,250,17,20,56,090,21,21,35,070,19,26,20,180,24*72

$GPGSV,3,3,09,27,77,295,27*4E

$GLGSV,2,1,06,69,29,036,08,70,42,111,20,75,14,217,14,76,37,267,22*6B

$GLGSV,2,2,06,85,59,058,22,86,48,297,28*6B

$GPGSA,A,3,27,20,16,08,21,26,,,,,,,2.4,1.0,2.2*3A

$GNGSA,A,3,70,76,85,86,,,,,,,,,2.4,1.0,2.2*2E

$GPRMC,135651.000,A,5133.5061,N,00957.7968,E,0.0,21.1,260619,,,A*5E

$PSAMCLK,2059,30942900,10,9560946,1759979,309429000*78

$GPGGA,135652.000,5133.5061,N,00957.7968,E,1,12,0.8,243.5,M,47.6,M,,*59

$GPGLL,5133.5061,N,00957.7968,E,135652.000,A,A*52

$GPVTG,21.1,T,,M,0.0,N,0.0,K,A*3F

$GPGSV,3,1,09,07,12,299,15,08,38,296,32,10,54,141,14,16,46,197,25*73

$GPGSV,3,2,09,18,12,250,17,20,56,090,21,21,35,070,19,26,20,180,24*72

$GPGSV,3,3,09,27,77,295,27*4E

$GLGSV,2,1,05,70,42,111,20,75,14,217,14,76,37,267,22,85,59,058,21*6E

$GLGSV,2,2,05,86,48,297,29*55

$GPGSA,A,3,27,20,16,08,21,26,07,18,,,,,1.6,0.8,1.4*39

$GNGSA,A,3,70,76,85,86,,,,,,,,,1.6,0.8,1.4*23

$GPRMC,135652.000,A,5133.5061,N,00957.7968,E,0.0,21.1,260619,,,A*5D

$PSAMCLK,2059,30943000,12,9560930,1820665,309430000*78

$PSAMDLOK,86,0x000,0x00F*57

$PSAMDLOK,76,0x000,0x00F*58

$PSAMDLOK,70,0x000,0x00F*5E

$PSAMDLOK,85,0x000,0x00F*54

$PSAMDLOK,75,0x000,0x00F*5B

$GPGGA,135653.000,5133.5061,N,00957.7968,E,1,12,0.8,243.5,M,47.6,M,,*58

$GPGLL,5133.5061,N,00957.7968,E,135653.000,A,A*53

$GPVTG,21.1,T,,M,0.0,N,0.0,K,A*3F

$GPGSV,3,1,09,07,12,299,15,08,38,296,32,10,54,141,12,16,45,196,25*77

$GPGSV,3,2,09,18,12,250,17,20,56,090,21,21,35,070,19,26,20,180,24*72

$GPGSV,3,3,09,27,77,295,27*4E

$GLGSV,2,1,05,70,42,111,20,75,14,217,14,76,37,267,22,85,59,058,21*6E

$GLGSV,2,2,05,86,48,297,29*55

$GPGSA,A,3,27,20,16,08,21,26,07,18,,,,,1.6,0.8,1.4*39

$GNGSA,A,3,70,76,85,86,,,,,,,,,1.6,0.8,1.4*23

$GPRMC,135653.000,A,5133.5061,N,00957.7968,E,0.0,21.1,260619,,,A*5C

$PSAMCLK,2059,30943100,12,9560860,1881352,309431000*76

$GPGGA,135654.000,5133.5061,N,00957.7968,E,1,12,0.8,243.5,M,47.6,M,,*5F

$GPGLL,5133.5061,N,00957.7968,E,135654.000,A,A*54

$GPVTG,21.1,T,,M,0.0,N,0.0,K,A*3F

$GPGSV,3,1,09,07,12,299,15,08,38,296,33,10,54,141,11,16,45,196,25*75

$GPGSV,3,2,09,18,12,250,18,20,56,089,21,21,35,070,19,26,20,180,24*75

$GPGSV,3,3,09,27,77,295,28*41

$GLGSV,2,1,05,70,42,111,20,75,14,217,14,76,37,267,22,85,59,058,21*6E

$GLGSV,2,2,05,86,48,297,29*55

$GPGSA,A,3,27,20,16,08,21,26,18,07,,,,,1.6,0.8,1.4*39

$GNGSA,A,3,70,76,85,86,,,,,,,,,1.6,0.8,1.4*23

$GPRMC,135654.000,A,5133.5061,N,00957.7968,E,0.0,21.1,260619,,,A*5B

$PSAMCLK,2059,30943200,12,9560760,1942040,309432000*77

$PSAMDLOK,8,0x3BF,0x001*11

$PSAMDLOK,27,0x0B5,0x007*5A

$PSAMDLOK,16,0x010,0x3FF*2A

$PSAMDLOK,26,0x0A0,0x3FF*59

$PSAMDLOK,20,0x000,0x3FF*2E

$PSAMDLOK,21,0x014,0x3FF*2A

$PSAMDLOK,18,0x000,0x3FF*25

$PSAMDLOK,7,0x000,0x3FF*1B

$PSAMDLOK,86,0x000,0x000*21

$PSAMDLOK,76,0x000,0x00F*58

$PSAMDLOK,70,0x000,0x00F*5E

$PSAMDLOK,85,0x000,0x00F*54

$PSAMDLOK,75,0x000,0x00F*5B

$GPGGA,135655.000,5133.5061,N,00957.7968,E,1,11,1.0,243.5,M,47.6,M,,*54

$GPGLL,5133.5061,N,00957.7968,E,135655.000,A,A*55

$GPVTG,21.1,T,,M,0.0,N,0.0,K,A*3F

$GPGSV,3,1,09,07,12,299,15,08,38,296,33,10,54,141,09,16,45,196,25*7C

$GPGSV,3,2,09,18,12,250,18,20,56,089,21,21,35,070,19,26,20,180,24*75

$GPGSV,3,3,09,27,77,295,28*41

$GLGSV,2,1,05,70,42,111,20,75,14,217,14,76,37,267,21,85,59,058,20*6C

$GLGSV,2,2,05,86,48,297,29*55

$GPGSA,A,3,27,20,16,08,21,26,18,,,,,,2.0,1.0,1.6*30

$GNGSA,A,3,75,76,85,86,,,,,,,,,2.0,1.0,1.6*28

$GPRMC,135655.000,A,5133.5061,N,00957.7968,E,0.0,21.1,260619,,,A*5A

$PSAMCLK,2059,30943300,11,9560886,2002729,309433000*75

$GPGGA,135656.000,5133.5061,N,00957.7968,E,1,09,1.0,243.5,M,47.6,M,,*5E

$GPGLL,5133.5061,N,00957.7968,E,135656.000,A,A*56

$GPVTG,21.1,T,,M,0.0,N,0.0,K,A*3F

$GPGSV,3,1,09,07,12,299,15,08,38,296,33,10,54,141,09,16,45,196,24*7D

$GPGSV,3,2,09,18,12,250,18,20,56,089,21,21,35,070,19,26,20,180,24*75

$GPGSV,3,3,09,27,77,295,28*41

$GLGSV,2,1,05,70,42,111,20,75,14,217,18,76,37,267,21,85,59,058,20*60

$GLGSV,2,2,05,86,48,297,29*55

$GPGSA,A,3,27,20,16,08,21,26,18,,,,,,2.0,1.0,1.8*3E

$GNGSA,A,3,70,86,,,,,,,,,,,2.0,1.0,1.8*2F

$GPRMC,135656.000,A,5133.5061,N,00957.7968,E,0.0,21.1,260619,,,A*59

$PSAMCLK,2059,30943400,9,9560859,2063413,309434000*43

$PSAMDLOK,86,0x000,0x000*21

$PSAMDLOK,75,0x000,0x00F*5B

$PSAMDLOK,70,0x000,0x00F*5E

$PSAMDLOK,85,0x000,0x00F*54

$PSAMDLOK,76,0x000,0x00F*58

$GPGGA,135657.000,5133.5061,N,00957.7968,E,1,11,1.0,243.5,M,47.6,M,,*56

$GPGLL,5133.5061,N,00957.7968,E,135657.000,A,A*57

$GPVTG,21.1,T,,M,0.0,N,0.0,K,A*3F

$GPGSV,3,1,09,07,12,299,15,08,38,296,33,10,54,141,08,16,45,196,24*7C

$GPGSV,3,2,09,18,12,250,18,20,56,089,21,21,35,070,19,26,20,180,24*75

$GPGSV,3,3,09,27,78,295,28*4E

$GLGSV,2,1,05,70,42,111,20,75,14,217,23,76,37,267,21,85,59,058,20*68

$GLGSV,2,2,05,86,48,297,29*55

$GPGSA,A,3,27,20,16,08,21,26,,,,,,,2.2,1.0,1.8*35

$GNGSA,A,3,70,75,76,85,86,,,,,,,,2.2,1.0,1.8*23

$GPRMC,135657.000,A,5133.5061,N,00957.7968,E,0.0,21.1,260619,,,A*58

$PSAMCLK,2059,30943500,11,9560725,2124103,309435000*78

$GPGGA,135658.000,5133.5061,N,00957.7968,E,1,12,0.8,243.5,M,47.6,M,,*53

$GPGLL,5133.5061,N,00957.7968,E,135658.000,A,A*58

$GPVTG,21.1,T,,M,0.0,N,0.0,K,A*3F

$GPGSV,3,1,09,07,12,299,15,08,38,296,33,10,54,141,07,16,45,196,24*73

$GPGSV,3,2,09,18,12,250,18,20,56,089,22,21,35,070,19,26,20,180,24*76

$GPGSV,3,3,09,27,78,295,28*4E

$GLGSV,2,1,05,70,42,111,19,75,14,217,23,76,37,267,21,85,59,058,20*62

$GLGSV,2,2,05,86,48,297,29*55

$GPGSA,A,3,27,20,16,08,21,26,18,07,,,,,1.6,0.8,1.4*39

$GNGSA,A,3,75,76,85,86,,,,,,,,,1.6,0.8,1.4*26

$GPRMC,135658.000,A,5133.5061,N,00957.7968,E,0.0,21.1,260619,,,A*57

$PSAMCLK,2059,30943600,12,9560854,2184791,309436000*75

$PSAMDLOK,86,0x000,0x000*21

$PSAMDLOK,75,0x000,0x00F*5B

$PSAMDLOK,76,0x000,0x00F*58

$PSAMDLOK,70,0x000,0x00F*5E

$PSAMDLOK,85,0x000,0x00F*54

$GPGGA,135659.000,5133.5061,N,00957.7968,E,1,11,0.8,243.5,M,47.6,M,,*51

$GPGLL,5133.5061,N,00957.7968,E,135659.000,A,A*59

$GPVTG,21.1,T,,M,0.0,N,0.0,K,A*3F

$GPGSV,2,1,08,07,12,299,15,08,38,296,33,16,45,196,23,18,12,250,18*73

$GPGSV,2,2,08,20,56,089,22,21,35,070,19,26,20,180,24,27,78,295,28*7C

$GLGSV,2,1,05,70,42,111,19,75,14,217,22,76,37,267,21,85,59,058,20*63

$GLGSV,2,2,05,86,48,297,29*55

$GPGSA,A,3,27,20,16,08,21,26,07,,,,,,1.6,0.8,1.4*30

$GNGSA,A,3,75,76,85,86,,,,,,,,,1.6,0.8,1.4*26

$GPRMC,135659.000,A,5133.5061,N,00957.7968,E,0.0,21.1,260619,,,A*56

$PSAMCLK,2059,30943700,11,9560809,2245479,309437000*75

$GPGGA,135700.000,5133.5061,N,00957.7968,E,1,12,1.0,243.5,M,47.6,M,,*56

$GPGLL,5133.5061,N,00957.7968,E,135700.000,A,A*54

$GPVTG,21.1,T,,M,0.0,N,0.0,K,A*3F

$GPGSV,2,1,08,07,12,299,15,08,38,296,33,16,45,196,23,18,12,250,19*72

$GPGSV,2,2,08,20,56,089,22,21,35,070,19,26,20,180,24,27,78,295,28*7C

$GLGSV,2,1,05,70,42,111,19,75,14,217,22,76,37,267,21,85,59,058,19*69

$GLGSV,2,2,05,86,48,297,29*55

$GPGSA,A,3,27,20,16,08,21,26,18,,,,,,2.0,1.0,1.6*30

$GNGSA,A,3,70,75,76,85,86,,,,,,,,2.0,1.0,1.6*2F

$GPRMC,135700.000,A,5133.5061,N,00957.7968,E,0.0,21.1,260619,,,A*5B

$PSAMCLK,2059,30943800,12,9560702,2306169,309438000*70

$PSAMDLERR,8,1,0x3DF*1E

$PSAMDLERR,27,2,0x39F*5D

$PSAMDLOK,26,0x2C0,0x3FF*59

$PSAMDLOK,20,0x1C7,0x3FF*5B

$PSAMDLOK,16,0x100,0x3FF*2A

$PSAMDLOK,18,0x000,0x3FF*25

$PSAMDLOK,21,0x000,0x3FF*2F

$PSAMDLOK,7,0x010,0x3FF*1A

$PSAMDLOK,86,0x00F,0x000*57

$PSAMDLOK,76,0x000,0x00F*58

$PSAMDLOK,75,0x000,0x00F*5B

$PSAMDLOK,70,0x000,0x00F*5E

$PSAMDLOK,85,0x000,0x00F*54

$GPGGA,135701.000,5133.5061,N,00957.7968,E,1,11,1.0,243.5,M,47.6,M,,*54

$GPGLL,5133.5061,N,00957.7968,E,135701.000,A,A*55

$GPVTG,21.1,T,,M,0.0,N,0.0,K,A*3F

$GPGSV,2,1,08,07,12,299,14,08,38,296,33,16,45,196,23,18,12,250,19*73

$GPGSV,2,2,08,20,56,089,22,21,35,070,19,26,20,180,24,27,78,295,28*7C

$GLGSV,2,1,05,70,42,111,19,75,14,217,22,76,37,267,21,85,59,058,19*69

$GLGSV,2,2,05,86,48,297,29*55

$GPGSA,A,3,27,20,16,08,21,26,18,,,,,,2.0,1.0,1.6*30

$GNGSA,A,3,70,76,85,86,,,,,,,,,2.0,1.0,1.6*2D

$GPRMC,135701.000,A,5133.5061,N,00957.7968,E,0.0,21.1,260619,,,A*5A

$PSAMCLK,2059,30943900,11,9560751,2366855,309439000*75

$GPGGA,135702.000,5133.5058,N,00957.7965,E,1,10,1.0,244.6,M,47.5,M,,*56

$GPGLL,5133.5058,N,00957.7965,E,135702.000,A,A*51

$GPVTG,21.1,T,,M,0.0,N,0.0,K,A*3F

$GPGSV,2,1,08,07,12,299,14,08,38,296,33,16,45,196,23,18,12,250,20*79

$GPGSV,2,2,08,20,56,089,22,21,35,070,19,26,20,180,23,27,78,295,28*7B

$GLGSV,2,1,05,70,42,111,19,75,14,217,22,76,37,267,21,85,59,058,19*69

$GLGSV,2,2,05,86,48,297,29*55

$GPGSA,A,3,27,20,16,08,21,26,18,,,,,,2.0,1.0,1.8*3E

$GNGSA,A,3,70,76,86,,,,,,,,,,2.0,1.0,1.8*2E

$GPRMC,135702.000,A,5133.5058,N,00957.7965,E,0.0,21.1,260619,,,A*5E

$PSAMCLK,2059,30944000,10,9560655,2427539,309440000*74

$PSAMDLOK,86,0x000,0x000*21

$PSAMDLOK,76,0x000,0x00F*58

$PSAMDLOK,75,0x000,0x00F*5B

$PSAMDLOK,70,0x000,0x00F*5E

$PSAMDLOK,85,0x000,0x00F*54

$GPGGA,135703.000,5133.5059,N,00957.7964,E,1,11,0.8,244.8,M,47.5,M,,*51

$GPGLL,5133.5059,N,00957.7964,E,135703.000,A,A*50

$GPVTG,21.1,T,,M,0.0,N,0.0,K,A*3F

$GPGSV,2,1,08,07,12,299,14,08,38,296,33,16,45,196,23,18,12,250,20*79

$GPGSV,2,2,08,20,56,089,23,21,35,070,19,26,20,180,23,27,78,295,29*7B

$GLGSV,2,1,05,70,42,111,19,75,14,217,22,76,37,267,21,85,59,058,19*69

$GLGSV,2,2,05,86,48,297,29*55

$GPGSA,A,3,27,20,16,08,21,26,18,07,,,,,1.6,0.8,1.4*39

$GNGSA,A,3,70,76,86,,,,,,,,,,1.6,0.8,1.4*2E

$GPRMC,135703.000,A,5133.5059,N,00957.7964,E,0.0,21.1,260619,,,A*5F

$PSAMCLK,2059,30944100,11,9560763,2488228,309441000*73

$GPGGA,135704.000,5133.5058,N,00957.7963,E,1,12,0.8,244.8,M,47.5,M,,*53

$GPGLL,5133.5058,N,00957.7963,E,135704.000,A,A*51

$GPVTG,21.1,T,,M,0.0,N,0.0,K,A*3F

$GPGSV,2,1,08,07,12,299,14,08,38,296,33,16,45,196,23,18,12,250,20*79

$GPGSV,2,2,08,20,56,089,23,21,35,070,19,26,20,180,23,27,78,295,29*7B

$GLGSV,2,1,05,70,42,111,19,75,14,217,22,76,37,267,21,85,59,058,19*69

$GLGSV,2,2,05,86,48,297,29*55

$GPGSA,A,3,27,20,16,08,21,26,18,07,,,,,1.6,0.8,1.4*39

$GNGSA,A,3,70,76,85,86,,,,,,,,,1.6,0.8,1.4*23

$GPRMC,135704.000,A,5133.5058,N,00957.7963,E,0.0,21.1,260619,,,A*5E

$PSAMCLK,2059,30944200,12,9560537,2548915,309442000*7B

$PSAMDLOK,86,0x000,0x000*21

$PSAMDLOK,76,0x000,0x00F*58

$PSAMDLOK,75,0x000,0x00F*5B

$PSAMDLOK,70,0x000,0x00F*5E

$PSAMDLOK,85,0x000,0x00F*54

$GPGGA,135705.000,5133.5058,N,00957.7962,E,1,11,1.0,244.5,M,47.5,M,,*54

$GPGLL,5133.5058,N,00957.7962,E,135705.000,A,A*51

$GPVTG,21.1,T,,M,0.0,N,0.0,K,A*3F

$GPGSV,2,1,08,07,12,299,14,08,38,296,33,16,45,196,23,18,12,250,20*79

$GPGSV,2,2,08,20,56,089,23,21,35,070,19,26,20,180,23,27,78,295,29*7B

$GLGSV,2,1,05,70,42,111,19,75,14,217,21,76,37,267,22,85,59,058,19*69

$GLGSV,2,2,05,86,48,297,30*5D

$GPGSA,A,3,27,20,16,08,21,26,,,,,,,2.2,1.0,1.8*35

$GNGSA,A,3,70,75,76,85,86,,,,,,,,2.2,1.0,1.8*23

$GPRMC,135705.000,A,5133.5058,N,00957.7962,E,0.0,21.1,260619,,,A*5E

$PSAMCLK,2059,30944300,11,9560415,2609602,309443000*76

$GPGGA,135706.000,5133.5058,N,00957.7962,E,1,12,1.0,244.5,M,47.5,M,,*54

$GPGLL,5133.5058,N,00957.7962,E,135706.000,A,A*52

$GPVTG,21.1,T,,M,0.0,N,0.0,K,A*3F

$GPGSV,2,1,08,07,12,299,14,08,38,296,33,16,45,196,23,18,12,250,20*79

$GPGSV,2,2,08,20,56,089,23,21,35,070,19,26,20,180,23,27,78,295,29*7B

$GLGSV,2,1,05,70,42,111,19,75,14,217,21,76,37,267,27,85,59,058,19*6C

$GLGSV,2,2,05,86,48,297,30*5D

$GPGSA,A,3,27,20,16,08,21,26,18,,,,,,2.0,1.0,1.6*30

$GNGSA,A,3,70,75,76,85,86,,,,,,,,2.0,1.0,1.6*2F

$GPRMC,135706.000,A,5133.5058,N,00957.7962,E,0.0,21.1,260619,,,A*5D

$PSAMCLK,2059,30944400,12,9560566,2670288,309444000*78

$PSAMDLERR,8,1,0x3F7*6D

$PSAMDLERR,27,4,0x237*21

$PSAMDLOK,20,0x284,0x3FF*20

$PSAMDLOK,26,0x200,0x3FF*2A

$PSAMDLOK,16,0x004,0x3FF*2F

$PSAMDLOK,18,0x200,0x3FF*27

$PSAMDLOK,21,0x000,0x3FF*2F

$PSAMDLOK,7,0x000,0x3FF*1B

$PSAMDLOK,86,0x000,0x000*21

$PSAMDLOK,76,0x000,0x00F*58

$PSAMDLOK,70,0x000,0x00F*5E

$PSAMDLOK,75,0x000,0x00F*5B

$PSAMDLOK,85,0x000,0x00F*54

$GPGGA,135707.000,5133.5058,N,00957.7962,E,1,11,1.0,244.5,M,47.5,M,,*56

$GPGLL,5133.5058,N,00957.7962,E,135707.000,A,A*53

$GPVTG,21.1,T,,M,0.0,N,0.0,K,A*3F

$GPGSV,2,1,08,07,12,299,14,08,38,296,33,16,45,196,22,18,12,250,20*78

$GPGSV,2,2,08,20,56,089,24,21,35,070,19,26,20,180,23,27,78,295,29*7C

$GLGSV,2,1,05,70,42,111,19,75,14,217,21,76,37,267,27,85,59,058,19*6C

$GLGSV,2,2,05,86,48,297,30*5D

$GPGSA,A,3,27,20,16,08,21,26,18,,,,,,2.0,1.0,1.6*30

$GNGSA,A,3,70,76,85,86,,,,,,,,,2.0,1.0,1.6*2D

$GPRMC,135707.000,A,5133.5058,N,00957.7962,E,0.0,21.1,260619,,,A*5C

$PSAMCLK,2059,30944500,11,9560578,2730970,309445000*7D

$GPGGA,135708.000,5133.5058,N,00957.7962,E,1,11,0.8,244.5,M,47.5,M,,*50

$GPGLL,5133.5058,N,00957.7962,E,135708.000,A,A*5C

$GPVTG,21.1,T,,M,0.0,N,0.0,K,A*3F

$GPGSV,2,1,08,07,12,299,14,08,38,296,33,16,45,196,22,18,12,250,21*79

$GPGSV,2,2,08,20,56,089,24,21,35,070,19,26,20,180,23,27,78,295,29*7C

$GLGSV,2,1,05,70,42,111,19,75,14,217,21,76,37,267,27,85,59,058,19*6C

$GLGSV,2,2,05,86,48,297,30*5D

$GPGSA,A,3,27,20,16,08,21,26,07,,,,,,1.8,0.8,1.4*3E

$GNGSA,A,3,70,76,85,86,,,,,,,,,1.8,0.8,1.4*2D

$GPRMC,135708.000,A,5133.5058,N,00957.7962,E,0.0,21.1,260619,,,A*53

$PSAMCLK,2059,30944600,11,9560609,2791657,309446000*79

$PSAMDLOK,86,0x000,0x000*21

$PSAMDLOK,76,0x000,0x00F*58

$PSAMDLOK,70,0x000,0x00F*5E

$PSAMDLOK,75,0x000,0x00F*5B

$PSAMDLOK,85,0x000,0x00F*54

$GPGGA,135709.000,5133.5058,N,00957.7962,E,1,11,1.0,244.5,M,47.5,M,,*58

$GPGLL,5133.5058,N,00957.7962,E,135709.000,A,A*5D

$GPVTG,21.1,T,,M,0.0,N,0.0,K,A*3F

$GPGSV,2,1,08,07,12,299,14,08,38,296,33,16,45,196,22,18,12,250,21*79

$GPGSV,2,2,08,20,56,089,24,21,35,070,19,26,20,180,23,27,78,295,29*7C

$GLGSV,2,1,05,70,42,111,19,75,14,217,21,76,37,267,27,85,59,058,19*6C

$GLGSV,2,2,05,86,48,297,30*5D

$GPGSA,A,3,27,20,16,08,21,26,18,,,,,,2.0,1.0,1.6*30

$GNGSA,A,3,70,76,85,86,,,,,,,,,2.0,1.0,1.6*2D

$GPRMC,135709.000,A,5133.5058,N,00957.7962,E,0.0,21.1,260619,,,A*52

$PSAMCLK,2059,30944700,11,9560575,2852344,309447000*76

$GPGGA,135710.000,5133.5058,N,00957.7962,E,1,12,1.0,244.5,M,47.5,M,,*53

$GPGLL,5133.5058,N,00957.7962,E,135710.000,A,A*55

$GPVTG,21.1,T,,M,0.0,N,0.0,K,A*3F

$GPGSV,2,1,08,07,12,299,14,08,38,296,33,16,45,196,22,18,12,250,21*79

$GPGSV,2,2,08,20,56,089,24,21,35,070,18,26,20,180,23,27,78,295,29*7D

$GLGSV,2,1,05,70,42,111,20,75,14,217,21,76,37,267,27,85,59,058,18*67

$GLGSV,2,2,05,86,48,297,30*5D

$GPGSA,A,3,27,20,16,08,21,26,18,,,,,,2.0,1.0,1.6*30

$GNGSA,A,3,70,75,76,85,86,,,,,,,,2.0,1.0,1.6*2F

$GPRMC,135710.000,A,5133.5058,N,00957.7962,E,0.0,21.1,260619,,,A*5A

$PSAMCLK,2059,30944800,12,9560416,2913030,309448000*75

$PSAMDLOK,86,0x00F,0x000*57

$PSAMDLOK,76,0x000,0x00F*58

$PSAMDLOK,70,0x000,0x00F*5E

$PSAMDLOK,75,0x000,0x00F*5B

$PSAMDLOK,85,0x000,0x00F*54

$GPGGA,135711.000,5133.5058,N,00957.7962,E,1,11,1.0,244.5,M,47.5,M,,*51

$GPGLL,5133.5058,N,00957.7962,E,135711.000,A,A*54

$GPVTG,21.1,T,,M,0.0,N,0.0,K,A*3F

$GPGSV,2,1,08,07,12,299,14,08,38,296,33,16,45,196,22,18,12,250,21*79

$GPGSV,2,2,08,20,56,089,24,21,35,070,18,26,20,180,23,27,78,295,29*7D

$GLGSV,2,1,05,70,42,111,20,75,14,217,20,76,37,267,27,85,59,058,18*66

$GLGSV,2,2,05,86,48,297,30*5D

$GPGSA,A,3,27,20,16,08,21,26,,,,,,,2.2,1.0,1.8*35

$GNGSA,A,3,70,75,76,85,86,,,,,,,,2.2,1.0,1.8*23

$GPRMC,135711.000,A,5133.5058,N,00957.7962,E,0.0,21.1,260619,,,A*5B

$PSAMCLK,2059,30944900,11,9560418,2973717,309449000*7C

$GPGGA,135712.000,5133.5058,N,00957.7962,E,1,12,1.0,244.5,M,47.5,M,,*51

$GPGLL,5133.5058,N,00957.7962,E,135712.000,A,A*57

$GPVTG,21.1,T,,M,0.0,N,0.0,K,A*3F

$GPGSV,2,1,08,07,12,299,14,08,38,296,33,16,45,196,22,18,12,250,21*79

$GPGSV,2,2,08,20,56,089,24,21,35,070,18,26,20,180,23,27,78,295,30*75

$GLGSV,2,1,05,70,42,111,20,75,14,217,20,76,37,267,26,85,59,058,18*67

$GLGSV,2,2,05,86,48,297,30*5D

$GPGSA,A,3,27,20,16,08,21,26,18,,,,,,2.0,1.0,1.6*30

$GNGSA,A,3,70,75,76,85,86,,,,,,,,2.0,1.0,1.6*2F

$GPRMC,135712.000,A,5133.5058,N,00957.7962,E,0.0,21.1,260619,,,A*58

$PSAMCLK,2059,30945000,12,9560522,3034400,309450000*79

$PSAMDLERR,8,1,0x3FB*18

$PSAMDLERR,27,1,0x3FB*25

$PSAMDLOK,20,0x052,0x3FF*29

$PSAMDLOK,26,0x210,0x3FF*2B

$PSAMDLOK,16,0x010,0x3FF*2A

$PSAMDLOK,18,0x000,0x3FF*25

$PSAMDLOK,21,0x000,0x3FF*2F

$PSAMDLOK,7,0x000,0x3FF*1B

$PSAMDLOK,86,0x00F,0x000*57

$PSAMDLOK,70,0x000,0x00F*5E

$PSAMDLOK,75,0x000,0x00F*5B

$PSAMDLOK,76,0x000,0x00F*58

$PSAMDLOK,85,0x000,0x00F*54

$GPGGA,135713.000,5133.5058,N,00957.7962,E,1,11,1.0,244.5,M,47.5,M,,*53

$GPGLL,5133.5058,N,00957.7962,E,135713.000,A,A*56

$GPVTG,21.1,T,,M,0.0,N,0.0,K,A*3F

$GPGSV,2,1,08,07,12,299,14,08,38,296,33,16,45,196,22,18,12,250,21*79

$GPGSV,2,2,08,20,56,089,23,21,35,070,18,26,20,180,23,27,78,295,30*72

$GLGSV,2,1,05,70,42,111,20,75,14,217,20,76,37,267,25,85,59,058,18*64

$GLGSV,2,2,05,86,48,297,30*5D

$GPGSA,A,3,27,20,16,08,21,26,18,,,,,,2.0,1.0,1.6*30

$GNGSA,A,3,70,76,85,86,,,,,,,,,2.0,1.0,1.6*2D

$GPRMC,135713.000,A,5133.5058,N,00957.7962,E,0.0,21.1,260619,,,A*59

$PSAMCLK,2059,30945100,11,9560615,3095088,309451000*72

$GPGGA,135714.000,5133.5058,N,00957.7962,E,1,13,0.8,244.5,M,47.5,M,,*5F

$GPGLL,5133.5058,N,00957.7962,E,135714.000,A,A*51

$GPVTG,21.1,T,,M,0.0,N,0.0,K,A*3F

$GPGSV,3,1,09,07,12,299,14,08,38,296,33,10,54,141,23,16,45,196,22*72

$GPGSV,3,2,09,18,12,250,21,20,56,089,23,21,35,070,18,26,20,180,23*7B

$GPGSV,3,3,09,27,78,295,30*47

$GLGSV,2,1,05,70,42,111,20,75,14,217,20,76,37,267,25,85,59,058,18*64

$GLGSV,2,2,05,86,48,297,31*5C

$GPGSA,A,3,27,20,10,16,08,21,26,18,,,,,1.8,0.8,1.6*33

$GNGSA,A,3,70,75,76,85,86,,,,,,,,1.8,0.8,1.6*2D

$GPRMC,135714.000,A,5133.5058,N,00957.7962,E,0.0,21.1,260619,,,A*5E

$PSAMCLK,2059,30945200,13,9560564,3155774,309452000*7C

$PSAMDLOK,86,0x00F,0x000*57

$PSAMDLOK,70,0x000,0x00F*5E

$PSAMDLOK,75,0x000,0x00F*5B

$PSAMDLOK,76,0x000,0x00F*58

$PSAMDLOK,85,0x000,0x00F*54

$GPGGA,135715.000,5133.5058,N,00957.7962,E,1,13,0.8,244.5,M,47.5,M,,*5E

$GPGLL,5133.5058,N,00957.7962,E,135715.000,A,A*50

$GPVTG,21.1,T,,M,0.0,N,0.0,K,A*3F

$GPGSV,3,1,09,07,12,299,14,08,38,296,33,10,54,141,23,16,45,196,24*74

$GPGSV,3,2,09,18,12,250,21,20,56,089,23,21,35,070,18,26,20,180,24*7C

$GPGSV,3,3,09,27,78,295,30*47

$GLGSV,2,1,05,70,42,111,20,75,14,217,20,76,37,267,24,85,59,058,18*65

$GLGSV,2,2,05,86,48,297,31*5C

$GPGSA,A,3,27,20,10,16,08,21,26,18,,,,,1.8,0.8,1.6*33

$GNGSA,A,3,70,75,76,85,86,,,,,,,,1.8,0.8,1.6*2D

$GPRMC,135715.000,A,5133.5058,N,00957.7962,E,0.0,21.1,260619,,,A*5F

$PSAMCLK,2059,30945300,13,9560558,3216459,309453000*7B

$GPGGA,135716.000,5133.5058,N,00957.7962,E,1,13,0.8,244.5,M,47.5,M,,*5D

$GPGLL,5133.5058,N,00957.7962,E,135716.000,A,A*53

$GPVTG,21.1,T,,M,0.0,N,0.0,K,A*3F

$GPGSV,3,1,09,07,12,299,14,08,38,296,33,10,54,141,23,16,45,196,25*75

$GPGSV,3,2,09,18,12,250,21,20,56,089,22,21,35,070,18,26,20,180,24*7D

$GPGSV,3,3,09,27,78,295,30*47

$GLGSV,2,1,05,70,42,111,20,75,14,217,20,76,37,267,24,85,59,058,18*65

$GLGSV,2,2,05,86,48,297,31*5C

$GPGSA,A,3,27,20,10,16,08,21,26,18,,,,,1.8,0.8,1.6*33

$GNGSA,A,3,70,75,76,85,86,,,,,,,,1.8,0.8,1.6*2D

$GPRMC,135716.000,A,5133.5058,N,00957.7962,E,0.0,21.1,260619,,,A*5C

$PSAMCLK,2059,30945400,13,9560547,3277142,309454000*7D

$PSAMDLOK,86,0x000,0x000*21

$PSAMDLOK,70,0x000,0x00F*5E

$PSAMDLOK,75,0x000,0x00F*5B

$PSAMDLOK,76,0x000,0x00F*58

$PSAMDLOK,85,0x000,0x00F*54

$GPGGA,135717.000,5133.5058,N,00957.7962,E,1,13,0.8,244.5,M,47.5,M,,*5C

$GPGLL,5133.5058,N,00957.7962,E,135717.000,A,A*52

$GPVTG,21.1,T,,M,0.0,N,0.0,K,A*3F

$GPGSV,3,1,09,07,12,299,14,08,38,296,33,10,54,141,23,16,45,196,25*75

$GPGSV,3,2,09,18,12,250,21,20,56,089,22,21,35,070,18,26,20,180,24*7D

$GPGSV,3,3,09,27,78,295,30*47

$GLGSV,2,1,05,70,42,111,20,75,14,217,20,76,37,267,24,85,59,058,18*65

$GLGSV,2,2,05,86,48,297,31*5C

$GPGSA,A,3,27,20,10,16,08,21,26,18,,,,,1.8,0.8,1.6*33

$GNGSA,A,3,70,75,76,85,86,,,,,,,,1.8,0.8,1.6*2D

$GPRMC,135717.000,A,5133.5058,N,00957.7962,E,0.0,21.1,260619,,,A*5D

$PSAMCLK,2059,30945500,13,9560552,3337827,309455000*76

$GPGGA,135718.000,5133.5058,N,00957.7962,E,1,12,1.0,244.5,M,47.5,M,,*5B

$GPGLL,5133.5058,N,00957.7962,E,135718.000,A,A*5D

$GPVTG,21.1,T,,M,0.0,N,0.0,K,A*3F

$GPGSV,3,1,09,07,12,299,14,08,38,296,33,10,54,141,21,16,45,196,25*77

$GPGSV,3,2,09,18,12,250,21,20,56,089,22,21,35,070,18,26,20,180,24*7D

$GPGSV,3,3,09,27,78,295,30*47

$GLGSV,2,1,05,70,42,111,20,75,14,217,20,76,37,267,24,85,59,058,18*65

$GLGSV,2,2,05,86,48,297,31*5C

$GPGSA,A,3,27,20,16,08,21,26,18,,,,,,2.0,1.0,1.6*30

$GNGSA,A,3,70,75,76,85,86,,,,,,,,2.0,1.0,1.6*2F

$GPRMC,135718.000,A,5133.5058,N,00957.7962,E,0.0,21.1,260619,,,A*52

$PSAMCLK,2059,30945600,12,9560556,3398511,309456000*7E

$PSAMDLOK,8,0x3FF,0x000*14

$PSAMDLERR,27,1,0x3EF*22

$PSAMDLOK,16,0x309,0x3FF*21

$PSAMDLOK,26,0x22D,0x3FF*5C

$PSAMDLOK,18,0x104,0x3FF*20

$PSAMDLOK,20,0x000,0x3FF*2E

$PSAMDLOK,21,0x040,0x3FF*2B

$PSAMDLOK,7,0x000,0x3FF*1B

$PSAMDLOK,86,0x00F,0x000*57

$PSAMDLOK,76,0x000,0x00F*58

$PSAMDLOK,70,0x000,0x00F*5E

$PSAMDLOK,75,0x000,0x00F*5B

$PSAMDLOK,85,0x000,0x00F*54

$GPGGA,135719.000,5133.5058,N,00957.7962,E,1,11,1.0,244.5,M,47.5,M,,*59

$GPGLL,5133.5058,N,00957.7962,E,135719.000,A,A*5C

$GPVTG,21.1,T,,M,0.0,N,0.0,K,A*3F

$GPGSV,3,1,09,07,12,299,14,08,38,296,33,10,54,141,20,16,45,196,26*75

$GPGSV,3,2,09,18,12,250,21,20,56,089,22,21,35,070,18,26,20,180,24*7D

$GPGSV,3,3,09,27,78,295,30*47

$GLGSV,2,1,05,70,42,110,20,75,14,217,20,76,37,267,26,85,59,058,18*66

$GLGSV,2,2,05,86,48,297,31*5C

$GPGSA,A,3,27,20,16,08,21,26,18,,,,,,2.0,1.0,1.6*30

$GNGSA,A,3,70,75,76,86,,,,,,,,,2.0,1.0,1.6*22

$GPRMC,135719.000,A,5133.5058,N,00957.7962,E,0.0,21.1,260619,,,A*53

$PSAMCLK,2059,30945700,11,9560525,3459196,309457000*78

$GPGGA,135720.000,5133.5058,N,00957.7962,E,1,10,1.0,244.5,M,47.5,M,,*52

$GPGLL,5133.5058,N,00957.7962,E,135720.000,A,A*56

$GPVTG,21.1,T,,M,0.0,N,0.0,K,A*3F

$GPGSV,3,1,09,07,12,299,13,08,38,296,33,10,54,141,18,16,45,196,26*79

$GPGSV,3,2,09,18,12,250,21,20,56,089,21,21,35,070,18,26,20,180,24*7E

$GPGSV,3,3,09,27,78,295,30*47

$GLGSV,2,1,05,70,42,110,21,75,14,217,20,76,37,267,26,85,59,058,18*67

$GLGSV,2,2,05,86,48,297,31*5C

$GPGSA,A,3,27,20,16,08,21,26,18,,,,,,2.0,1.0,1.8*3E

$GNGSA,A,3,70,76,86,,,,,,,,,,2.0,1.0,1.8*2E

$GPRMC,135720.000,A,5133.5058,N,00957.7962,E,0.0,21.1,260619,,,A*59

$PSAMCLK,2059,30945800,10,9560534,3519880,309458000*72

$PSAMDLOK,86,0x00F,0x000*57

$PSAMDLOK,76,0x000,0x00F*58

$PSAMDLOK,70,0x000,0x00F*5E

$PSAMDLOK,75,0x000,0x00F*5B

$PSAMDLOK,85,0x000,0x00F*54

$GPGGA,135721.000,5133.5058,N,00957.7962,E,1,10,1.0,244.5,M,47.5,M,,*53

$GPGLL,5133.5058,N,00957.7962,E,135721.000,A,A*57

$GPVTG,21.1,T,,M,0.0,N,0.0,K,A*3F

$GPGSV,3,1,09,07,12,299,13,08,38,296,32,10,54,141,17,16,45,196,26*77

$GPGSV,3,2,09,18,12,250,21,20,56,089,21,21,35,070,18,26,20,180,24*7E

$GPGSV,3,3,09,27,78,295,30*47

$GLGSV,2,1,05,70,42,110,21,75,14,217,20,76,37,267,26,85,59,058,18*67

$GLGSV,2,2,05,86,48,297,31*5C

$GPGSA,A,3,27,20,16,08,21,26,18,,,,,,2.0,1.0,1.6*30

$GNGSA,A,3,75,76,86,,,,,,,,,,2.0,1.0,1.6*25

$GPRMC,135721.000,A,5133.5058,N,00957.7962,E,0.0,21.1,260619,,,A*58

$PSAMCLK,2059,30945900,10,9560538,3580568,309459000*75

$GPGGA,135722.000,5133.5058,N,00957.7962,E,1,11,1.0,244.5,M,47.5,M,,*51

$GPGLL,5133.5058,N,00957.7962,E,135722.000,A,A*54

$GPVTG,21.1,T,,M,0.0,N,0.0,K,A*3F

$GPGSV,3,1,09,07,12,299,13,08,38,296,32,10,54,140,15,16,45,196,26*74

$GPGSV,3,2,09,18,12,250,21,20,56,089,21,21,35,070,18,26,20,180,23*79

$GPGSV,3,3,09,27,78,295,30*47

$GLGSV,2,1,05,70,42,110,21,75,14,217,20,76,37,267,26,85,59,058,18*67

$GLGSV,2,2,05,86,48,297,31*5C

$GPGSA,A,3,27,20,16,08,21,18,,,,,,,2.0,1.0,1.6*34

$GNGSA,A,3,70,75,76,85,86,,,,,,,,2.0,1.0,1.6*2F

$GPRMC,135722.000,A,5133.5058,N,00957.7962,E,0.0,21.1,260619,,,A*5B

$PSAMCLK,2059,30946000,11,9560539,3641256,309460000*71

$PSAMDLOK,86,0x00F,0x000*57

$PSAMDLOK,70,0x000,0x00F*5E

$PSAMDLOK,75,0x000,0x00F*5B

$PSAMDLOK,85,0x000,0x00F*54

$PSAMDLOK,76,0x000,0x00F*58

$GPGGA,135723.000,5133.5058,N,00957.7962,E,1,11,1.0,244.5,M,47.5,M,,*50

$GPGLL,5133.5058,N,00957.7962,E,135723.000,A,A*55

$GPVTG,21.1,T,,M,0.0,N,0.0,K,A*3F

$GPGSV,3,1,09,07,12,299,13,08,38,296,32,10,54,140,22,16,45,196,26*70

$GPGSV,3,2,09,18,12,250,21,20,56,089,22,21,35,070,18,26,20,180,21*78

$GPGSV,3,3,09,27,78,295,30*47

$GLGSV,2,1,05,70,42,110,21,75,14,217,20,76,37,267,25,85,59,058,18*64

$GLGSV,2,2,05,86,48,297,31*5C

$GPGSA,A,3,27,20,10,16,08,21,18,,,,,,2.0,1.0,1.8*3B

$GNGSA,A,3,70,76,85,86,,,,,,,,,2.0,1.0,1.8*23

$GPRMC,135723.000,A,5133.5058,N,00957.7962,E,0.0,21.1,260619,,,A*5A

$PSAMCLK,2059,30946100,11,9560533,3701943,309461000*71

$GPGGA,135724.000,5133.5058,N,00957.7962,E,1,12,1.0,244.5,M,47.5,M,,*54

$GPGLL,5133.5058,N,00957.7962,E,135724.000,A,A*52

$GPVTG,21.1,T,,M,0.0,N,0.0,K,A*3F

$GPGSV,3,1,09,07,12,299,18,08,38,296,32,10,54,140,23,16,45,196,26*7A

$GPGSV,3,2,09,18,12,250,21,20,56,089,24,21,35,070,18,26,20,180,23*7C

$GPGSV,3,3,09,27,78,295,33*44

$GLGSV,2,1,05,70,42,110,21,75,14,217,23,76,37,267,25,85,59,058,18*67

$GLGSV,2,2,05,86,48,297,31*5C

$GPGSA,A,3,27,20,10,16,08,26,18,07,,,,,1.8,1.0,1.4*3C

$GNGSA,A,3,70,76,85,86,,,,,,,,,1.8,1.0,1.4*24

$GPRMC,135724.000,A,5133.5058,N,00957.7962,E,0.0,21.1,260619,,,A*5D

$PSAMCLK,2059,30946200,12,9560422,3762628,309462000*74

$PSAMDLOK,27,0x3FF,0x000*29

$PSAMDLOK,8,0x3FF,0x000*14

$PSAMDLOK,16,0x1E7,0x3FF*58

$PSAMDLOK,20,0x000,0x3FF*2E

$PSAMDLOK,7,0x000,0x3FF*1B

$PSAMDLOK,10,0x000,0x380*25

$PSAMDLOK,26,0x200,0x300*2A

$PSAMDLOK,18,0x028,0x3FF*2F

$PSAMDLOK,21,0x000,0x3FF*2F

$PSAMDLOK,86,0x000,0x00F*57

$PSAMDLOK,75,0x000,0x00F*5B

$PSAMDLOK,76,0x000,0x00F*58

$PSAMDLOK,85,0x000,0x00F*54

$PSAMDLOK,70,0x000,0x00F*5E

$GPGGA,135725.000,5133.5058,N,00957.7962,E,1,13,1.0,244.5,M,47.5,M,,*54

$GPGLL,5133.5058,N,00957.7962,E,135725.000,A,A*53

$GPVTG,21.1,T,,M,0.0,N,0.0,K,A*3F

$GPGSV,3,1,09,07,12,299,23,08,38,296,33,10,54,140,23,16,45,196,26*73

$GPGSV,3,2,09,18,12,250,21,20,56,089,24,21,35,070,18,26,20,180,24*7B

$GPGSV,3,3,09,27,78,295,33*44

$GLGSV,2,1,06,70,42,110,21,75,14,217,25,76,37,267,25,77,23,330,28*6C

$GLGSV,2,2,06,85,59,058,20,86,48,297,31*61

$GPGSA,A,3,27,20,10,16,08,26,18,07,,,,,1.8,1.0,1.4*3C

$GNGSA,A,3,70,75,76,85,86,,,,,,,,1.8,1.0,1.4*26

$GPRMC,135725.000,A,5133.5058,N,00957.7962,E,0.0,21.1,260619,,,A*5C

$PSAMCLK,2059,30946300,13,9560304,3823313,309463000*71

$GPGGA,135726.000,5133.5058,N,00957.7962,E,1,13,0.8,244.5,M,47.5,M,,*5E

$GPGLL,5133.5058,N,00957.7962,E,135726.000,A,A*50

$GPVTG,21.1,T,,M,0.0,N,0.0,K,A*3F

$GPGSV,3,1,09,07,12,299,22,08,38,296,38,10,54,140,23,16,45,196,25*7A

$GPGSV,3,2,09,18,12,250,21,20,56,089,24,21,35,070,18,26,20,180,24*7B

$GPGSV,3,3,09,27,78,295,32*45

$GLGSV,2,1,06,70,42,110,21,75,14,217,25,76,37,267,25,77,23,330,28*6C

$GLGSV,2,2,06,85,59,058,20,86,48,297,36*66

$GPGSA,A,3,27,20,10,16,08,21,26,18,07,,,,1.6,0.8,1.4*38

$GNGSA,A,3,70,76,85,86,,,,,,,,,1.6,0.8,1.4*23

$GPRMC,135726.000,A,5133.5058,N,00957.7962,E,0.0,21.1,260619,,,A*5F

$PSAMCLK,2059,30946400,13,9560269,3883995,309464000*75

$PSAMDLOK,86,0x000,0x000*21

$PSAMDLOK,76,0x000,0x00F*58

$PSAMDLOK,75,0x000,0x00F*5B

$PSAMDLOK,70,0x000,0x00F*5E

$PSAMDLOK,85,0x000,0x00F*54

$PSAMID,SLL_3.4.8_KXB24_T12,*31

$GPGGA,135845.714,,,,,0,,,,,,,,*74

$GPGLL,5133.5058,N,00957.7962,E,135845.714,V,N*40

$GPVTG,0.0,T,,M,0.0,N,0.0,K,N*02

$GPRMC,135845.714,V,,,,,,,260619,,,N*4B

$PSAMCLK,2059,30954371,0,9562169,64378,309543714*49

$PSAMID,SLL_3.4.8_KXB24_T12,*31

$GPGGA,135846.707,,,,,0,,,,,,,,*75

$GPGLL,5133.5058,N,00957.7962,E,135846.707,V,N*41

$GPVTG,0.0,T,,M,0.0,N,0.0,K,N*02

$GPGSV,1,1,04,08,39,296,26,10,55,140,24,16,44,196,24,21,35,070,23*78

$GLGSV,1,1,02,85,58,059,29,86,49,298,29*6B

$GPRMC,135846.707,V,,,,,,,260619,,,N*4A

$PSAMCLK,2059,30954471,0,9562169,220878,309544707*72

$GPGGA,135847.714,,,,,0,,,,,,,,*76

$GPGLL,5133.5058,N,00957.7962,E,135847.714,V,N*42

$GPVTG,0.0,T,,M,0.0,N,0.0,K,N*02

$GPGSV,1,1,04,08,39,296,26,10,55,140,24,16,44,196,26,21,35,070,23*7A

$GLGSV,1,1,02,85,58,059,29,86,49,298,29*6B

$GPRMC,135847.714,V,,,,,,,260619,,,N*49

$PSAMCLK,2059,30954571,0,9562169,282022,309545715*7E

$GPGGA,135848.617,,,,,0,,,,,,,,*7B

$GPGLL,5133.4951,N,00957.8017,E,135848.617,V,N*4A

$GPVTG,0.0,T,,M,0.5,N,0.9,K,N*0E

$GPGSV,2,1,05,08,39,296,27,10,55,140,26,16,44,196,26,21,35,070,23*7B

$GPGSV,2,2,05,27,79,295,24*4F

$GLGSV,1,1,02,85,58,059,29,86,49,298,29*6B

$GPRMC,135848.617,V,,,,,,,260619,,,N*44

$PSAMCLK,2059,30954662,7,9559931,54634,309546617*4D

$PSAMID,SLL_3.4.8_KXB24_T12,*31

$GPGGA,135848.716,,,,,0,,,,,,,,*7B

$GPGLL,5133.4969,N,00957.7984,E,135848.716,V,N*4D

$GPVTG,0.0,T,,M,0.0,N,0.0,K,N*02

$GPGSV,2,1,05,08,39,296,27,10,55,140,26,16,44,196,26,21,35,070,22*7A

$GPGSV,2,2,05,27,79,295,25*4E

$GLGSV,1,1,02,85,58,059,29,86,49,298,29*6B

$GPRMC,135848.716,V,,,,,,,260619,,,N*44

$PSAMCLK,2059,30954672,7,9559806,60606,309546716*4F

$GPGGA,140517.000,5133.4916,N,00957.7356,E,1,17,0.6,238.9,M,47.6,M,,*5D

$GPGLL,5133.4916,N,00957.7356,E,140517.000,A,A*5D

$GPVTG,181.8,T,,M,0.4,N,0.8,K,A*01

$GPGSV,3,1,10,07,11,296,27,08,41,296,34,10,57,136,39,16,42,195,38*78

$GPGSV,3,2,10,18,15,252,34,20,55,083,36,21,32,071,34,26,17,180,36*77

$GPGSV,3,3,10,27,82,291,35,30,08,325,23,36,27,153,33*42

$GLGSV,2,1,08,69,27,033,33,70,45,106,34,71,16,155,28,75,10,216,37*6A

$GLGSV,2,2,08,76,34,262,34,77,25,326,25,85,56,064,38,86,51,302,34*66

$GPGSA,A,3,27,10,20,16,08,21,26,18,07,30,,,1.2,0.6,1.0*35

$GNGSA,A,3,69,70,75,76,77,85,86,,,,,,1.2,0.6,1.0*20

$GPRMC,140517.000,A,5133.4916,N,00957.7356,E,0.4,181.8,260619,,,A*64

$PSAMCLK,2059,30993500,17,9560242,5279598,309935000*70

$GPGGA,140517.000,5133.4916,N,00957.7356,E,1,17,0.6,238.9,M,47.6,M,,*5D

$GPGLL,5133.4916,N,00957.7356,E,140517.000,A,A*5D

$GPVTG,181.8,T,,M,0.4,N,0.8,K,A*01

$GPGSV,3,1,10,07,11,296,27,08,41,296,34,10,57,136,39,16,42,195,38*78

$GPGSV,3,2,10,18,15,252,34,20,55,083,36,21,32,071,34,26,17,180,36*77

$GPGSV,3,3,10,27,82,291,35,30,08,325,23,36,27,153,33*42

$GLGSV,2,1,08,69,27,033,33,70,45,106,34,71,16,155,28,75,10,216,37*6A

$GLGSV,2,2,08,76,34,262,34,77,25,326,25,85,56,064,38,86,51,302,34*66

$GPGSA,A,3,27,10,20,16,08,21,26,18,07,30,,,1.2,0.6,1.0*35

$GNGSA,A,3,69,70,75,76,77,85,86,,,,,,1.2,0.6,1.0*20

$GPRMC,140517.000,A,5133.4916,N,00957.7356,E,0.4,181.8,260619,,,A*64

$PSAMCLK,2059,30993500,17,9560242,5279598,309935000*70

$GPGGA,140518.000,5133.4916,N,00957.7356,E,1,17,0.6,238.9,M,47.5,M,,*51

$GPGLL,5133.4916,N,00957.7356,E,140518.000,A,A*52

$GPVTG,182.6,T,,M,0.0,N,0.0,K,A*00

$GPGSV,3,1,10,07,11,296,27,08,41,296,34,10,57,136,39,16,42,195,38*78

$GPGSV,3,2,10,18,15,252,34,20,55,083,36,21,32,071,34,26,17,180,36*77

$GPGSV,3,3,10,27,82,291,35,30,08,325,24,36,27,153,31*47

$GLGSV,2,1,08,69,27,032,32,70,45,106,34,71,16,155,28,75,10,216,37*6A

$GLGSV,2,2,08,76,34,262,34,77,25,326,25,85,56,064,37,86,51,302,34*69

$GPGSA,A,3,27,10,20,16,08,21,26,18,07,30,,,1.2,0.6,1.0*35

$GNGSA,A,3,69,70,75,76,77,85,86,,,,,,1.2,0.6,1.0*20

$GPRMC,140518.000,A,5133.4916,N,00957.7356,E,0.0,182.6,260619,,,A*62

$PSAMCLK,2059,30993600,17,9560248,5340285,309936000*7A

$PSAMDLERR,10,1,0x3FD*27

$PSAMDLOK,16,0x3FF,0x000*2B

$PSAMDLOK,26,0x3FF,0x000*28

$PSAMDLOK,27,0x3FF,0x000*29

$PSAMDLERR,8,2,0x3FC*1A

$PSAMDLOK,21,0x3FC,0x003*29

$PSAMDLOK,18,0x3FF,0x000*25

$PSAMDLOK,20,0x3ED,0x0C0*5C

$PSAMDLOK,30,0x380,0x3FF*24

$PSAMDLOK,7,0x0C0,0x3FC*6D

$PSAMDLOK,75,0x00F,0x000*5B

$PSAMDLOK,85,0x000,0x000*22

$PSAMDLOK,76,0x00F,0x000*58

$PSAMDLOK,86,0x00F,0x000*57

$PSAMDLOK,69,0x000,0x00F*56

$PSAMDLOK,77,0x00F,0x00F*2F

$PSAMDLOK,71,0x000,0x00F*5F

$GPGGA,140518.000,5133.4916,N,00957.7356,E,1,17,0.6,238.9,M,47.5,M,,*51

$GPGLL,5133.4916,N,00957.7356,E,140518.000,A,A*52

$GPVTG,182.6,T,,M,0.0,N,0.0,K,A*00

$GPGSV,3,1,10,07,11,296,27,08,41,296,34,10,57,136,39,16,42,195,38*78

$GPGSV,3,2,10,18,15,252,34,20,55,083,36,21,32,071,34,26,17,180,36*77

$GPGSV,3,3,10,27,82,291,35,30,08,325,24,36,27,153,31*47

$GLGSV,2,1,08,69,27,032,32,70,45,106,34,71,16,155,28,75,10,216,37*6A

$GLGSV,2,2,08,76,34,262,34,77,25,326,25,85,56,064,37,86,51,302,34*69

$GNGSA,A,3,69,70,75,76,77,85,86,,,,,,1.2,0.6,1.0*20

$GPRMC,140518.000,A,5133.4916,N,00957.7356,E,0.0,182.6,260619,,,A*62

$PSAMCLK,2059,30993600,17,9560248,5340285,309936000*7A

$PSAMDLOK,16,0x3FF,0x000*2B

$PSAMDLOK,26,0x3FF,0x000*28

$PSAMDLOK,27,0x3FF,0x000*29

$PSAMDLERR,8,2,0x3FC*1A

$PSAMDLOK,21,0x3FC,0x003*29

$PSAMDLOK,18,0x3FF,0x000*25

$PSAMDLOK,20,0x3ED,0x0C0*5C

$PSAMDLOK,30,0x380,0x3FF*24

$PSAMDLOK,7,0x0C0,0x3FC*6D

$PSAMDLOK,75,0x00F,0x000*5B

$PSAMDLOK,76,0x00F,0x000*58

$PSAMDLOK,86,0x00F,0x000*57

$PSAMDLOK,69,0x000,0x00F*56

$PSAMDLOK,77,0x00F,0x00F*2F

$PSAMDLOK,71,0x000,0x00F*5F

$PSAMDLOK,70,0x000,0x000*28

$PSAMDLOK,70,0x000,0x000*28

$GPGGA,140519.000,5133.4918,N,00957.7352,E,1,16,0.6,239.2,M,47.5,M,,*51

$GPGLL,5133.4918,N,00957.7352,E,140519.000,A,A*59

$GPVTG,183.3,T,,M,0.2,N,0.3,K,A*05

$GPGSV,3,1,10,07,11,296,26,08,41,296,34,10,57,136,39,16,42,195,38*79

$GPGSV,3,2,10,18,15,252,34,20,55,083,35,21,32,071,34,26,17,180,37*75

$GPGSV,3,3,10,27,82,291,35,30,08,325,24,36,27,153,30*46

$GLGSV,2,1,08,69,27,032,32,70,45,106,34,71,16,155,28,75,10,216,37*6A

$GLGSV,2,2,08,76,34,262,34,77,25,326,24,85,56,064,37,86,51,302,34*68

$GPGSA,A,3,27,10,20,16,08,21,26,18,07,30,,,1.2,0.6,1.0*35

$GNGSA,A,3,69,70,75,76,85,86,,,,,,,1.2,0.6,1.0*20

$GPRMC,140519.000,A,5133.4918,N,00957.7352,E,0.2,183.3,260619,,,A*6F

$PSAMCLK,2059,30993700,16,9560257,5400967,309937000*71

$GPGGA,140519.000,5133.4918,N,00957.7352,E,1,16,0.6,239.2,M,47.5,M,,*51

$GPGLL,5133.4918,N,00957.7352,E,140519.000,A,A*59

$GPVTG,183.3,T,,M,0.2,N,0.3,K,A*05

$GPGSV,3,1,10,07,11,296,26,08,41,296,34,10,57,136,39,16,42,195,38*79

$GPGSV,3,2,10,18,15,252,34,20,55,083,35,21,32,071,34,26,17,180,37*75

$GPGSV,3,3,10,27,82,291,35,30,08,325,24,36,27,153,30*46

$GLGSV,2,1,08,69,27,032,32,70,45,106,34,71,16,155,28,75,10,216,37*6A

$GLGSV,2,2,08,76,34,262,34,77,25,326,24,85,56,064,37,86,51,302,34*68

$GPGSA,A,3,27,10,20,16,08,21,26,18,07,30,,,1.2,0.6,1.0*35

