$GPGSV,4,1,13,16,43,195,40,07,11,298,,08,38,295,,10,54,139,*75

$GPGSV,4,2,13,11,00,268,,13,04,014,,15,12,045,,18,12,250,*79

$GPGSV,4,3,13,20,55,087,,21,33,070,,26,18,180,,27,78,293,*73

$GPGSV,4,4,13,30,07,327,*49

$GLGSV,3,1,09,86,48,298,32,76,36,265,32,70,42,109,,77,23,329,*6A

$GLGSV,3,2,09,75,13,216,,69,28,035,,84,07,085,,85,58,059,*61

$GLGSV,3,3,09,71,12,156,*5B

$BDGSV,3,1,12,202,01,101,,205,15,122,,206,20,057,,209,19,087,*62

$BDGSV,3,2,12,211,23,098,,213,03,071,,214,41,077,,216,22,063,*6F

$BDGSV,3,3,12,221,11,032,,223,,,,227,18,282,,228,71,292,*59

$GPGGA,,,,,,0,,,,,,,,*66

$GNGNS,,,,,,NN,,,,,,*53

$GPVTG,,T,,M,,N,,K,N*2C

$GPRMC,,V,,,,,,,,,,N*53

$GPGSA,A,1,,,,,,,,,,,,,,,*1E

$GNGSA,A,1,,,,,,,,,,,,,,,*00

$BDGSA,A,1,,,,,,,,,,,,,,,*0F

$GPGSV,4,1,13,07,10,296,,08,39,295,,10,55,137,,11,01,268,*70

$GPGSV,4,2,13,13,03,012,,15,12,043,,16,42,195,,18,13,250,*7F

$GPGSV,4,3,13,20,54,084,,21,32,070,,26,17,180,,27,79,292,*7F

$GPGSV,4,4,13,30,07,326,*48

$GLGSV,3,1,09,70,43,106,28,76,35,262,25,86,50,299,,77,24,327,*6C

$GLGSV,3,2,09,75,11,216,,69,27,033,,84,06,087,,85,56,061,*6C

$GLGSV,3,3,09,71,14,156,*5D

$BDGSV,3,1,11,202,01,101,,205,15,122,,206,21,057,,209,20,085,*68

$BDGSV,3,2,11,211,22,099,,213,03,071,,214,41,074,,216,23,063,*6E

$BDGSV,3,3,11,221,10,032,,227,19,284,,228,72,293,*6D

$GPGGA,,,,,,0,,,,,,,,*66

$GNGNS,,,,,,NN,,,,,,*53

$GPVTG,,T,,M,,N,,K,N*2C

$GPRMC,,V,,,,,,,,,,N*53

$GPGSA,A,1,,,,,,,,,,,,,,,*1E

$GNGSA,A,1,,,,,,,,,,,,,,,*00

$BDGSA,A,1,,,,,,,,,,,,,,,*0F

$GPGSV,4,1,13,08,39,295,22,10,55,137,34,16,42,195,30,20,54,084,32*70

$GPGSV,4,2,13,27,79,292,30,07,10,296,,11,01,268,,13,03,012,*78

$GPGSV,4,3,13,15,12,043,,18,13,250,,21,32,070,,26,17,180,*7E

$GPGSV,4,4,13,30,07,326,*48

$GLGSV,3,1,09,70,43,106,31,86,50,299,27,76,35,262,28,71,14,156,25*6A

$GLGSV,3,2,09,77,24,327,,75,11,216,,69,27,033,,84,06,087,*65

$GLGSV,3,3,09,85,56,061,*55

$BDGSV,3,1,11,202,01,101,,205,15,122,,206,21,057,,209,20,085,*68

$BDGSV,3,2,11,211,22,099,,213,03,071,,214,41,074,,216,23,063,*6E

$BDGSV,3,3,11,221,10,032,,227,19,284,,228,72,293,*6D

$GPGGA,,,,,,0,,,,,,,,*66

$GNGNS,,,,,,NN,,,,,,*53

$GPVTG,,T,,M,,N,,K,N*2C

$GPRMC,,V,,,,,,,,,,N*53

$GPGSA,A,1,,,,,,,,,,,,,,,*1E

$GNGSA,A,1,,,,,,,,,,,,,,,*00

$BDGSA,A,1,,,,,,,,,,,,,,,*0F

$GPGSV,4,1,13,08,39,295,22,10,55,137,34,16,42,195,30,20,54,084,32*70

$GPGSV,4,2,13,27,79,292,30,07,10,296,,11,01,268,,13,03,012,*78

$GPGSV,4,3,13,15,12,043,,18,13,250,,21,32,070,,26,17,180,*7E

$GPGSV,4,4,13,30,07,326,*48

$GLGSV,3,1,09,70,43,106,31,86,50,299,27,76,35,262,28,71,14,156,25*6A

$GLGSV,3,2,09,77,24,327,,75,11,216,,69,27,033,,84,06,087,*65

$GLGSV,3,3,09,85,56,061,*55

$BDGSV,3,1,11,202,01,101,,205,15,122,,206,21,057,,209,20,085,*68

$BDGSV,3,2,11,211,22,099,,213,03,071,,214,41,074,,216,23,063,*6E

$BDGSV,3,3,11,221,10,032,,227,19,284,,228,72,293,*6D

$GPGGA,,,,,,0,,,,,,,,*66

$GNGNS,,,,,,NN,,,,,,*53

$GPVTG,,T,,M,,N,,K,N*2C

$GPRMC,,V,,,,,,,,,,N*53

$GPGSA,A,1,,,,,,,,,,,,,,,*1E

$GNGSA,A,1,,,,,,,,,,,,,,,*00

$BDGSA,A,1,,,,,,,,,,,,,,,*0F

$GPGSV,4,1,13,07,10,296,20,08,39,295,22,10,55,137,35,16,42,195,35*73

$GPGSV,4,2,13,20,54,084,29,27,79,292,22,11,01,268,,13,03,012,*74

$GPGSV,4,3,13,15,12,043,,18,13,250,,21,32,070,,26,17,180,*7E

$GPGSV,4,4,13,30,07,326,*48

$GLGSV,3,1,09,70,43,106,25,86,50,299,25,77,24,327,19,76,35,262,26*6D

$GLGSV,3,2,09,75,11,216,19,71,14,156,25,69,27,033,,84,06,087,*6B

$GLGSV,3,3,09,85,56,061,*55

$BDGSV,3,1,11,202,01,101,,205,15,122,,206,21,057,,209,20,085,*68

$BDGSV,3,2,11,211,22,099,,213,03,071,,214,41,074,,216,23,063,*6E

$BDGSV,3,3,11,221,10,032,,227,19,284,,228,72,293,*6D

$GPGGA,,,,,,0,,,,,,,,*66

$GNGNS,,,,,,NN,,,,,,*53

$GPVTG,,T,,M,,N,,K,N*2C

$GPRMC,,V,,,,,,,,,,N*53

$GPGSA,A,1,,,,,,,,,,,,,,,*1E

$GNGSA,A,1,,,,,,,,,,,,,,,*00

$BDGSA,A,1,,,,,,,,,,,,,,,*0F

$GPGSV,4,1,13,07,10,296,19,08,39,295,18,10,55,137,37,16,42,195,36*71

$GPGSV,4,2,13,20,54,084,29,27,79,292,28,11,01,268,,13,03,012,*7E

$GPGSV,4,3,13,15,12,043,,18,13,250,,21,32,070,,26,17,180,*7E

$GPGSV,4,4,13,30,07,326,*48

$GLGSV,3,1,09,70,43,106,29,86,50,299,25,77,24,327,18,76,35,262,25*63

$GLGSV,3,2,09,75,11,216,19,69,27,033,18,85,56,061,22,71,14,156,24*6F

$GLGSV,3,3,09,84,06,087,*59

$BDGSV,3,1,11,202,01,101,,205,15,122,,206,21,057,,209,20,085,*68

$BDGSV,3,2,11,211,22,099,,213,03,071,,214,41,074,,216,23,063,*6E

$BDGSV,3,3,11,221,10,032,,227,19,284,,228,72,293,*6D

$GPGGA,140227.2,5133.486739,N,00957.692851,E,1,06,0.8,271.7,M,47.0,M,,*5B

$GNGNS,140227.2,5133.486739,N,00957.692851,E,AA,14,0.8,271.7,47.0,,*6C

$GPVTG,19.9,T,19.9,M,0.0,N,0.0,K,A*23

$GPGSA,A,3,07,08,10,16,20,27,,,,,,,1.5,0.8,1.3*32

$GNGSA,A,3,07,08,10,16,20,27,,,,,,,1.5,0.8,1.3*2C

$GNGSA,A,3,70,86,77,76,75,69,85,71,,,,,1.5,0.8,1.3*2C

$BDGSA,A,3,,,,,,,,,,,,,1.5,0.8,1.3*2D

$GPRMC,140227.2,A,5133.486739,N,00957.692851,E,0.0,19.9,260619,0.0,E,A*37

$GPGSV,4,1,13,07,10,296,19,08,39,295,18,10,55,137,37,16,42,195,36*71

$GPGSV,4,2,13,20,54,084,29,27,79,292,28,11,01,268,,13,03,012,*7E

$GPGSV,4,3,13,15,12,043,,18,13,250,,21,32,070,,26,17,180,*7E

$GPGSV,4,4,13,30,07,326,*48

$GLGSV,3,1,09,70,43,106,29,86,50,299,25,77,24,327,18,76,35,262,25*63

$GLGSV,3,2,09,75,11,216,19,69,27,033,18,85,56,061,22,71,14,156,24*6F

$GLGSV,3,3,09,84,06,087,*59

$BDGSV,3,1,11,202,01,101,,205,15,122,,206,21,057,,209,20,085,*68

$BDGSV,3,2,11,211,22,099,,213,03,071,,214,41,074,,216,23,063,*6E

$BDGSV,3,3,11,221,10,032,,227,19,284,,228,72,293,*6D

$GPGGA,,,,,,0,,,,,,,,*66

$GNGNS,,,,,,NN,,,,,,*53

$GPVTG,,T,,M,,N,,K,N*2C

$GPRMC,,V,,,,,,,,,,N*53

$GPGSA,A,1,,,,,,,,,,,,,,,*1E

$GNGSA,A,1,,,,,,,,,,,,,,,*00

$BDGSA,A,1,,,,,,,,,,,,,,,*0F

$GPGSV,4,1,13,10,55,136,35,16,42,195,34,07,10,296,,08,39,295,*71

$GPGSV,4,2,13,11,01,268,,13,03,012,,15,12,043,,18,13,251,*7F

$GPGSV,4,3,13,20,54,084,,21,32,070,,26,17,180,,27,79,292,*7F

$GPGSV,4,4,13,30,07,326,*48

$GLGSV,3,1,09,70,43,106,27,85,56,061,28,86,50,299,,77,24,327,*66

$GLGSV,3,2,09,76,35,262,,75,11,216,,69,27,033,,84,05,087,*67

$GLGSV,3,3,09,71,14,156,*5D

$BDGSV,3,1,11,202,01,101,,205,15,122,,206,21,057,,209,20,085,*68

$BDGSV,3,2,11,211,22,099,,213,03,071,,214,41,074,,216,23,063,*6E

$BDGSV,3,3,11,221,10,032,,227,19,284,,228,72,293,*6D

$GPGGA,,,,,,0,,,,,,,,*66

$GNGNS,,,,,,NN,,,,,,*53

$GPVTG,,T,,M,,N,,K,N*2C

$GPRMC,,V,,,,,,,,,,N*53

$GPGSA,A,1,,,,,,,,,,,,,,,*1E

$GNGSA,A,1,,,,,,,,,,,,,,,*00

$BDGSA,A,1,,,,,,,,,,,,,,,*0F

$GPGSV,4,1,13,10,55,136,35,16,42,195,34,20,54,084,26,27,79,292,27*7A

$GPGSV,4,2,13,07,10,296,,08,39,295,,11,01,268,,13,03,012,*75

$GPGSV,4,3,13,15,12,043,,18,13,251,,21,32,070,,26,17,180,*7F

$GPGSV,4,4,13,30,07,326,*48

$GLGSV,3,1,09,70,43,106,28,86,50,299,25,69,27,033,21,85,56,061,27*68

$GLGSV,3,2,09,77,24,327,,76,35,262,,75,11,216,,84,05,087,*6D

$GLGSV,3,3,09,71,14,156,*5D

$BDGSV,3,1,11,202,01,101,,205,15,122,,206,21,057,,209,20,085,*68

$BDGSV,3,2,11,211,22,099,,213,03,071,,214,41,074,,216,23,063,*6E

$BDGSV,3,3,11,221,10,032,,227,19,284,,228,72,293,*6D

$GPGGA,,,,,,0,,,,,,,,*66

$GNGNS,,,,,,NN,,,,,,*53

$GPVTG,,T,,M,,N,,K,N*2C

$GPRMC,,V,,,,,,,,,,N*53

$GPGSA,A,1,,,,,,,,,,,,,,,*1E

$GNGSA,A,1,,,,,,,,,,,,,,,*00

$BDGSA,A,1,,,,,,,,,,,,,,,*0F

$GPGSV,4,1,13,10,55,136,35,16,42,195,34,20,54,084,26,27,79,292,27*7A

$GPGSV,4,2,13,07,10,296,,08,39,295,,11,01,268,,13,03,012,*75

$GPGSV,4,3,13,15,12,043,,18,13,251,,21,32,070,,26,17,180,*7F

$GPGSV,4,4,13,30,07,326,*48

$GLGSV,3,1,09,70,43,106,28,86,50,299,25,69,27,033,21,85,56,061,27*68

$GLGSV,3,2,09,77,24,327,,76,35,262,,75,11,216,,84,05,087,*6D

$GLGSV,3,3,09,71,14,156,*5D

$BDGSV,3,1,11,202,01,101,,205,15,122,,206,21,057,,209,20,085,*68

$BDGSV,3,2,11,211,22,099,,213,03,071,,214,41,074,,216,23,063,*6E

$BDGSV,3,3,11,221,10,032,,227,19,284,,228,72,293,*6D

$GPGGA,,,,,,0,,,,,,,,*66

$GNGNS,,,,,,NN,,,,,,*53

$GPVTG,,T,,M,,N,,K,N*2C

$GPRMC,,V,,,,,,,,,,N*53

$GPGSA,A,1,,,,,,,,,,,,,,,*1E

$GNGSA,A,1,,,,,,,,,,,,,,,*00

$BDGSA,A,1,,,,,,,,,,,,,,,*0F

$GPGSV,4,1,13,07,10,296,22,10,55,136,35,16,42,195,35,20,54,084,25*74

$GPGSV,4,2,13,27,79,292,29,08,39,295,,11,01,268,,13,03,012,*77

$GPGSV,4,3,13,15,12,043,,18,13,251,,21,32,070,,26,17,180,*7F

$GPGSV,4,4,13,30,07,326,*48

$GLGSV,3,1,09,70,43,106,27,86,50,299,28,76,35,262,24,69,27,033,21*61

$GLGSV,3,2,09,85,56,061,28,71,14,156,20,77,24,327,,75,11,216,*6A

$GLGSV,3,3,09,84,05,087,*5A

$BDGSV,3,1,11,202,01,101,,205,15,122,,206,21,057,,209,20,085,*68

$BDGSV,3,2,11,211,22,099,,213,03,071,,214,41,074,,216,23,063,*6E

$BDGSV,3,3,11,221,10,032,,227,19,284,,228,72,293,*6D

$GPGGA,140232.2,5133.492901,N,00957.688868,E,1,05,0.9,227.8,M,47.0,M,,*50

$GNGNS,140232.2,5133.492901,N,00957.688868,E,AA,11,0.9,227.8,47.0,,*61

$GPVTG,56.2,T,56.2,M,0.0,N,0.0,K,A*23

$GPGSA,A,3,07,10,16,20,27,,,,,,,,1.6,0.9,1.4*3F

$GNGSA,A,3,07,10,16,20,27,,,,,,,,1.6,0.9,1.4*21

$GNGSA,A,3,70,86,76,69,85,71,,,,,,,1.6,0.9,1.4*2B

$BDGSA,A,3,,,,,,,,,,,,,1.6,0.9,1.4*28

$GPRMC,140232.2,A,5133.492901,N,00957.688868,E,0.0,56.2,260619,0.0,E,A*32

$GPGSV,4,1,13,07,10,296,22,10,55,136,35,16,42,195,35,20,54,084,25*74

$GPGSV,4,2,13,27,79,292,29,08,39,295,,11,01,268,,13,03,012,*77

$GPGSV,4,3,13,15,12,043,,18,13,251,,21,32,070,,26,17,180,*7F

$GPGSV,4,4,13,30,07,326,*48

$GLGSV,3,1,09,70,43,106,27,86,50,299,28,76,35,262,24,69,27,033,21*61

$GLGSV,3,2,09,85,56,061,28,71,14,156,20,77,24,327,,75,11,216,*6A

$GLGSV,3,3,09,84,05,087,*5A

$BDGSV,3,1,11,202,01,101,,205,15,122,,206,21,057,,209,20,085,*68

$BDGSV,3,2,11,211,22,099,,213,03,071,,214,41,074,,216,23,063,*6E

$BDGSV,3,3,11,221,10,032,,227,19,284,,228,72,293,*6D

$GPGGA,,,,,,0,,,,,,,,*66

$GNGNS,,,,,,NN,,,,,,*53

$GPVTG,,T,,M,,N,,K,N*2C

$GPRMC,,V,,,,,,,,,,N*53

$GPGSA,A,1,,,,,,,,,,,,,,,*1E

$GNGSA,A,1,,,,,,,,,,,,,,,*00

$BDGSA,A,1,,,,,,,,,,,,,,,*0F

$GPGSV,4,1,13,10,55,136,34,16,42,195,32,07,10,296,,08,39,295,*76

$GPGSV,4,2,13,11,01,268,,13,03,012,,15,12,043,,18,13,251,*7F

$GPGSV,4,3,13,20,54,084,,21,32,070,,26,17,180,,27,79,292,*7F

$GPGSV,4,4,13,30,07,326,*48

$GLGSV,3,1,09,85,56,061,24,70,43,106,,86,50,299,,77,24,327,*6F

$GLGSV,3,2,09,76,35,262,,75,11,216,,69,27,033,,84,05,087,*67

$GLGSV,3,3,09,71,14,156,*5D

$BDGSV,3,1,11,202,01,101,,205,15,122,,206,21,057,,209,20,085,*68

$BDGSV,3,2,11,211,22,099,,213,03,071,,214,41,074,,216,23,063,*6E

$BDGSV,3,3,11,221,10,032,,227,19,284,,228,72,293,*6D

$GPGGA,,,,,,0,,,,,,,,*66

$GNGNS,,,,,,NN,,,,,,*53

$GPVTG,,T,,M,,N,,K,N*2C

$GPRMC,,V,,,,,,,,,,N*53

$GPGSA,A,1,,,,,,,,,,,,,,,*1E

$GNGSA,A,1,,,,,,,,,,,,,,,*00

$BDGSA,A,1,,,,,,,,,,,,,,,*0F

$GPGSV,3,1,12,07,10,296,22,08,39,295,25,10,55,136,40,16,42,195,39*7F

$GPGSV,3,2,12,20,54,084,29,11,01,268,,13,03,012,,15,12,043,*70

$GPGSV,3,3,12,18,13,251,,21,32,070,,26,17,180,,30,07,326,*7A

$GLGSV,3,1,09,70,43,106,28,86,50,299,29,76,35,262,25,69,27,033,22*6D

$GLGSV,3,2,09,85,56,061,27,77,24,327,,75,11,216,,84,05,087,*60

$GLGSV,3,3,09,71,14,156,*5D

$BDGSV,3,1,11,202,01,101,,205,15,122,,206,21,057,,209,20,085,*68

$BDGSV,3,2,11,211,22,099,,213,03,071,,214,41,074,,216,23,063,*6E

$BDGSV,3,3,11,221,10,032,,227,19,284,,228,72,293,*6D

$GPGGA,,,,,,0,,,,,,,,*66

$GNGNS,,,,,,NN,,,,,,*53

$GPVTG,,T,,M,,N,,K,N*2C

$GPRMC,,V,,,,,,,,,,N*53

$GPGSA,A,1,,,,,,,,,,,,,,,*1E

$GNGSA,A,1,,,,,,,,,,,,,,,*00

$BDGSA,A,1,,,,,,,,,,,,,,,*0F

$GPGSV,3,1,12,07,10,296,22,08,39,295,25,10,55,136,40,16,42,195,39*7F

$GPGSV,3,2,12,20,54,084,29,11,01,268,,13,03,012,,15,12,043,*70

$GPGSV,3,3,12,18,13,251,,21,32,070,,26,17,180,,30,07,326,*7A

$GLGSV,3,1,09,70,43,106,28,86,50,299,29,76,35,262,25,69,27,033,22*6D

$GLGSV,3,2,09,85,56,061,27,77,24,327,,75,11,216,,84,05,087,*60

$GLGSV,3,3,09,71,14,156,*5D

$BDGSV,3,1,11,202,01,101,,205,15,122,,206,21,057,,209,20,085,*68

$BDGSV,3,2,11,211,22,099,,213,03,071,,214,41,074,,216,23,063,*6E

$BDGSV,3,3,11,221,10,032,,227,19,284,,228,72,293,*6D

$GPGGA,,,,,,0,,,,,,,,*66

$GNGNS,,,,,,NN,,,,,,*53

$GPVTG,,T,,M,,N,,K,N*2C

$GPRMC,,V,,,,,,,,,,N*53

$GPGSA,A,1,,,,,,,,,,,,,,,*1E

$GNGSA,A,1,,,,,,,,,,,,,,,*00

$BDGSA,A,1,,,,,,,,,,,,,,,*0F

$GPGSV,4,1,13,07,10,296,21,08,39,295,25,10,55,136,39,16,42,195,37*7A

$GPGSV,4,2,13,20,54,084,30,21,32,070,24,26,17,180,19,27,79,292,24*75

$GPGSV,4,3,13,11,01,268,,13,03,012,,15,12,043,,18,13,251,*7E

$GPGSV,4,4,13,30,07,326,*48

$GLGSV,3,1,09,70,43,106,28,86,50,299,33,76,35,262,25,69,27,033,22*66

$GLGSV,3,2,09,85,56,061,27,71,14,156,25,77,24,327,,75,11,216,*60

$GLGSV,3,3,09,84,05,087,*5A

$BDGSV,3,1,11,202,01,101,,205,15,122,,206,21,057,,209,20,085,*68

$BDGSV,3,2,11,211,22,099,,213,03,071,,214,41,074,,216,23,063,*6E

$BDGSV,3,3,11,221,10,032,,227,19,284,,228,72,293,*6D

$GPGGA,140237.2,5133.489850,N,00957.692126,E,1,08,0.8,238.8,M,47.0,M,,*50

$GNGNS,140237.2,5133.489850,N,00957.692126,E,AA,14,0.8,238.8,47.0,,*69

$GPVTG,325.8,T,325.8,M,0.0,N,0.0,K,A*23

$GPGSA,A,3,07,08,10,16,20,21,26,27,,,,,1.4,0.8,1.2*35

$GNGSA,A,3,07,08,10,16,20,21,26,27,,,,,1.4,0.8,1.2*2B

$GNGSA,A,3,70,86,76,69,85,71,,,,,,,1.4,0.8,1.2*2E

$BDGSA,A,3,,,,,,,,,,,,,1.4,0.8,1.2*2D

$GPRMC,140237.2,A,5133.489850,N,00957.692126,E,0.0,325.8,260619,0.0,E,A*0D

$GPGSV,4,1,13,07,10,296,21,08,39,295,25,10,55,136,39,16,42,195,37*7A

$GPGSV,4,2,13,20,54,084,30,21,32,070,24,26,17,180,19,27,79,292,24*75

$GPGSV,4,3,13,11,01,268,,13,03,012,,15,12,043,,18,13,251,*7E

$GPGSV,4,4,13,30,07,326,*48

$GLGSV,3,1,09,70,43,106,28,86,50,299,33,76,35,262,25,69,27,033,22*66

$GLGSV,3,2,09,85,56,061,27,71,14,156,25,77,24,327,,75,11,216,*60

$GLGSV,3,3,09,84,05,087,*5A

$BDGSV,3,1,11,202,01,101,,205,15,122,,206,21,057,,209,20,085,*68

$BDGSV,3,2,11,211,22,099,,213,03,071,,214,41,074,,216,23,063,*6E

$BDGSV,3,3,11,221,10,032,,227,19,284,,228,72,293,*6D

$GPGGA,,,,,,0,,,,,,,,*66

$GNGNS,,,,,,NN,,,,,,*53

$GPVTG,,T,,M,,N,,K,N*2C

$GPRMC,,V,,,,,,,,,,N*53

$GPGSA,A,1,,,,,,,,,,,,,,,*1E

$GNGSA,A,1,,,,,,,,,,,,,,,*00

$BDGSA,A,1,,,,,,,,,,,,,,,*0F

$GPGSV,4,1,13,10,55,136,37,07,10,296,,08,39,295,,11,01,268,*75

$GPGSV,4,2,13,13,03,012,,15,12,043,,16,42,195,,18,13,251,*7E

$GPGSV,4,3,13,20,54,084,,21,32,070,,26,17,180,,27,79,292,*7F

$GPGSV,4,4,13,30,07,326,*48

$GLGSV,3,1,09,86,50,299,32,70,43,106,,77,24,327,,76,35,262,*60

$GLGSV,3,2,09,75,11,216,,69,27,033,,84,05,087,,85,56,061,*6F

$GLGSV,3,3,09,71,14,156,*5D

$BDGSV,3,1,11,202,01,101,,205,15,122,,206,21,057,,209,20,085,*68

$BDGSV,3,2,11,211,22,099,,213,03,073,,214,41,074,,216,23,063,*6C

$BDGSV,3,3,11,221,10,032,,227,19,284,,228,73,293,*6C

$GPGGA,,,,,,0,,,,,,,,*66

$GNGNS,,,,,,NN,,,,,,*53

$GPVTG,,T,,M,,N,,K,N*2C

$GPRMC,,V,,,,,,,,,,N*53

$GPGSA,A,1,,,,,,,,,,,,,,,*1E

$GNGSA,A,1,,,,,,,,,,,,,,,*00

$BDGSA,A,1,,,,,,,,,,,,,,,*0F

$GPGSV,4,1,13,08,39,295,24,10,55,136,37,16,42,195,32,18,13,251,22*75

$GPGSV,4,2,13,20,54,084,30,21,32,070,21,27,79,292,28,07,10,296,*74

$GPGSV,4,3,13,11,01,268,,13,03,012,,15,12,043,,26,17,180,*78

$GPGSV,4,4,13,30,07,326,*48

$GLGSV,3,1,09,70,43,106,30,86,50,299,34,76,35,262,28,69,27,033,31*67

$GLGSV,3,2,09,85,56,061,29,71,14,156,25,77,24,327,,75,11,216,*6E

$GLGSV,3,3,09,84,05,087,*5A

$BDGSV,3,1,11,202,01,101,,205,15,122,,206,21,057,,209,20,085,*68

$BDGSV,3,2,11,211,22,099,,213,03,073,,214,41,074,,216,23,063,*6C

$BDGSV,3,3,11,221,10,032,,227,19,284,,228,73,293,*6C

$GPGGA,140240.0,5133.484850,N,00957.694306,E,1,07,0.8,235.4,M,47.0,M,,*57

$GNGNS,140240.0,5133.484850,N,00957.694306,E,AA,13,0.8,235.4,47.0,,*66

$GPVTG,341.2,T,341.2,M,1.9,N,3.5,K,A*2D

$GPGSA,A,3,08,10,16,18,20,21,27,,,,,,1.6,0.8,1.4*3B

$GNGSA,A,3,08,10,16,18,20,21,27,,,,,,1.6,0.8,1.4*25

$GNGSA,A,3,70,86,76,69,85,71,,,,,,,1.6,0.8,1.4*2A

$BDGSA,A,3,,,,,,,,,,,,,1.6,0.8,1.4*29

$GPRMC,140240.0,A,5133.484850,N,00957.694306,E,1.9,341.2,260619,0.0,E,A*04

$GPGSV,4,1,13,08,39,295,24,10,55,136,37,16,42,195,32,18,13,251,22*75

$GPGSV,4,2,13,20,54,084,30,21,32,070,21,27,79,292,28,07,10,296,*74

$GPGSV,4,3,13,11,01,268,,13,03,012,,15,12,043,,26,17,180,*78

$GPGSV,4,4,13,30,07,326,*48

$GLGSV,3,1,09,70,43,106,30,86,50,299,34,76,35,262,28,69,27,033,31*67

$GLGSV,3,2,09,85,56,061,29,71,14,156,25,77,24,327,,75,11,216,*6E

$GLGSV,3,3,09,84,05,087,*5A

$BDGSV,3,1,11,202,01,101,,205,15,122,,206,21,057,,209,20,085,*68

$BDGSV,3,2,11,211,22,099,,213,03,073,,214,41,074,,216,23,063,*6C

$BDGSV,3,3,11,221,10,032,,227,19,284,,228,73,293,*6C

$GPGGA,,,,,,0,,,,,,,,*66

$GNGNS,,,,,,NN,,,,,,*53

$GPVTG,,T,,M,,N,,K,N*2C

$GPRMC,,V,,,,,,,,,,N*53

$GPGSA,A,1,,,,,,,,,,,,,,,*1E

$GNGSA,A,1,,,,,,,,,,,,,,,*00

$BDGSA,A,1,,,,,,,,,,,,,,,*0F

$GPGSV,4,1,13,10,55,136,37,07,10,296,,08,39,295,,11,01,268,*75

$GPGSV,4,2,13,13,03,012,,15,12,043,,16,42,195,,18,13,251,*7E

$GPGSV,4,3,13,20,54,084,,21,32,070,,26,17,180,,27,79,292,*7F

$GPGSV,4,4,13,30,07,326,*48

$GLGSV,3,1,09,70,43,106,31,86,50,299,34,69,27,033,30,77,24,327,*6C

$GLGSV,3,2,09,76,35,262,,75,11,216,,84,05,087,,85,56,061,*64

$GLGSV,3,3,09,71,14,156,*5D

$BDGSV,3,1,11,202,01,101,,205,15,122,,206,21,057,,209,20,085,*68

$BDGSV,3,2,11,211,22,099,,213,03,073,,214,41,074,,216,23,063,*6C

$BDGSV,3,3,11,221,10,032,,227,19,284,,228,73,293,*6C

$GPGGA,,,,,,0,,,,,,,,*66

$GNGNS,,,,,,NN,,,,,,*53

$GPVTG,,T,,M,,N,,K,N*2C

$GPRMC,,V,,,,,,,,,,N*53

$GPGSA,A,1,,,,,,,,,,,,,,,*1E

$GNGSA,A,1,,,,,,,,,,,,,,,*00

$BDGSA,A,1,,,,,,,,,,,,,,,*0F

$GPGSV,4,1,13,10,55,136,37,07,10,296,,08,39,295,,11,01,268,*75

$GPGSV,4,2,13,13,03,012,,15,12,043,,16,42,195,,18,13,251,*7E

$GPGSV,4,3,13,20,54,084,,21,32,070,,26,17,180,,27,79,292,*7F

$GPGSV,4,4,13,30,07,326,*48

$GLGSV,3,1,09,70,43,106,31,86,50,299,34,69,27,033,30,77,24,327,*6C

$GLGSV,3,2,09,76,35,262,,75,11,216,,84,05,087,,85,56,061,*64

$GLGSV,3,3,09,71,14,156,*5D

$BDGSV,3,1,11,202,01,101,,205,15,122,,206,21,057,,209,20,085,*68

$BDGSV,3,2,11,211,22,099,,213,03,073,,214,41,074,,216,23,063,*6C

$BDGSV,3,3,11,221,10,032,,227,19,284,,228,73,293,*6C

$GPGGA,,,,,,0,,,,,,,,*66

$GNGNS,,,,,,NN,,,,,,*53

$GPVTG,,T,,M,,N,,K,N*2C

$GPRMC,,V,,,,,,,,,,N*53

$GPGSA,A,1,,,,,,,,,,,,,,,*1E

$GNGSA,A,1,,,,,,,,,,,,,,,*00

$BDGSA,A,1,,,,,,,,,,,,,,,*0F

$GPGSV,4,1,13,08,39,295,25,10,55,136,38,16,42,195,31,20,54,084,30*79

$GPGSV,4,2,13,27,79,292,33,07,10,296,,11,01,268,,13,03,012,*7B

$GPGSV,4,3,13,15,12,043,,18,13,251,,21,32,070,,26,17,180,*7F

$GPGSV,4,4,13,30,07,326,*48

$GLGSV,3,1,09,70,43,106,32,86,50,299,34,76,35,262,21,69,27,033,27*6B

$GLGSV,3,2,09,85,56,061,29,71,14,156,28,77,24,327,,75,11,216,*63

$GLGSV,3,3,09,84,05,087,*5A

$BDGSV,3,1,11,202,01,101,,205,15,122,,206,21,057,,209,20,085,*68

$BDGSV,3,2,11,211,22,099,,213,03,073,,214,41,074,,216,23,063,*6C

$BDGSV,3,3,11,221,10,032,,227,19,284,,228,73,293,*6C

$GPGGA,140244.2,5133.489539,N,00957.694437,E,1,05,0.9,226.8,M,47.0,M,,*56

$GNGNS,140244.2,5133.489539,N,00957.694437,E,AA,11,0.9,226.8,47.0,,*67

$GPVTG,17.4,T,17.4,M,2.2,N,4.0,K,A*27

$GPGSA,A,3,08,10,16,20,27,,,,,,,,2.2,0.9,2.0*30

$GNGSA,A,3,08,10,16,20,27,,,,,,,,2.2,0.9,2.0*2E

$GNGSA,A,3,70,86,76,69,85,71,,,,,,,2.2,0.9,2.0*2B

$BDGSA,A,3,,,,,,,,,,,,,2.2,0.9,2.0*28

$GPRMC,140244.2,A,5133.489539,N,00957.694437,E,2.2,17.4,260619,0.0,E,A*36

$GPGSV,4,1,13,08,39,295,25,10,55,136,38,16,42,195,31,20,54,084,30*79

$GPGSV,4,2,13,27,79,292,33,07,10,296,,11,01,268,,13,03,012,*7B

$GPGSV,4,3,13,15,12,043,,18,13,251,,21,32,070,,26,17,180,*7F

$GPGSV,4,4,13,30,07,326,*48

$GLGSV,3,1,09,70,43,106,32,86,50,299,34,76,35,262,21,69,27,033,27*6B

$GLGSV,3,2,09,85,56,061,29,71,14,156,28,77,24,327,,75,11,216,*63

$GLGSV,3,3,09,84,05,087,*5A

$BDGSV,3,1,11,202,01,101,,205,15,122,,206,21,057,,209,20,085,*68

$BDGSV,3,2,11,211,22,099,,213,03,073,,214,41,074,,216,23,063,*6C

$BDGSV,3,3,11,221,10,032,,227,19,284,,228,73,293,*6C

$GPGGA,,,,,,0,,,,,,,,*66

$GNGNS,,,,,,NN,,,,,,*53

$GPVTG,,T,,M,,N,,K,N*2C

$GPRMC,,V,,,,,,,,,,N*53

$GPGSA,A,1,,,,,,,,,,,,,,,*1E

$GNGSA,A,1,,,,,,,,,,,,,,,*00

$BDGSA,A,1,,,,,,,,,,,,,,,*0F

$GPGSV,4,1,13,10,55,136,38,20,54,084,34,07,10,296,,08,39,295,*7F

$GPGSV,4,2,13,11,01,268,,13,03,012,,15,12,043,,16,42,195,*7E

$GPGSV,4,3,13,18,13,251,,21,32,070,,26,16,180,,27,80,292,*7A

$GPGSV,4,4,13,30,07,326,*48

$GLGSV,3,1,09,70,43,106,33,86,50,299,33,85,56,061,35,77,24,327,*6F

$GLGSV,3,2,09,76,35,262,,75,11,216,,69,27,033,,84,05,087,*67

$GLGSV,3,3,09,71,14,156,*5D

$BDGSV,3,1,11,202,01,101,,205,15,122,,206,21,057,,209,20,085,*68

$BDGSV,3,2,11,211,22,099,,213,03,073,,214,41,074,,216,23,063,*6C

$BDGSV,3,3,11,221,10,032,,227,19,284,,228,73,293,*6C

$GPGGA,,,,,,0,,,,,,,,*66

$GNGNS,,,,,,NN,,,,,,*53

$GPVTG,,T,,M,,N,,K,N*2C

$GPRMC,,V,,,,,,,,,,N*53

$GPGSA,A,1,,,,,,,,,,,,,,,*1E

$GNGSA,A,1,,,,,,,,,,,,,,,*00

$BDGSA,A,1,,,,,,,,,,,,,,,*0F

$GPGSV,4,1,13,10,55,136,38,20,54,084,34,07,10,296,,08,39,295,*7F

$GPGSV,4,2,13,11,01,268,,13,03,012,,15,12,043,,16,42,195,*7E

$GPGSV,4,3,13,18,13,251,,21,32,070,,26,16,180,,27,80,292,*7A

$GPGSV,4,4,13,30,07,326,*48

$GLGSV,3,1,09,70,43,106,33,86,50,299,33,85,56,061,35,77,24,327,*6F

$GLGSV,3,2,09,76,35,262,,75,11,216,,69,27,033,,84,05,087,*67

$GLGSV,3,3,09,71,14,156,*5D

$BDGSV,3,1,11,202,01,101,,205,15,122,,206,21,057,,209,20,085,*68

$BDGSV,3,2,11,211,22,099,,213,03,073,,214,41,074,,216,23,063,*6C

$BDGSV,3,3,11,221,10,032,,227,19,284,,228,73,293,*6C

$GPGGA,,,,,,0,,,,,,,,*66

$GNGNS,,,,,,NN,,,,,,*53

$GPVTG,,T,,M,,N,,K,N*2C

$GPRMC,,V,,,,,,,,,,N*53

$GPGSA,A,1,,,,,,,,,,,,,,,*1E

$GNGSA,A,1,,,,,,,,,,,,,,,*00

$BDGSA,A,1,,,,,,,,,,,,,,,*0F

$GPGSV,3,1,12,07,10,296,28,08,39,295,26,10,55,136,38,16,42,195,31*71

$GPGSV,3,2,12,18,13,251,22,20,54,084,35,27,80,292,36,11,01,268,*73

$GPGSV,3,3,12,13,03,012,,15,12,043,,26,16,180,,30,07,326,*71

$GLGSV,3,1,09,70,43,106,32,86,50,299,32,76,35,262,25,75,11,216,21*62

$GLGSV,3,2,09,85,56,061,34,71,14,156,32,77,24,327,,69,27,033,*69

$GLGSV,3,3,09,84,05,087,*5A

$BDGSV,3,1,11,202,01,101,,205,15,122,,206,21,057,,209,20,085,*68

$BDGSV,3,2,11,211,22,099,,213,03,073,,214,41,074,,216,23,063,*6C

$BDGSV,3,3,11,221,10,032,,227,19,284,,228,73,293,*6C

$GPGGA,140248.2,5133.490460,N,00957.693154,E,1,07,1.0,217.2,M,47.0,M,,*5A

$GNGNS,140248.2,5133.490460,N,00957.693154,E,AA,13,1.0,217.2,47.0,,*6B

$GPVTG,17.4,T,17.4,M,0.0,N,0.0,K,A*23

$GPGSA,A,3,07,08,10,16,18,20,27,,,,,,1.8,1.0,1.5*39

$GNGSA,A,3,07,08,10,16,18,20,27,,,,,,1.8,1.0,1.5*27

$GNGSA,A,3,70,86,76,75,85,71,,,,,,,1.8,1.0,1.5*21

$BDGSA,A,3,,,,,,,,,,,,,1.8,1.0,1.5*2F

$GPRMC,140248.2,A,5133.490460,N,00957.693154,E,0.0,17.4,260619,0.0,E,A*38

$GPGSV,3,1,12,07,10,296,28,08,39,295,26,10,55,136,38,16,42,195,31*71

$GPGSV,3,2,12,18,13,251,22,20,54,084,35,27,80,292,36,11,01,268,*73

$GPGSV,3,3,12,13,03,012,,15,12,043,,26,16,180,,30,07,326,*71

$GLGSV,3,1,09,70,43,106,32,86,50,299,32,76,35,262,25,75,11,216,21*62

$GLGSV,3,2,09,85,56,061,34,71,14,156,32,77,24,327,,69,27,033,*69

$GLGSV,3,3,09,84,05,087,*5A

$BDGSV,3,1,11,202,01,101,,205,15,122,,206,21,057,,209,20,085,*68

$BDGSV,3,2,11,211,22,099,,213,03,073,,214,41,074,,216,23,063,*6C

$BDGSV,3,3,11,221,10,032,,227,19,284,,228,73,293,*6C

$GPGGA,,,,,,0,,,,,,,,*66

$GNGNS,,,,,,NN,,,,,,*53

$GPVTG,,T,,M,,N,,K,N*2C

$GPRMC,,V,,,,,,,,,,N*53

$GPGSA,A,1,,,,,,,,,,,,,,,*1E

$GNGSA,A,1,,,,,,,,,,,,,,,*00

$BDGSA,A,1,,,,,,,,,,,,,,,*0F

$GPGSV,4,1,13,10,55,136,39,27,80,292,34,07,10,296,,08,39,295,*75

$GPGSV,4,2,13,11,01,268,,13,03,012,,15,12,043,,16,42,195,*7E

$GPGSV,4,3,13,18,13,251,,20,54,084,,21,32,070,,26,16,180,*71

$GPGSV,4,4,13,30,07,326,*48

$GLGSV,3,1,09,70,43,106,35,86,50,299,33,85,56,061,34,71,14,156,31*6B

$GLGSV,3,2,09,77,24,327,,76,35,262,,75,11,216,,69,27,033,*61

$GLGSV,3,3,09,84,05,087,*5A

$BDGSV,3,1,11,202,01,101,,205,15,122,,206,21,057,,209,20,085,*68

$BDGSV,3,2,11,211,22,099,,213,03,073,,214,41,074,,216,23,063,*6C

$BDGSV,3,3,11,221,10,032,,227,19,284,,228,73,293,*6C

$GPGGA,,,,,,0,,,,,,,,*66

$GNGNS,,,,,,NN,,,,,,*53

$GPVTG,,T,,M,,N,,K,N*2C

$GPRMC,,V,,,,,,,,,,N*53

$GPGSA,A,1,,,,,,,,,,,,,,,*1E

$GNGSA,A,1,,,,,,,,,,,,,,,*00

$BDGSA,A,1,,,,,,,,,,,,,,,*0F

$GPGSV,4,1,13,10,55,136,39,27,80,292,34,07,10,296,,08,39,295,*75

$GPGSV,4,2,13,11,01,268,,13,03,012,,15,12,043,,16,42,195,*7E

$GPGSV,4,3,13,18,13,251,,20,54,084,,21,32,070,,26,16,180,*71

$GPGSV,4,4,13,30,07,326,*48

$GLGSV,3,1,09,70,43,106,35,86,50,299,33,85,56,061,34,71,14,156,31*6B

$GLGSV,3,2,09,77,24,327,,76,35,262,,75,11,216,,69,27,033,*61

$GLGSV,3,3,09,84,05,087,*5A

$BDGSV,3,1,11,202,01,101,,205,15,122,,206,21,057,,209,20,085,*68

$BDGSV,3,2,11,211,22,099,,213,03,073,,214,41,074,,216,23,063,*6C

$BDGSV,3,3,11,221,10,032,,227,19,284,,228,73,293,*6C

$GPGGA,,,,,,0,,,,,,,,*66

$GNGNS,,,,,,NN,,,,,,*53

$GPVTG,,T,,M,,N,,K,N*2C

$GPRMC,,V,,,,,,,,,,N*53

$GPGSA,A,1,,,,,,,,,,,,,,,*1E

$GNGSA,A,1,,,,,,,,,,,,,,,*00

$BDGSA,A,1,,,,,,,,,,,,,,,*0F

$GPGSV,4,1,13,08,39,295,30,10,55,136,38,16,42,195,30,18,13,251,21*7E

$GPGSV,4,2,13,20,54,084,34,27,80,292,31,07,10,296,,11,01,268,*75

$GPGSV,4,3,13,13,03,012,,15,12,043,,21,32,070,,26,16,180,*71

$GPGSV,4,4,13,30,07,326,*48

$GLGSV,3,1,09,70,43,106,35,86,50,299,33,77,24,327,21,76,35,262,22*64

$GLGSV,3,2,09,75,11,216,21,85,56,061,33,71,14,156,34,69,27,033,*6C

$GLGSV,3,3,09,84,05,087,*5A

$BDGSV,3,1,11,202,01,101,,205,15,122,,206,21,057,,209,20,085,*68

$BDGSV,3,2,11,211,22,099,,213,03,073,,214,41,074,,216,23,063,*6C

$BDGSV,3,3,11,221,10,032,,227,19,284,,228,73,293,*6C

$GPGGA,140252.2,5133.483319,N,00957.684172,E,1,06,1.0,214.3,M,47.0,M,,*5B

$GNGNS,140252.2,5133.483319,N,00957.684172,E,AA,13,1.0,214.3,47.0,,*6B

$GPVTG,8.3,T,8.3,M,3.2,N,6.0,K,A*24

$GPGSA,A,3,08,10,16,18,20,27,,,,,,,2.0,1.0,1.7*37

$GNGSA,A,3,08,10,16,18,20,27,,,,,,,2.0,1.0,1.7*29

$GNGSA,A,3,70,86,77,76,75,85,71,,,,,,2.0,1.0,1.7*28

$BDGSA,A,3,,,,,,,,,,,,,2.0,1.0,1.7*26

$GPRMC,140252.2,A,5133.483319,N,00957.684172,E,3.2,8.3,260619,0.0,E,A*02

$GPGSV,4,1,13,08,39,295,30,10,55,136,38,16,42,195,30,18,13,251,21*7E

$GPGSV,4,2,13,20,54,084,34,27,80,292,31,07,10,296,,11,01,268,*75

$GPGSV,4,3,13,13,03,012,,15,12,043,,21,32,070,,26,16,180,*71

$GPGSV,4,4,13,30,07,326,*48

$GLGSV,3,1,09,70,43,106,35,86,50,299,33,77,24,327,21,76,35,262,22*64

$GLGSV,3,2,09,75,11,216,21,85,56,061,33,71,14,156,34,69,27,033,*6C

$GLGSV,3,3,09,84,05,087,*5A

$BDGSV,3,1,11,202,01,101,,205,15,122,,206,21,057,,209,20,085,*68

$BDGSV,3,2,11,211,22,099,,213,03,073,,214,41,074,,216,23,063,*6C

$BDGSV,3,3,11,221,10,032,,227,19,284,,228,73,293,*6C

$GPGGA,,,,,,0,,,,,,,,*66

$GNGNS,,,,,,NN,,,,,,*53

$GPVTG,,T,,M,,N,,K,N*2C

$GPRMC,,V,,,,,,,,,,N*53

$GPGSA,A,1,,,,,,,,,,,,,,,*1E

$GNGSA,A,1,,,,,,,,,,,,,,,*00

$BDGSA,A,1,,,,,,,,,,,,,,,*0F

$GPGSV,4,1,13,10,55,136,35,20,54,084,36,07,10,296,,08,39,295,*70

$GPGSV,4,2,13,11,01,268,,13,03,012,,15,12,043,,16,42,195,*7E

$GPGSV,4,3,13,18,13,251,,21,32,070,,26,16,180,,27,80,292,*7A

$GPGSV,4,4,13,30,07,326,*48

$GLGSV,3,1,09,85,56,061,32,70,43,106,,86,50,299,,77,24,327,*68

$GLGSV,3,2,09,76,35,262,,75,11,216,,69,27,033,,84,05,087,*67

$GLGSV,3,3,09,71,14,156,*5D

$BDGSV,3,1,11,202,01,101,,205,15,122,,206,21,057,,209,20,085,*68

$BDGSV,3,2,11,211,22,099,,213,03,073,,214,41,074,,216,23,063,*6C

$BDGSV,3,3,11,221,10,032,,227,19,284,,228,73,293,*6C

$GPGGA,,,,,,0,,,,,,,,*66

$GNGNS,,,,,,NN,,,,,,*53

$GPVTG,,T,,M,,N,,K,N*2C

$GPRMC,,V,,,,,,,,,,N*53

$GPGSA,A,1,,,,,,,,,,,,,,,*1E

$GNGSA,A,1,,,,,,,,,,,,,,,*00

$BDGSA,A,1,,,,,,,,,,,,,,,*0F

$GPGSV,4,1,13,08,39,295,29,10,55,136,33,16,42,195,22,20,54,084,31*7D

$GPGSV,4,2,13,27,80,292,31,07,10,296,,11,01,268,,13,03,012,*7F

$GPGSV,4,3,13,15,12,043,,18,13,251,,21,32,070,,26,16,180,*7E

$GPGSV,4,4,13,30,07,326,*48

$GLGSV,3,1,09,70,43,106,32,86,50,299,22,76,35,262,20,75,11,216,30*66

$GLGSV,3,2,09,85,56,061,31,71,14,156,29,77,24,327,,69,27,033,*66

$GLGSV,3,3,09,84,05,087,*5A

$BDGSV,3,1,11,202,01,101,,205,15,122,,206,21,057,,209,20,085,*68

$BDGSV,3,2,11,211,22,099,,213,03,073,,214,41,074,,216,23,063,*6C

$BDGSV,3,3,11,221,10,032,,227,19,284,,228,73,293,*6C

$GPGGA,,,,,,0,,,,,,,,*66

$GNGNS,,,,,,NN,,,,,,*53

$GPVTG,,T,,M,,N,,K,N*2C

$GPRMC,,V,,,,,,,,,,N*53

$GPGSA,A,1,,,,,,,,,,,,,,,*1E

$GNGSA,A,1,,,,,,,,,,,,,,,*00

$BDGSA,A,1,,,,,,,,,,,,,,,*0F

$GPGSV,4,1,13,08,39,295,29,10,55,136,33,16,42,195,22,20,54,084,31*7D

$GPGSV,4,2,13,27,80,292,31,07,10,296,,11,01,268,,13,03,012,*7F

$GPGSV,4,3,13,15,12,043,,18,13,251,,21,32,070,,26,16,180,*7E

$GPGSV,4,4,13,30,07,326,*48

$GLGSV,3,1,09,70,43,106,32,86,50,299,22,76,35,262,20,75,11,216,30*66

$GLGSV,3,2,09,85,56,061,31,71,14,156,29,77,24,327,,69,27,033,*66

$GLGSV,3,3,09,84,05,087,*5A

$BDGSV,3,1,11,202,01,101,,205,15,122,,206,21,057,,209,20,085,*68

$BDGSV,3,2,11,211,22,099,,213,03,073,,214,41,074,,216,23,063,*6C

$BDGSV,3,3,11,221,10,032,,227,19,284,,228,73,293,*6C

$GPGGA,,,,,,0,,,,,,,,*66

$GNGNS,,,,,,NN,,,,,,*53

$GPVTG,,T,,M,,N,,K,N*2C

$GPRMC,,V,,,,,,,,,,N*53

$GPGSA,A,1,,,,,,,,,,,,,,,*1E

$GNGSA,A,1,,,,,,,,,,,,,,,*00

$BDGSA,A,1,,,,,,,,,,,,,,,*0F

$GPGSV,4,1,13,07,10,296,22,08,39,295,29,10,55,136,33,16,42,195,23*7A

$GPGSV,4,2,13,20,54,084,32,27,80,292,24,11,01,268,,13,03,012,*7E

$GPGSV,4,3,13,15,12,043,,18,13,251,,21,32,070,,26,16,180,*7E

$GPGSV,4,4,13,30,07,326,*48

$GLGSV,3,1,09,70,43,106,33,86,50,299,19,76,35,262,19,75,11,216,28*6C

$GLGSV,3,2,09,69,27,033,29,85,56,061,29,71,14,156,29,77,24,327,*64

$GLGSV,3,3,09,84,05,087,*5A

$BDGSV,3,1,11,202,01,101,,205,15,122,,206,21,057,,209,20,085,*68

$BDGSV,3,2,11,211,22,099,,213,03,073,,214,41,074,,216,23,063,*6C

$BDGSV,3,3,11,221,10,032,,227,19,284,,228,73,293,*6C

$GPGGA,140257.2,5133.489264,N,00957.690472,E,1,06,0.8,230.2,M,47.0,M,,*51

$GNGNS,140257.2,5133.489264,N,00957.690472,E,AA,13,0.8,230.2,47.0,,*61

$GPVTG,8.3,T,8.3,M,0.0,N,0.0,K,A*23

$GPGSA,A,3,07,08,10,16,20,27,,,,,,,1.5,0.8,1.3*32

$GNGSA,A,3,07,08,10,16,20,27,,,,,,,1.5,0.8,1.3*2C

$GNGSA,A,3,70,86,76,75,69,85,71,,,,,,1.5,0.8,1.3*2C

$BDGSA,A,3,,,,,,,,,,,,,1.5,0.8,1.3*2D

$GPRMC,140257.2,A,5133.489264,N,00957.690472,E,0.0,8.3,260619,0.0,E,A*07

$GPGSV,4,1,13,07,10,296,22,08,39,295,29,10,55,136,33,16,42,195,23*7A

$GPGSV,4,2,13,20,54,084,32,27,80,292,24,11,01,268,,13,03,012,*7E

$GPGSV,4,3,13,15,12,043,,18,13,251,,21,32,070,,26,16,180,*7E

$GPGSV,4,4,13,30,07,326,*48

$GLGSV,3,1,09,70,43,106,33,86,50,299,19,76,35,262,19,75,11,216,28*6C

$GLGSV,3,2,09,69,27,033,29,85,56,061,29,71,14,156,29,77,24,327,*64

$GLGSV,3,3,09,84,05,087,*5A

$BDGSV,3,1,11,202,01,101,,205,15,122,,206,21,057,,209,20,085,*68

$BDGSV,3,2,11,211,22,099,,213,03,073,,214,41,074,,216,23,063,*6C

$BDGSV,3,3,11,221,10,032,,227,19,284,,228,73,293,*6C

$GPGGA,,,,,,0,,,,,,,,*66

$GNGNS,,,,,,NN,,,,,,*53

$GPVTG,,T,,M,,N,,K,N*2C

$GPRMC,,V,,,,,,,,,,N*53

$GPGSA,A,1,,,,,,,,,,,,,,,*1E

$GNGSA,A,1,,,,,,,,,,,,,,,*00

$BDGSA,A,1,,,,,,,,,,,,,,,*0F

$GPGSV,4,1,13,10,55,136,33,07,10,296,,08,39,295,,11,01,268,*71

$GPGSV,4,2,13,13,03,012,,15,12,043,,16,41,195,,18,13,251,*7D

$GPGSV,4,3,13,20,54,084,,21,32,070,,26,16,180,,27,80,292,*78

$GPGSV,4,4,13,30,07,326,*48

$GLGSV,3,1,09,70,43,106,,86,50,299,,77,24,327,,76,35,262,*61

$GLGSV,3,2,09,75,11,216,,69,27,033,,84,05,087,,85,56,061,*6F

$GLGSV,3,3,09,71,14,156,*5D

$BDGSV,3,1,11,202,01,101,,205,15,122,,206,21,057,,209,20,085,*68

$BDGSV,3,2,11,211,22,099,,213,03,073,,214,41,074,,216,23,061,*6E

$BDGSV,3,3,11,221,10,032,,227,19,284,,228,73,293,*6C

$GPGGA,,,,,,0,,,,,,,,*66

$GNGNS,,,,,,NN,,,,,,*53

$GPVTG,,T,,M,,N,,K,N*2C

$GPRMC,,V,,,,,,,,,,N*53

$GPGSA,A,1,,,,,,,,,,,,,,,*1E

$GNGSA,A,1,,,,,,,,,,,,,,,*00

$BDGSA,A,1,,,,,,,,,,,,,,,*0F

$GPGSV,4,1,13,10,55,136,36,21,32,070,26,07,10,296,,08,39,295,*78

$GPGSV,4,2,13,11,01,268,,13,03,012,,15,12,043,,16,41,195,*7D

$GPGSV,4,3,13,18,13,251,,20,54,084,,26,16,180,,27,80,292,*70

$GPGSV,4,4,13,30,07,326,*48

$GLGSV,3,1,09,75,11,216,27,85,56,061,26,71,14,156,28,70,43,106,*6D

$GLGSV,3,2,09,86,50,299,,77,24,327,,76,35,262,,69,27,033,*6F

$GLGSV,3,3,09,84,05,087,*5A

$BDGSV,3,1,11,202,01,101,,205,15,122,,206,21,057,,209,20,085,*68

$BDGSV,3,2,11,211,22,099,,213,03,073,,214,41,074,,216,23,061,*6E

$BDGSV,3,3,11,221,10,032,,227,19,284,,228,73,293,*6C

$GPGGA,,,,,,0,,,,,,,,*66

$GNGNS,,,,,,NN,,,,,,*53

$GPVTG,,T,,M,,N,,K,N*2C

$GPRMC,,V,,,,,,,,,,N*53

$GPGSA,A,1,,,,,,,,,,,,,,,*1E

$GNGSA,A,1,,,,,,,,,,,,,,,*00

$BDGSA,A,1,,,,,,,,,,,,,,,*0F

$GPGSV,4,1,13,10,55,136,36,21,32,070,26,07,10,296,,08,39,295,*78

$GPGSV,4,2,13,11,01,268,,13,03,012,,15,12,043,,16,41,195,*7D

$GPGSV,4,3,13,18,13,251,,20,54,084,,26,16,180,,27,80,292,*70

$GPGSV,4,4,13,30,07,326,*48

$GLGSV,3,1,09,75,11,216,27,85,56,061,26,71,14,156,28,70,43,106,*6D

$GLGSV,3,2,09,86,50,299,,77,24,327,,76,35,262,,69,27,033,*6F

$GLGSV,3,3,09,84,05,087,*5A

$BDGSV,3,1,11,202,01,101,,205,15,122,,206,21,057,,209,20,085,*68

$BDGSV,3,2,11,211,22,099,,213,03,073,,214,41,074,,216,23,061,*6E

$BDGSV,3,3,11,221,10,032,,227,19,284,,228,73,293,*6C

$GPGGA,,,,,,0,,,,,,,,*66

$GNGNS,,,,,,NN,,,,,,*53

$GPVTG,,T,,M,,N,,K,N*2C

$GPRMC,,V,,,,,,,,,,N*53

$GPGSA,A,1,,,,,,,,,,,,,,,*1E

$GNGSA,A,1,,,,,,,,,,,,,,,*00

$BDGSA,A,1,,,,,,,,,,,,,,,*0F

$GPGSV,4,1,13,07,10,296,18,08,39,295,28,10,55,136,35,16,41,195,31*74

$GPGSV,4,2,13,20,54,084,30,21,32,070,25,11,01,268,,13,03,012,*7C

$GPGSV,4,3,13,15,12,043,,18,13,251,,26,16,180,,27,80,292,*7F

$GPGSV,4,4,13,30,07,326,*48

$GLGSV,3,1,09,70,43,106,32,86,50,299,21,76,35,262,21,75,11,216,30*64

$GLGSV,3,2,09,69,27,033,26,85,56,061,29,71,14,156,27,77,24,327,*65

$GLGSV,3,3,09,84,05,087,*5A

$BDGSV,3,1,11,202,01,101,,205,15,122,,206,21,057,,209,20,085,*68

$BDGSV,3,2,11,211,22,099,,213,03,073,,214,41,074,,216,23,061,*6E

$BDGSV,3,3,11,221,10,032,,227,19,284,,228,73,293,*6C

$GPGGA,140302.2,5133.484090,N,00957.695562,E,1,06,0.8,216.0,M,47.0,M,,*57

$GNGNS,140302.2,5133.484090,N,00957.695562,E,AA,13,0.8,216.0,47.0,,*67

$GPVTG,8.3,T,8.3,M,0.0,N,0.0,K,A*23

$GPGSA,A,3,07,08,10,16,20,21,,,,,,,1.6,0.8,1.4*30

$GNGSA,A,3,07,08,10,16,20,21,,,,,,,1.6,0.8,1.4*2E

$GNGSA,A,3,70,86,76,75,69,85,71,,,,,,1.6,0.8,1.4*28

$BDGSA,A,3,,,,,,,,,,,,,1.6,0.8,1.4*29

$GPRMC,140302.2,A,5133.484090,N,00957.695562,E,0.0,8.3,260619,0.0,E,A*07

$GPGSV,4,1,13,07,10,296,18,08,39,295,28,10,55,136,35,16,41,195,31*74

$GPGSV,4,2,13,20,54,084,30,21,32,070,25,11,01,268,,13,03,012,*7C

$GPGSV,4,3,13,15,12,043,,18,13,251,,26,16,180,,27,80,292,*7F

$GPGSV,4,4,13,30,07,326,*48

$GLGSV,3,1,09,70,43,106,32,86,50,299,21,76,35,262,21,75,11,216,30*64

$GLGSV,3,2,09,69,27,033,26,85,56,061,29,71,14,156,27,77,24,327,*65

$GLGSV,3,3,09,84,05,087,*5A

$BDGSV,3,1,11,202,01,101,,205,15,122,,206,21,057,,209,20,085,*68

$BDGSV,3,2,11,211,22,099,,213,03,073,,214,41,074,,216,23,061,*6E

$BDGSV,3,3,11,221,10,032,,227,19,284,,228,73,293,*6C

$GPGGA,,,,,,0,,,,,,,,*66

$GNGNS,,,,,,NN,,,,,,*53

$GPVTG,,T,,M,,N,,K,N*2C

$GPRMC,,V,,,,,,,,,,N*53

$GPGSA,A,1,,,,,,,,,,,,,,,*1E

$GNGSA,A,1,,,,,,,,,,,,,,,*00

$BDGSA,A,1,,,,,,,,,,,,,,,*0F

$GPGSV,4,1,13,07,10,296,,08,40,295,,10,55,136,,11,01,268,*7F

$GPGSV,4,2,13,13,03,012,,15,12,043,,16,41,195,,18,13,251,*7D

$GPGSV,4,3,13,20,54,084,,21,32,070,,26,16,180,,27,80,292,*78

$GPGSV,4,4,13,30,07,326,*48

$GLGSV,3,1,09,70,43,106,33,75,11,216,30,86,50,299,,77,24,327,*64

$GLGSV,3,2,09,76,35,262,,69,27,033,,84,05,087,,85,56,063,*6B

$GLGSV,3,3,09,71,14,156,*5D

$BDGSV,3,1,11,202,01,101,,205,15,122,,206,21,057,,209,20,085,*68

$BDGSV,3,2,11,211,22,099,,213,03,073,,214,41,074,,216,23,061,*6E

$BDGSV,3,3,11,221,10,032,,227,19,284,,228,73,293,*6C

$GPGGA,,,,,,0,,,,,,,,*66

$GNGNS,,,,,,NN,,,,,,*53

$GPVTG,,T,,M,,N,,K,N*2C

$GPRMC,,V,,,,,,,,,,N*53

$GPGSA,A,1,,,,,,,,,,,,,,,*1E

$GNGSA,A,1,,,,,,,,,,,,,,,*00

$BDGSA,A,1,,,,,,,,,,,,,,,*0F

$GPGSV,4,1,13,08,40,295,26,10,55,136,35,16,41,195,27,18,13,251,23*7D

$GPGSV,4,2,13,20,54,084,26,21,32,070,25,27,80,292,32,07,10,296,*7A

$GPGSV,4,3,13,11,01,268,,13,03,012,,15,12,043,,26,16,180,*79

$GPGSV,4,4,13,30,07,326,*48

$GLGSV,3,1,09,70,43,106,34,86,50,299,25,76,35,262,30,75,11,216,23*64

$GLGSV,3,2,09,69,27,033,31,85,56,063,25,71,14,156,28,77,24,327,*62

$GLGSV,3,3,09,84,05,087,*5A

$BDGSV,3,1,11,202,01,101,,205,15,122,,206,21,057,,209,20,085,*68

$BDGSV,3,2,11,211,22,099,,213,03,073,,214,41,074,,216,23,061,*6E

$BDGSV,3,3,11,221,10,032,,227,19,284,,228,73,293,*6C

$GPGGA,140305.0,5133.486439,N,00957.681577,E,1,07,0.8,250.8,M,47.0,M,,*5D

$GNGNS,140305.0,5133.486439,N,00957.681577,E,AA,14,0.8,250.8,47.0,,*6B

$GPVTG,8.5,T,8.5,M,1.5,N,2.7,K,A*22

$GPGSA,A,3,08,10,16,18,20,21,27,,,,,,1.6,0.8,1.4*3B

$GNGSA,A,3,08,10,16,18,20,21,27,,,,,,1.6,0.8,1.4*25

$GNGSA,A,3,70,86,76,75,69,85,71,,,,,,1.6,0.8,1.4*28

$BDGSA,A,3,,,,,,,,,,,,,1.6,0.8,1.4*29

$GPRMC,140305.0,A,5133.486439,N,00957.681577,E,1.5,8.5,260619,0.0,E,A*04

$GPGSV,4,1,13,08,40,295,26,10,55,136,35,16,41,195,27,18,13,251,23*7D

$GPGSV,4,2,13,20,54,084,26,21,32,070,25,27,80,292,32,07,10,296,*7A

$GPGSV,4,3,13,11,01,268,,13,03,012,,15,12,043,,26,16,180,*79

$GPGSV,4,4,13,30,07,326,*48

$GLGSV,3,1,09,70,43,106,34,86,50,299,25,76,35,262,30,75,11,216,23*64

$GLGSV,3,2,09,69,27,033,31,85,56,063,25,71,14,156,28,77,24,327,*62

$GLGSV,3,3,09,84,05,087,*5A

$BDGSV,3,1,11,202,01,101,,205,15,122,,206,21,057,,209,20,085,*68

$BDGSV,3,2,11,211,22,099,,213,03,073,,214,41,074,,216,23,061,*6E

$BDGSV,3,3,11,221,10,032,,227,19,284,,228,73,293,*6C

$GPGGA,,,,,,0,,,,,,,,*66

$GNGNS,,,,,,NN,,,,,,*53

$GPVTG,,T,,M,,N,,K,N*2C

$GPRMC,,V,,,,,,,,,,N*53

$GPGSA,A,1,,,,,,,,,,,,,,,*1E

$GNGSA,A,1,,,,,,,,,,,,,,,*00

$BDGSA,A,1,,,,,,,,,,,,,,,*0F

$GPGSV,4,1,13,27,80,292,31,07,10,296,,08,40,295,,10,55,136,*74

$GPGSV,4,2,13,11,01,268,,13,03,012,,15,12,043,,16,41,195,*7D

$GPGSV,4,3,13,18,13,251,,20,54,084,,21,32,070,,26,16,180,*71

$GPGSV,4,4,13,30,07,326,*48

$GLGSV,3,1,09,70,44,106,25,86,50,299,,77,24,327,,76,35,262,*61

$GLGSV,3,2,09,75,11,216,,69,27,033,,84,05,087,,85,56,063,*6D

$GLGSV,3,3,09,71,14,156,*5D

$BDGSV,3,1,11,202,01,101,,205,15,122,,206,21,057,,209,20,085,*68

$BDGSV,3,2,11,211,22,099,,213,03,073,,214,40,074,,216,23,061,*6F

$BDGSV,3,3,11,221,10,032,,227,19,284,,228,73,293,*6C

$GPGGA,,,,,,0,,,,,,,,*66

$GNGNS,,,,,,NN,,,,,,*53

$GPVTG,,T,,M,,N,,K,N*2C

$GPRMC,,V,,,,,,,,,,N*53

$GPGSA,A,1,,,,,,,,,,,,,,,*1E

$GNGSA,A,1,,,,,,,,,,,,,,,*00

$BDGSA,A,1,,,,,,,,,,,,,,,*0F

$GPGSV,3,1,12,07,10,296,23,08,40,295,28,10,55,136,37,16,41,195,26*70

$GPGSV,3,2,12,21,32,070,30,27,80,292,40,11,01,268,,13,03,012,*72

$GPGSV,3,3,12,15,12,043,,18,13,251,,26,16,180,,30,07,326,*7E

$GLGSV,3,1,09,70,44,106,30,86,50,299,28,77,24,327,28,75,11,216,29*68

$GLGSV,3,2,09,69,27,033,30,85,56,063,28,71,14,156,28,76,35,262,*6F

$GLGSV,3,3,09,84,05,087,*5A

$BDGSV,3,1,10,202,01,101,,205,15,122,,206,21,057,,211,22,099,*6F

$BDGSV,3,2,10,213,03,073,,214,40,074,,216,23,061,,221,10,032,*6D

$BDGSV,3,3,10,227,19,284,,228,73,293,*6C

$GPGGA,,,,,,0,,,,,,,,*66

$GNGNS,,,,,,NN,,,,,,*53

$GPVTG,,T,,M,,N,,K,N*2C

$GPRMC,,V,,,,,,,,,,N*53

$GPGSA,A,1,,,,,,,,,,,,,,,*1E

$GNGSA,A,1,,,,,,,,,,,,,,,*00

$BDGSA,A,1,,,,,,,,,,,,,,,*0F

$GPGSV,3,1,12,07,10,296,23,08,40,295,28,10,55,136,37,16,41,195,26*70

$GPGSV,3,2,12,21,32,070,30,27,80,292,40,11,01,268,,13,03,012,*72

$GPGSV,3,3,12,15,12,043,,18,13,251,,26,16,180,,30,07,326,*7E

$GLGSV,3,1,09,70,44,106,30,86,50,299,28,77,24,327,28,75,11,216,29*68

$GLGSV,3,2,09,69,27,033,30,85,56,063,28,71,14,156,28,76,35,262,*6F

$GLGSV,3,3,09,84,05,087,*5A

$BDGSV,3,1,10,202,01,101,,205,15,122,,206,21,057,,211,22,099,*6F

$BDGSV,3,2,10,213,03,073,,214,40,074,,216,23,061,,221,10,032,*6D

$BDGSV,3,3,10,227,19,284,,228,73,293,*6C

$GPGGA,,,,,,0,,,,,,,,*66

$GNGNS,,,,,,NN,,,,,,*53

$GPVTG,,T,,M,,N,,K,N*2C

$GPRMC,,V,,,,,,,,,,N*53

$GPGSA,A,1,,,,,,,,,,,,,,,*1E

$GNGSA,A,1,,,,,,,,,,,,,,,*00

$BDGSA,A,1,,,,,,,,,,,,,,,*0F

$GPGSV,4,1,13,07,10,296,32,08,40,295,32,10,55,136,37,16,41,195,28*73

$GPGSV,4,2,13,21,32,070,35,26,16,180,24,27,80,292,39,11,01,268,*71

$GPGSV,4,3,13,13,03,012,,15,12,043,,18,13,251,,20,54,084,*7C

$GPGSV,4,4,13,30,07,326,*48

$GLGSV,3,1,09,70,44,106,30,86,50,299,31,77,24,327,27,76,35,262,19*6A

$GLGSV,3,2,09,75,11,216,22,69,27,033,32,85,56,063,34,71,14,156,23*6D

$GLGSV,3,3,09,84,05,087,*5A

$BDGSV,3,1,11,202,01,101,,205,15,122,,206,21,057,,209,20,085,*68

$BDGSV,3,2,11,211,22,099,,213,03,073,,214,40,074,,216,23,061,*6F

$BDGSV,3,3,11,221,10,032,,227,19,284,,228,73,293,*6C

$GPGGA,140310.2,5133.490081,N,00957.686441,E,1,07,0.7,238.2,M,47.0,M,,*53

$GNGNS,140310.2,5133.490081,N,00957.686441,E,AA,15,0.7,238.2,47.0,,*64

$GPVTG,127.5,T,127.5,M,0.0,N,0.0,K,A*23

$GPGSA,A,3,07,08,10,16,21,26,27,,,,,,1.4,0.7,1.2*38

$GNGSA,A,3,07,08,10,16,21,26,27,,,,,,1.4,0.7,1.2*26

$GNGSA,A,3,70,86,77,76,75,69,85,71,,,,,1.4,0.7,1.2*23

$BDGSA,A,3,,,,,,,,,,,,,1.4,0.7,1.2*22

$GPRMC,140310.2,A,5133.490081,N,00957.686441,E,0.0,127.5,260619,0.0,E,A*09

$GPGSV,4,1,13,07,10,296,32,08,40,295,32,10,55,136,37,16,41,195,28*73

$GPGSV,4,2,13,21,32,070,35,26,16,180,24,27,80,292,39,11,01,268,*71

$GPGSV,4,3,13,13,03,012,,15,12,043,,18,13,251,,20,54,084,*7C

$GPGSV,4,4,13,30,07,326,*48

$GLGSV,3,1,09,70,44,106,30,86,50,299,31,77,24,327,27,76,35,262,19*6A

$GLGSV,3,2,09,75,11,216,22,69,27,033,32,85,56,063,34,71,14,156,23*6D

$GLGSV,3,3,09,84,05,087,*5A

$BDGSV,3,1,11,202,01,101,,205,15,122,,206,21,057,,209,20,085,*68

$BDGSV,3,2,11,211,22,099,,213,03,073,,214,40,074,,216,23,061,*6F

$BDGSV,3,3,11,221,10,032,,227,19,284,,228,73,293,*6C

$GPGGA,,,,,,0,,,,,,,,*66

$GNGNS,,,,,,NN,,,,,,*53

$GPVTG,,T,,M,,N,,K,N*2C

$GPRMC,,V,,,,,,,,,,N*53

$GPGSA,A,1,,,,,,,,,,,,,,,*1E

$GNGSA,A,1,,,,,,,,,,,,,,,*00

$BDGSA,A,1,,,,,,,,,,,,,,,*0F

$GPGSV,4,1,13,20,54,084,40,21,32,070,36,07,10,296,,08,40,295,*7C

$GPGSV,4,2,13,10,55,136,,11,01,270,,13,03,012,,15,12,043,*7E

$GPGSV,4,3,13,16,41,195,,18,13,251,,26,16,180,,27,80,291,*73

$GPGSV,4,4,13,30,07,326,*48

$GLGSV,3,1,09,70,44,106,36,69,27,033,33,86,50,299,,77,24,327,*68

$GLGSV,3,2,09,76,35,262,,75,11,216,,84,05,087,,85,56,063,*66

$GLGSV,3,3,09,71,14,156,*5D

$BDGSV,3,1,11,202,01,101,,205,15,122,,206,21,057,,209,20,085,*68

$BDGSV,3,2,11,211,22,099,,213,03,073,,214,40,074,,216,23,061,*6F

$BDGSV,3,3,11,221,10,032,,227,19,284,,228,73,293,*6C

$GPGGA,,,,,,0,,,,,,,,*66

$GNGNS,,,,,,NN,,,,,,*53

$GPVTG,,T,,M,,N,,K,N*2C

$GPRMC,,V,,,,,,,,,,N*53

$GPGSA,A,1,,,,,,,,,,,,,,,*1E

$GNGSA,A,1,,,,,,,,,,,,,,,*00

$BDGSA,A,1,,,,,,,,,,,,,,,*0F

$GPGSV,4,1,13,20,54,084,40,21,32,070,36,07,10,296,,08,40,295,*7C

$GPGSV,4,2,13,10,55,136,,11,01,270,,13,03,012,,15,12,043,*7E

$GPGSV,4,3,13,16,41,195,,18,13,251,,26,16,180,,27,80,291,*73

$GPGSV,4,4,13,30,07,326,*48

$GLGSV,3,1,09,70,44,106,36,69,27,033,33,86,50,299,,77,24,327,*68

$GLGSV,3,2,09,76,35,262,,75,11,216,,84,05,087,,85,56,063,*66

$GLGSV,3,3,09,71,14,156,*5D

$BDGSV,3,1,11,202,01,101,,205,15,122,,206,21,057,,209,20,085,*68

$BDGSV,3,2,11,211,22,099,,213,03,073,,214,40,074,,216,23,061,*6F

$BDGSV,3,3,11,221,10,032,,227,19,284,,228,73,293,*6C

$GPGGA,,,,,,0,,,,,,,,*66

$GNGNS,,,,,,NN,,,,,,*53

$GPVTG,,T,,M,,N,,K,N*2C

$GPRMC,,V,,,,,,,,,,N*53

$GPGSA,A,1,,,,,,,,,,,,,,,*1E

$GNGSA,A,1,,,,,,,,,,,,,,,*00

$BDGSA,A,1,,,,,,,,,,,,,,,*0F

$GPGSV,4,1,13,07,10,296,30,10,55,136,27,16,41,195,28,20,54,084,40*78

$GPGSV,4,2,13,21,32,070,37,26,16,180,20,27,80,291,36,08,40,295,*74

$GPGSV,4,3,13,11,01,270,,13,03,012,,15,12,043,,18,13,251,*77

$GPGSV,4,4,13,30,07,326,*48

$GLGSV,3,1,09,70,44,106,38,86,50,299,30,77,24,327,28,69,27,033,36*6A

$GLGSV,3,2,09,85,56,063,32,71,14,156,23,76,35,262,,75,11,216,*61

$GLGSV,3,3,09,84,05,087,*5A

$BDGSV,3,1,11,202,01,101,,205,15,122,,206,21,057,,209,20,085,*68

$BDGSV,3,2,11,211,22,099,,213,03,073,,214,40,074,,216,23,061,*6F

$BDGSV,3,3,11,221,10,032,,227,19,284,,228,73,293,*6C

$GPGGA,140314.2,5133.487687,N,00957.685473,E,1,07,0.8,230.4,M,47.0,M,,*52

$GNGNS,140314.2,5133.487687,N,00957.685473,E,AA,13,0.8,230.4,47.0,,*63

$GPVTG,158.2,T,158.2,M,2.5,N,4.7,K,A*27

$GPGSA,A,3,07,10,16,20,21,26,27,,,,,,1.5,0.8,1.2*3C

$GNGSA,A,3,07,10,16,20,21,26,27,,,,,,1.5,0.8,1.2*22

$GNGSA,A,3,70,86,77,69,85,71,,,,,,,1.5,0.8,1.2*2E

$BDGSA,A,3,,,,,,,,,,,,,1.5,0.8,1.2*2C

$GPRMC,140314.2,A,5133.487687,N,00957.685473,E,2.5,158.2,260619,0.0,E,A*01

$GPGSV,4,1,13,07,10,296,30,10,55,136,27,16,41,195,28,20,54,084,40*78

$GPGSV,4,2,13,21,32,070,37,26,16,180,20,27,80,291,36,08,40,295,*74

$GPGSV,4,3,13,11,01,270,,13,03,012,,15,12,043,,18,13,251,*77

$GPGSV,4,4,13,30,07,326,*48

$GLGSV,3,1,09,70,44,106,38,86,50,299,30,77,24,327,28,69,27,033,36*6A

$GLGSV,3,2,09,85,56,063,32,71,14,156,23,76,35,262,,75,11,216,*61

$GLGSV,3,3,09,84,05,087,*5A

$BDGSV,3,1,11,202,01,101,,205,15,122,,206,21,057,,209,20,085,*68

$BDGSV,3,2,11,211,22,099,,213,03,073,,214,40,074,,216,23,061,*6F

$BDGSV,3,3,11,221,10,032,,227,19,284,,228,73,293,*6C

$GPGGA,,,,,,0,,,,,,,,*66

$GNGNS,,,,,,NN,,,,,,*53

$GPVTG,,T,,M,,N,,K,N*2C

$GPRMC,,V,,,,,,,,,,N*53

$GPGSA,A,1,,,,,,,,,,,,,,,*1E

$GNGSA,A,1,,,,,,,,,,,,,,,*00

$BDGSA,A,1,,,,,,,,,,,,,,,*0F

$GPGSV,4,1,13,07,10,296,32,20,54,084,39,08,40,295,,10,55,136,*76

$GPGSV,4,2,13,11,01,270,,13,03,012,,15,12,043,,16,41,195,*74

$GPGSV,4,3,13,18,13,251,,21,32,070,,26,16,180,,27,80,291,*79

$GPGSV,4,4,13,30,07,326,*48

$GLGSV,3,1,09,69,27,033,36,70,44,106,,86,50,299,,77,24,326,*69

$GLGSV,3,2,09,76,35,262,,75,11,216,,84,05,087,,85,56,063,*66

$GLGSV,3,3,09,71,14,156,*5D

$BDGSV,3,1,11,202,01,101,,205,15,122,,206,21,056,,209,20,085,*69

$BDGSV,3,2,11,211,22,099,,213,03,073,,214,40,074,,216,23,061,*6F

$BDGSV,3,3,11,221,10,032,,227,19,284,,228,73,293,*6C

$GPGGA,,,,,,0,,,,,,,,*66

$GNGNS,,,,,,NN,,,,,,*53

$GPVTG,,T,,M,,N,,K,N*2C

$GPRMC,,V,,,,,,,,,,N*53

$GPGSA,A,1,,,,,,,,,,,,,,,*1E

$GNGSA,A,1,,,,,,,,,,,,,,,*00

$BDGSA,A,1,,,,,,,,,,,,,,,*0F

$GPGSV,4,1,13,07,10,296,31,08,40,295,25,10,55,136,33,16,41,195,27*7D

$GPGSV,4,2,13,20,54,084,40,21,32,070,36,27,80,291,34,11,01,270,*72

$GPGSV,4,3,13,13,03,012,,15,12,043,,18,13,251,,26,16,180,*79

$GPGSV,4,4,13,30,07,326,*48

$GLGSV,3,1,09,70,44,106,34,86,50,299,30,77,24,326,25,76,35,262,23*65

$GLGSV,3,2,09,69,27,033,35,85,56,063,29,71,14,156,25,75,11,216,*60

$GLGSV,3,3,09,84,05,087,*5A

$BDGSV,3,1,11,202,01,101,,205,15,122,,206,21,057,,209,20,085,*68

$BDGSV,3,2,11,211,22,098,,213,03,071,,214,41,075,,216,23,061,*6C

$BDGSV,3,3,11,221,10,032,,227,19,284,,228,72,293,*6D

$GPGGA,140317.0,5133.489633,N,00957.687850,E,1,07,0.8,245.7,M,47.0,M,,*5C

$GNGNS,140317.0,5133.489633,N,00957.687850,E,AA,14,0.8,245.7,47.0,,*6A

$GPVTG,158.2,T,158.2,M,0.7,N,1.3,K,A*26

$GPGSA,A,3,07,08,10,16,20,21,27,,,,,,1.5,0.8,1.3*31

$GNGSA,A,3,07,08,10,16,20,21,27,,,,,,1.5,0.8,1.3*2F

$GNGSA,A,3,70,86,77,76,69,85,71,,,,,,1.5,0.8,1.3*2E

$BDGSA,A,3,,,,,,,,,,,,,1.5,0.8,1.3*2D

$GPRMC,140317.0,A,5133.489633,N,00957.687850,E,0.7,158.2,260619,0.0,E,A*0E

$GPGSV,4,1,13,07,10,296,31,08,40,295,25,10,55,136,33,16,41,195,27*7D

$GPGSV,4,2,13,20,54,084,40,21,32,070,36,27,80,291,34,11,01,270,*72

$GPGSV,4,3,13,13,03,012,,15,12,043,,18,13,251,,26,16,180,*79

$GPGSV,4,4,13,30,07,326,*48

$GLGSV,3,1,09,70,44,106,34,86,50,299,30,77,24,326,25,76,35,262,23*65

$GLGSV,3,2,09,69,27,033,35,85,56,063,29,71,14,156,25,75,11,216,*60

$GLGSV,3,3,09,84,05,087,*5A

$BDGSV,3,1,11,202,01,101,,205,15,122,,206,21,057,,209,20,085,*68

$BDGSV,3,2,11,211,22,098,,213,03,071,,214,41,075,,216,23,061,*6C

$BDGSV,3,3,11,221,10,032,,227,19,284,,228,72,293,*6D

$GPGGA,,,,,,0,,,,,,,,*66

$GNGNS,,,,,,NN,,,,,,*53

$GPVTG,,T,,M,,N,,K,N*2C

$GPRMC,,V,,,,,,,,,,N*53

$GPGSA,A,1,,,,,,,,,,,,,,,*1E

$GNGSA,A,1,,,,,,,,,,,,,,,*00

$BDGSA,A,1,,,,,,,,,,,,,,,*0F

$GPGSV,4,1,13,20,54,084,41,21,32,070,34,07,10,296,,08,40,295,*7F

$GPGSV,4,2,13,10,55,136,,11,01,270,,13,03,012,,15,12,043,*7E

$GPGSV,4,3,13,16,41,195,,18,13,251,,26,16,180,,27,80,291,*73

$GPGSV,4,4,13,30,07,326,*48

$GLGSV,3,1,09,70,44,106,38,69,27,033,35,85,56,063,31,86,50,299,*69

$GLGSV,3,2,09,77,24,326,,76,35,262,,75,11,216,,84,05,087,*6C

$GLGSV,3,3,09,71,14,156,*5D

$BDGSV,3,1,11,202,01,101,,205,15,122,,206,21,056,,209,20,085,*69

$BDGSV,3,2,11,211,22,099,,213,03,073,,214,40,074,,216,23,061,*6F

$BDGSV,3,3,11,221,10,032,,227,19,284,,228,73,293,*6C

$GPGGA,,,,,,0,,,,,,,,*66

$GNGNS,,,,,,NN,,,,,,*53

$GPVTG,,T,,M,,N,,K,N*2C

$GPRMC,,V,,,,,,,,,,N*53

$GPGSA,A,1,,,,,,,,,,,,,,,*1E

$GNGSA,A,1,,,,,,,,,,,,,,,*00

$BDGSA,A,1,,,,,,,,,,,,,,,*0F

$GPGSV,4,1,13,20,54,084,41,21,32,070,34,07,10,296,,08,40,295,*7F

$GPGSV,4,2,13,10,55,136,,11,01,270,,13,03,012,,15,12,043,*7E

$GPGSV,4,3,13,16,41,195,,18,13,251,,26,16,180,,27,80,291,*73

$GPGSV,4,4,13,30,07,326,*48

$GLGSV,3,1,09,70,44,106,38,69,27,033,35,85,56,063,31,86,50,299,*69

$GLGSV,3,2,09,77,24,326,,76,35,262,,75,11,216,,84,05,087,*6C

$GLGSV,3,3,09,71,14,156,*5D

$BDGSV,3,1,11,202,01,101,,205,15,122,,206,21,056,,209,20,085,*69

$BDGSV,3,2,11,211,22,099,,213,03,073,,214,40,074,,216,23,061,*6F

$BDGSV,3,3,11,221,10,032,,227,19,284,,228,73,293,*6C

$GPGGA,,,,,,0,,,,,,,,*66

$GNGNS,,,,,,NN,,,,,,*53

$GPVTG,,T,,M,,N,,K,N*2C

$GPRMC,,V,,,,,,,,,,N*53

$GPGSA,A,1,,,,,,,,,,,,,,,*1E

$GNGSA,A,1,,,,,,,,,,,,,,,*00

$BDGSA,A,1,,,,,,,,,,,,,,,*0F

$GPGSV,4,1,13,07,10,296,29,10,55,136,21,16,41,195,29,20,54,084,41*76

$GPGSV,4,2,13,21,32,070,34,26,16,180,24,27,80,291,36,08,40,295,*73

$GPGSV,4,3,13,11,01,270,,13,03,012,,15,12,043,,18,13,251,*77

$GPGSV,4,4,13,30,07,326,*48

$GLGSV,3,1,09,70,44,106,39,86,50,299,25,77,24,326,27,75,11,216,24*6F

$GLGSV,3,2,09,69,27,033,38,85,56,063,34,71,14,156,25,76,35,262,*67

$GLGSV,3,3,09,84,05,087,*5A

$BDGSV,3,1,11,202,01,101,,205,15,122,,206,21,056,,209,20,085,*69

$BDGSV,3,2,11,211,22,099,,213,03,073,,214,40,074,,216,23,061,*6F

$BDGSV,3,3,11,221,10,032,,227,19,284,,228,73,293,*6C

$GPGGA,140321.2,5133.489880,N,00957.692208,E,1,07,0.8,243.7,M,47.0,M,,*58

$GNGNS,140321.2,5133.489880,N,00957.692208,E,AA,14,0.8,243.7,47.0,,*6E

$GPVTG,254.8,T,254.8,M,0.8,N,1.6,K,A*2C

$GPGSA,A,3,07,10,16,20,21,26,27,,,,,,1.4,0.8,1.2*3D

$GNGSA,A,3,07,10,16,20,21,26,27,,,,,,1.4,0.8,1.2*23

$GNGSA,A,3,70,86,77,75,69,85,71,,,,,,1.4,0.8,1.2*2D

$BDGSA,A,3,,,,,,,,,,,,,1.4,0.8,1.2*2D

$GPRMC,140321.2,A,5133.489880,N,00957.692208,E,0.8,254.8,260619,0.0,E,A*06

$GPGSV,4,1,13,07,10,296,29,10,55,136,21,16,41,195,29,20,54,084,41*76

$GPGSV,4,2,13,21,32,070,34,26,16,180,24,27,80,291,36,08,40,295,*73

$GPGSV,4,3,13,11,01,270,,13,03,012,,15,12,043,,18,13,251,*77

$GPGSV,4,4,13,30,07,326,*48

$GLGSV,3,1,09,70,44,106,39,86,50,299,25,77,24,326,27,75,11,216,24*6F

$GLGSV,3,2,09,69,27,033,38,85,56,063,34,71,14,156,25,76,35,262,*67

$GLGSV,3,3,09,84,05,087,*5A

$BDGSV,3,1,11,202,01,101,,205,15,122,,206,21,056,,209,20,085,*69

$BDGSV,3,2,11,211,22,099,,213,03,073,,214,40,074,,216,23,061,*6F

$BDGSV,3,3,11,221,10,032,,227,19,284,,228,73,293,*6C

$GPGGA,,,,,,0,,,,,,,,*66

$GNGNS,,,,,,NN,,,,,,*53

$GPVTG,,T,,M,,N,,K,N*2C

$GPRMC,,V,,,,,,,,,,N*53

$GPGSA,A,1,,,,,,,,,,,,,,,*1E

$GNGSA,A,1,,,,,,,,,,,,,,,*00

$BDGSA,A,1,,,,,,,,,,,,,,,*0F

$GPGSV,4,1,13,20,54,084,40,07,10,296,,08,40,295,,10,55,136,*79

$GPGSV,4,2,13,11,01,270,,13,03,012,,15,12,042,,16,41,195,*75

$GPGSV,4,3,13,18,13,251,,21,32,070,,26,16,180,,27,80,291,*79

$GPGSV,4,4,13,30,07,326,*48

$GLGSV,3,1,09,70,44,106,37,69,27,033,35,71,14,156,25,86,50,300,*68

$GLGSV,3,2,09,77,24,326,,76,35,262,,75,11,216,,84,05,088,*63

$GLGSV,3,3,09,85,56,063,*57

$BDGSV,3,1,11,202,01,101,,205,15,122,,206,21,056,,209,20,085,*69

$BDGSV,3,2,11,211,22,099,,213,03,073,,214,40,074,,216,23,061,*6F

$BDGSV,3,3,11,221,10,032,,227,19,284,,228,73,293,*6C

$GPGGA,,,,,,0,,,,,,,,*66

$GNGNS,,,,,,NN,,,,,,*53

$GPVTG,,T,,M,,N,,K,N*2C

$GPRMC,,V,,,,,,,,,,N*53

$GPGSA,A,1,,,,,,,,,,,,,,,*1E

$GNGSA,A,1,,,,,,,,,,,,,,,*00

$BDGSA,A,1,,,,,,,,,,,,,,,*0F

$GPGSV,4,1,13,20,54,084,40,07,10,296,,08,40,295,,10,55,136,*79

$GPGSV,4,2,13,11,01,270,,13,03,012,,15,12,042,,16,41,195,*75

$GPGSV,4,3,13,18,13,251,,21,32,070,,26,16,180,,27,80,291,*79

$GPGSV,4,4,13,30,07,326,*48

$GLGSV,3,1,09,70,44,106,37,69,27,033,35,71,14,156,25,86,50,300,*68

$GLGSV,3,2,09,77,24,326,,76,35,262,,75,11,216,,84,05,088,*63

$GLGSV,3,3,09,85,56,063,*57

$BDGSV,3,1,11,202,01,101,,205,15,122,,206,21,056,,209,20,085,*69

$BDGSV,3,2,11,211,22,099,,213,03,073,,214,40,074,,216,23,061,*6F

$BDGSV,3,3,11,221,10,032,,227,19,284,,228,73,293,*6C

$GPGGA,,,,,,0,,,,,,,,*66

$GNGNS,,,,,,NN,,,,,,*53

$GPVTG,,T,,M,,N,,K,N*2C

$GPRMC,,V,,,,,,,,,,N*53

$GPGSA,A,1,,,,,,,,,,,,,,,*1E

$GNGSA,A,1,,,,,,,,,,,,,,,*00

$BDGSA,A,1,,,,,,,,,,,,,,,*0F

$GPGSV,4,1,13,07,10,296,32,10,55,136,25,16,41,195,23,20,54,084,41*72

$GPGSV,4,2,13,21,32,070,33,27,80,291,40,08,40,295,,11,01,270,*7D

$GPGSV,4,3,13,13,03,012,,15,12,042,,18,13,251,,26,16,180,*78

$GPGSV,4,4,13,30,07,326,*48

$GLGSV,3,1,09,70,44,106,39,86,50,300,25,77,24,326,28,69,27,033,37*6E

$GLGSV,3,2,09,85,56,063,33,71,14,156,26,76,35,262,,75,11,216,*65

$GLGSV,3,3,09,84,05,088,*55

$BDGSV,3,1,11,202,01,101,,205,15,122,,206,21,056,,209,20,085,*69

$BDGSV,3,2,11,211,22,099,,213,03,073,,214,40,074,,216,23,061,*6F

$BDGSV,3,3,11,221,10,032,,227,19,284,,228,73,293,*6C

$GPGGA,140325.2,5133.488683,N,00957.684286,E,1,06,0.9,234.4,M,47.0,M,,*52

$GNGNS,140325.2,5133.488683,N,00957.684286,E,AA,12,0.9,234.4,47.0,,*63

$GPVTG,204.0,T,204.0,M,2.1,N,3.8,K,A*2B

$GPGSA,A,3,07,10,16,20,21,27,,,,,,,1.5,0.9,1.3*38

$GNGSA,A,3,07,10,16,20,21,27,,,,,,,1.5,0.9,1.3*26

$GNGSA,A,3,70,86,77,69,85,71,,,,,,,1.5,0.9,1.3*2E

$BDGSA,A,3,,,,,,,,,,,,,1.5,0.9,1.3*2C

$GPRMC,140325.2,A,5133.488683,N,00957.684286,E,2.1,204.0,260619,0.0,E,A*09

$GPGSV,4,1,13,07,10,296,32,10,55,136,25,16,41,195,23,20,54,084,41*72

$GPGSV,4,2,13,21,32,070,33,27,80,291,40,08,40,295,,11,01,270,*7D

$GPGSV,4,3,13,13,03,012,,15,12,042,,18,13,251,,26,16,180,*78

$GPGSV,4,4,13,30,07,326,*48

$GLGSV,3,1,09,70,44,106,39,86,50,300,25,77,24,326,28,69,27,033,37*6E

$GLGSV,3,2,09,85,56,063,33,71,14,156,26,76,35,262,,75,11,216,*65

$GLGSV,3,3,09,84,05,088,*55

$BDGSV,3,1,11,202,01,101,,205,15,122,,206,21,056,,209,20,085,*69

$BDGSV,3,2,11,211,22,099,,213,03,073,,214,40,074,,216,23,061,*6F

$BDGSV,3,3,11,221,10,032,,227,19,284,,228,73,293,*6C

$GPGGA,,,,,,0,,,,,,,,*66

$GNGNS,,,,,,NN,,,,,,*53

$GPVTG,,T,,M,,N,,K,N*2C

$GPRMC,,V,,,,,,,,,,N*53

$GPGSA,A,1,,,,,,,,,,,,,,,*1E

$GNGSA,A,1,,,,,,,,,,,,,,,*00

$BDGSA,A,1,,,,,,,,,,,,,,,*0F

$GPGSV,4,1,13,20,54,084,38,21,32,070,38,07,10,296,,08,40,295,*7D

$GPGSV,4,2,13,10,55,136,,11,01,270,,13,03,012,,15,12,042,*7F

$GPGSV,4,3,13,16,41,195,,18,14,251,,26,16,180,,27,80,291,*74

$GPGSV,4,4,13,30,07,326,*48

$GLGSV,3,1,09,70,44,106,35,69,27,033,35,85,56,063,30,86,50,300,*64

$GLGSV,3,2,09,77,24,326,,76,34,262,,75,11,216,,84,05,088,*62

$GLGSV,3,3,09,71,14,156,*5D

$BDGSV,3,1,11,202,01,101,,205,15,122,,206,21,056,,209,20,085,*69

$BDGSV,3,2,11,211,22,099,,213,03,073,,214,40,074,,216,23,061,*6F

$BDGSV,3,3,11,221,10,032,,227,19,284,,228,73,293,*6C

$GPGGA,,,,,,0,,,,,,,,*66

$GNGNS,,,,,,NN,,,,,,*53

$GPVTG,,T,,M,,N,,K,N*2C

$GPRMC,,V,,,,,,,,,,N*53

$GPGSA,A,1,,,,,,,,,,,,,,,*1E

$GNGSA,A,1,,,,,,,,,,,,,,,*00

$BDGSA,A,1,,,,,,,,,,,,,,,*0F

$GPGSV,4,1,13,20,54,084,38,21,32,070,38,07,10,296,,08,40,295,*7D

$GPGSV,4,2,13,10,55,136,,11,01,270,,13,03,012,,15,12,042,*7F

$GPGSV,4,3,13,16,41,195,,18,14,251,,26,16,180,,27,80,291,*74

$GPGSV,4,4,13,30,07,326,*48

$GLGSV,3,1,09,70,44,106,35,69,27,033,35,85,56,063,30,86,50,300,*64

$GLGSV,3,2,09,77,24,326,,76,34,262,,75,11,216,,84,05,088,*62

$GLGSV,3,3,09,71,14,156,*5D

$BDGSV,3,1,11,202,01,101,,205,15,122,,206,21,056,,209,20,085,*69

$BDGSV,3,2,11,211,22,099,,213,03,073,,214,40,074,,216,23,061,*6F

$BDGSV,3,3,11,221,10,032,,227,19,284,,228,73,293,*6C

$GPGGA,,,,,,0,,,,,,,,*66

$GNGNS,,,,,,NN,,,,,,*53

$GPVTG,,T,,M,,N,,K,N*2C

$GPRMC,,V,,,,,,,,,,N*53

$GPGSA,A,1,,,,,,,,,,,,,,,*1E

$GNGSA,A,1,,,,,,,,,,,,,,,*00

$BDGSA,A,1,,,,,,,,,,,,,,,*0F

$GPGSV,4,1,13,07,10,296,25,08,40,295,27,20,54,084,42,21,32,070,36*7C

$GPGSV,4,2,13,27,80,291,37,10,55,136,,11,01,270,,13,03,012,*7D

$GPGSV,4,3,13,15,12,042,,16,41,195,,18,14,251,,26,16,180,*72

$GPGSV,4,4,13,30,07,326,*48

$GLGSV,3,1,09,70,44,106,37,86,50,300,24,77,24,326,24,75,11,216,21*67

$GLGSV,3,2,09,69,27,033,38,85,56,063,25,71,14,156,27,76,34,262,*64

$GLGSV,3,3,09,84,05,088,*55

$BDGSV,3,1,11,202,01,101,,205,15,122,,206,21,056,,209,20,085,*69

$BDGSV,3,2,11,211,22,099,,213,03,073,,214,40,074,,216,23,061,*6F

$BDGSV,3,3,11,221,10,032,,227,19,284,,228,73,293,*6C

$GPGGA,140329.2,5133.490363,N,00957.687543,E,1,05,0.8,226.3,M,47.0,M,,*57

$GNGNS,140329.2,5133.490363,N,00957.687543,E,AA,12,0.8,226.3,47.0,,*65

$GPVTG,85.1,T,85.1,M,1.5,N,2.8,K,A*2D

$GPGSA,A,3,07,08,20,21,27,,,,,,,,1.5,0.8,1.3*37

$GNGSA,A,3,07,08,20,21,27,,,,,,,,1.5,0.8,1.3*29

$GNGSA,A,3,70,86,77,75,69,85,71,,,,,,1.5,0.8,1.3*2D

$BDGSA,A,3,,,,,,,,,,,,,1.5,0.8,1.3*2D

$GPRMC,140329.2,A,5133.490363,N,00957.687543,E,1.5,85.1,260619,0.0,E,A*37

$GPGSV,4,1,13,07,10,296,25,08,40,295,27,20,54,084,42,21,32,070,36*7C

$GPGSV,4,2,13,27,80,291,37,10,55,136,,11,01,270,,13,03,012,*7D

$GPGSV,4,3,13,15,12,042,,16,41,195,,18,14,251,,26,16,180,*72

$GPGSV,4,4,13,30,07,326,*48

$GLGSV,3,1,09,70,44,106,37,86,50,300,24,77,24,326,24,75,11,216,21*67

$GLGSV,3,2,09,69,27,033,38,85,56,063,25,71,14,156,27,76,34,262,*64

$GLGSV,3,3,09,84,05,088,*55

$BDGSV,3,1,11,202,01,101,,205,15,122,,206,21,056,,209,20,085,*69

$BDGSV,3,2,11,211,22,099,,213,03,073,,214,40,074,,216,23,061,*6F

$BDGSV,3,3,11,221,10,032,,227,19,284,,228,73,293,*6C

$GPGGA,,,,,,0,,,,,,,,*66

$GNGNS,,,,,,NN,,,,,,*53

$GPVTG,,T,,M,,N,,K,N*2C

$GPRMC,,V,,,,,,,,,,N*53

$GPGSA,A,1,,,,,,,,,,,,,,,*1E

$GNGSA,A,1,,,,,,,,,,,,,,,*00

$BDGSA,A,1,,,,,,,,,,,,,,,*0F

$GPGSV,4,1,13,20,54,084,32,21,32,070,28,07,10,296,,08,40,295,*76

$GPGSV,4,2,13,10,55,136,,11,01,270,,13,03,012,,15,12,042,*7F

$GPGSV,4,3,13,16,41,195,,18,14,251,,26,16,180,,27,80,291,*74

$GPGSV,4,4,13,30,07,326,*48

$GLGSV,3,1,09,70,44,106,36,86,50,300,,77,24,326,,76,34,262,*62

$GLGSV,3,2,09,75,11,216,,69,27,032,,84,05,088,,85,56,063,*63

$GLGSV,3,3,09,71,14,156,*5D

$BDGSV,3,1,11,202,01,101,,205,15,122,,206,21,056,,209,20,085,*69

$BDGSV,3,2,11,211,22,099,,213,03,073,,214,40,074,,216,23,061,*6F

$BDGSV,3,3,11,221,10,032,,227,19,284,,228,73,293,*6C

$GPGGA,,,,,,0,,,,,,,,*66

$GNGNS,,,,,,NN,,,,,,*53

$GPVTG,,T,,M,,N,,K,N*2C

$GPRMC,,V,,,,,,,,,,N*53

$GPGSA,A,1,,,,,,,,,,,,,,,*1E

$GNGSA,A,1,,,,,,,,,,,,,,,*00

$BDGSA,A,1,,,,,,,,,,,,,,,*0F

$GPGSV,4,1,13,07,10,296,25,08,40,295,24,10,55,136,30,16,41,195,26*7B

$GPGSV,4,2,13,20,54,084,32,21,32,070,28,27,80,291,32,11,01,270,*7E

$GPGSV,4,3,13,13,03,012,,15,12,042,,18,14,251,,26,16,180,*7F

$GPGSV,4,4,13,30,07,326,*48

$GLGSV,3,1,09,70,44,106,36,86,50,300,26,77,24,326,25,76,34,262,25*66

$GLGSV,3,2,09,75,11,216,24,69,27,032,22,85,56,063,30,71,14,156,20*6C

$GLGSV,3,3,09,84,05,088,*55

$BDGSV,3,1,11,202,01,101,,205,15,122,,206,21,056,,209,20,085,*69

$BDGSV,3,2,11,211,22,099,,213,03,073,,214,40,074,,216,23,061,*6F

$BDGSV,3,3,11,221,10,032,,227,19,284,,228,73,293,*6C

$GPGGA,140332.0,5133.494142,N,00957.688448,E,1,07,0.7,233.5,M,47.0,M,,*50

$GNGNS,140332.0,5133.494142,N,00957.688448,E,AA,15,0.7,233.5,47.0,,*67

$GPVTG,43.4,T,43.4,M,3.1,N,5.7,K,A*23

$GPGSA,A,3,07,08,10,16,20,21,27,,,,,,1.4,0.7,1.2*3E

$GNGSA,A,3,07,08,10,16,20,21,27,,,,,,1.4,0.7,1.2*20

$GNGSA,A,3,70,86,77,76,75,69,85,71,,,,,1.4,0.7,1.2*23

$BDGSA,A,3,,,,,,,,,,,,,1.4,0.7,1.2*22

$GPRMC,140332.0,A,5133.494142,N,00957.688448,E,3.1,43.4,260619,0.0,E,A*36

$GPGSV,4,1,13,07,10,296,25,08,40,295,24,10,55,136,30,16,41,195,26*7B

$GPGSV,4,2,13,20,54,084,32,21,32,070,28,27,80,291,32,11,01,270,*7E

$GPGSV,4,3,13,13,03,012,,15,12,042,,18,14,251,,26,16,180,*7F

$GPGSV,4,4,13,30,07,326,*48

$GLGSV,3,1,09,70,44,106,36,86,50,300,26,77,24,326,25,76,34,262,25*66

$GLGSV,3,2,09,75,11,216,24,69,27,032,22,85,56,063,30,71,14,156,20*6C

$GLGSV,3,3,09,84,05,088,*55

$BDGSV,3,1,11,202,01,101,,205,15,122,,206,21,056,,209,20,085,*69

$BDGSV,3,2,11,211,22,099,,213,03,073,,214,40,074,,216,23,061,*6F

$BDGSV,3,3,11,221,10,032,,227,19,284,,228,73,293,*6C

$GPGGA,,,,,,0,,,,,,,,*66

$GNGNS,,,,,,NN,,,,,,*53

$GPVTG,,T,,M,,N,,K,N*2C

$GPRMC,,V,,,,,,,,,,N*53

$GPGSA,A,1,,,,,,,,,,,,,,,*1E

$GNGSA,A,1,,,,,,,,,,,,,,,*00

$BDGSA,A,1,,,,,,,,,,,,,,,*0F

$GPGSV,4,1,13,10,55,136,34,27,80,291,32,07,10,296,,08,40,295,*73

$GPGSV,4,2,13,11,01,270,,13,03,012,,15,12,042,,16,41,195,*75

$GPGSV,4,3,13,18,14,251,,20,54,084,,21,32,070,,26,16,180,*76

$GPGSV,4,4,13,30,07,326,*48

$GLGSV,3,1,09,70,44,106,33,69,27,032,33,86,50,300,,77,24,326,*6C

$GLGSV,3,2,09,76,34,262,,75,11,216,,84,05,088,,85,56,063,*68

$GLGSV,3,3,09,71,14,154,*5F

$BDGSV,3,1,11,202,01,101,,205,15,122,,206,21,056,,209,20,085,*69

$BDGSV,3,2,11,211,22,099,,213,03,073,,214,40,074,,216,23,061,*6F

$BDGSV,3,3,11,221,10,032,,227,19,284,,228,73,293,*6C

$GPGGA,,,,,,0,,,,,,,,*66

$GNGNS,,,,,,NN,,,,,,*53

$GPVTG,,T,,M,,N,,K,N*2C

$GPRMC,,V,,,,,,,,,,N*53

$GPGSA,A,1,,,,,,,,,,,,,,,*1E

