$GNGNS,140300.1,,,,,NN,,,,,,*4A

$GPVTG,,T,,M,,N,,K,N*2C

$GPGSA,A,1,,,,,,,,,,,,,,,*1E

$GNGSA,A,1,,,,,,,,,,,,,,,*00

$GPGGA,,,,,,0,,,,,,,,*66

$GPRMC,,V,,,,,,,,,,N*53

$GLGSV,3,1,09,76,35,262,34,75,11,216,28,69,27,033,33,85,56,061,29*6D

$GLGSV,3,2,09,70,43,106,,86,50,299,,77,24,327,,84,05,087,*65

$GLGSV,3,3,09,71,14,156,*5D

$GPGSV,4,1,13,18,13,251,33,21,32,070,34,27,80,292,38,07,10,296,*75

$GPGSV,4,2,13,08,39,295,,10,55,136,,11,01,268,,13,03,012,*7B

$GPGSV,4,3,13,15,12,043,,16,41,195,,20,54,084,,26,16,180,*76

$GPGSV,4,4,13,30,07,326,*48

$GNGNS,140259.8,,,,,NN,,,,,,*4E

$GPVTG,,T,,M,,N,,K,N*2C

$GPGSA,A,1,,,,,,,,,,,,,,,*1E

$GNGSA,A,1,,,,,,,,,,,,,,,*00

$GPGGA,,,,,,0,,,,,,,,*66

$GPRMC,,V,,,,,,,,,,N*53

$GLGSV,3,1,09,76,35,262,34,75,11,216,28,69,27,033,33,85,56,061,29*6D

$GLGSV,3,2,09,70,43,106,,86,50,299,,77,24,327,,84,05,087,*65

$GLGSV,3,3,09,71,14,156,*5D

$GPGSV,4,1,13,18,13,251,33,21,32,070,34,27,80,292,38,07,10,296,*75

$GPGSV,4,2,13,08,39,295,,10,55,136,,11,01,268,,13,03,012,*7B

$GPGSV,4,3,13,15,12,043,,16,41,195,,20,54,084,,26,16,180,*76

$GPGSV,4,4,13,30,07,326,*48

$GNGNS,140301.1,,,,,NN,,,,,,*4B

$GPVTG,,T,,M,,N,,K,N*2C

$GPGSA,A,1,,,,,,,,,,,,,,,*1E

$GNGSA,A,1,,,,,,,,,,,,,,,*00

$GPGGA,,,,,,0,,,,,,,,*66

$GPRMC,,V,,,,,,,,,,N*53

$GLGSV,3,1,09,76,35,262,31,75,11,216,34,69,27,033,34,85,56,061,34*6E

$GLGSV,3,2,09,70,43,106,,86,50,299,,77,24,327,,84,05,087,*65

$GLGSV,3,3,09,71,14,156,*5D

$GPGSV,4,1,13,08,39,295,33,18,13,251,34,21,32,070,28,27,80,292,27*76

$GPGSV,4,2,13,07,10,296,,10,55,136,,11,01,268,,13,03,012,*7C

$GPGSV,4,3,13,15,12,043,,16,41,195,,20,54,084,,26,16,180,*76

$GPGSV,4,4,13,30,07,326,*48

$GPGGA,140302.1,5133.482637,N,00957.684003,E,1,04,1.8,250.0,M,47.0,M,,*5A

$GNGNS,140302.1,5133.482637,N,00957.684003,E,AA,08,1.8,250.0,47.0,,*62

$GPVTG,164.1,T,164.2,M,1.5,N,2.7,K,A*21

$GPGSA,A,3,08,18,21,27,,,,,,,,,2.5,1.8,1.7*3D

$GNGSA,A,3,08,18,21,27,,,,,,,,,2.5,1.8,1.7*23

$GNGSA,A,3,76,75,69,85,,,,,,,,,2.5,1.8,1.7*25

$GPRMC,140302.1,A,5133.482637,N,00957.684003,E,1.5,164.1,260619,0.1,W,A*15

$PSTIS,*61

$GLGSV,3,1,09,86,50,299,31,76,35,262,32,75,11,216,34,69,27,033,32*6E

$GLGSV,3,2,09,85,56,061,30,71,14,156,24,70,43,106,,77,24,327,*67

$GLGSV,3,3,09,84,05,087,*5A

$GPGSV,4,1,13,07,10,296,30,08,39,295,30,10,55,136,27,16,41,195,32*77

$GPGSV,4,2,13,18,13,251,32,20,54,084,34,21,32,070,29,27,80,292,32*72

$GPGSV,4,3,13,11,01,268,,13,03,012,,15,12,043,,26,16,180,*79

$GPGSV,4,4,13,30,07,326,*48

$GPGGA,140303.1,5133.484505,N,00957.686893,E,1,08,1.0,238.1,M,47.0,M,,*57

$GNGNS,140303.1,5133.484505,N,00957.686893,E,AA,13,1.0,238.1,47.0,,*69

$GPVTG,164.1,T,164.2,M,0.0,N,0.0,K,A*20

$GPGSA,A,3,07,08,10,16,18,20,21,27,,,,,1.7,1.0,1.4*34

$GNGSA,A,3,07,08,10,16,18,20,21,27,,,,,1.7,1.0,1.4*2A

$GNGSA,A,3,86,76,75,69,85,,,,,,,,1.7,1.0,1.4*21

$GPRMC,140303.1,A,5133.484505,N,00957.686893,E,0.0,164.1,260619,0.1,W,A*17

$PSTIS,*61

$GLGSV,3,1,09,70,43,106,28,86,50,299,29,76,35,262,24,75,11,216,30*62

$GLGSV,3,2,09,69,27,033,33,85,56,061,29,71,14,156,25,77,24,327,*63

$GLGSV,3,3,09,84,05,087,*5A

$GPGSV,4,1,13,07,10,296,26,08,39,295,38,10,55,136,34,15,12,043,20*76

$GPGSV,4,2,13,16,41,195,25,18,13,251,24,20,54,084,35,21,32,070,33*72

$GPGSV,4,3,13,26,16,180,31,27,80,292,30,30,07,326,21,11,01,268,*7E

$GPGSV,4,4,13,13,03,012,*49

$GPGGA,140304.1,5133.485346,N,00957.690458,E,1,10,0.7,237.7,M,47.0,M,,*5A

$GNGNS,140304.1,5133.485346,N,00957.690458,E,AA,16,0.7,237.7,47.0,,*68

$GPVTG,164.1,T,164.2,M,0.0,N,0.0,K,A*20

$GPGSA,A,3,07,08,10,15,16,18,20,21,26,27,,,1.3,0.7,1.1*33

$GNGSA,A,3,07,08,10,15,16,18,20,21,26,27,,,1.3,0.7,1.1*2D

$GNGSA,A,3,70,86,76,75,69,85,,,,,,,1.3,0.7,1.1*21

$GPRMC,140304.1,A,5133.485346,N,00957.690458,E,0.0,164.1,260619,0.1,W,A*1C

$PSTIS,*61

$GLGSV,3,1,09,70,43,106,20,86,50,299,35,76,35,262,25,75,11,216,30*66

$GLGSV,3,2,09,69,27,033,33,85,56,061,29,71,14,156,21,77,24,327,*67

$GLGSV,3,3,09,84,05,087,*5A

$GPGSV,4,1,13,07,10,296,30,08,39,295,36,10,55,136,32,11,01,268,17*70

$GPGSV,4,2,13,15,12,043,22,16,41,195,31,18,13,251,31,20,54,084,37*74

$GPGSV,4,3,13,21,32,070,27,26,16,180,28,27,80,292,31,30,07,326,20*7B

$GPGSV,4,4,13,13,03,012,*49

$GPGGA,140305.1,5133.484515,N,00957.689332,E,1,10,0.7,237.5,M,47.0,M,,*5B

$GNGNS,140305.1,5133.484515,N,00957.689332,E,AA,16,0.7,237.5,47.0,,*69

$GPVTG,164.1,T,164.2,M,0.0,N,0.0,K,A*20

$GPGSA,A,3,07,08,10,15,16,18,20,21,26,27,,,1.2,0.7,1.0*33

$GNGSA,A,3,07,08,10,15,16,18,20,21,26,27,,,1.2,0.7,1.0*2D

$GNGSA,A,3,70,86,76,75,69,85,,,,,,,1.2,0.7,1.0*21

$GPRMC,140305.1,A,5133.484515,N,00957.689332,E,0.0,164.1,260619,0.1,W,A*1F

$PSTIS,*61

$GLGSV,3,1,09,70,43,106,24,86,50,299,33,76,35,262,26,75,11,216,28*6E

$GLGSV,3,2,09,69,27,033,35,85,56,061,25,71,14,156,26,77,24,327,*6A

$GLGSV,3,3,09,84,05,087,*5A

$GPGSV,4,1,13,07,10,296,34,08,39,295,33,10,55,136,31,11,01,268,17*72

$GPGSV,4,2,13,15,12,043,21,16,41,195,34,18,13,251,27,20,54,084,35*77

$GPGSV,4,3,13,21,32,070,30,26,16,180,26,27,80,292,33,30,07,326,19*7B

$GPGSV,4,4,13,13,03,012,*49

$GPGGA,140306.1,5133.487541,N,00957.687431,E,1,10,0.7,238.0,M,47.0,M,,*5A

$GNGNS,140306.1,5133.487541,N,00957.687431,E,AA,16,0.7,238.0,47.0,,*68

$GPVTG,164.1,T,164.2,M,0.0,N,0.0,K,A*20

$GPGSA,A,3,07,08,10,15,16,18,20,21,26,27,,,1.2,0.7,1.0*33

$GNGSA,A,3,07,08,10,15,16,18,20,21,26,27,,,1.2,0.7,1.0*2D

$GNGSA,A,3,70,86,76,75,69,85,,,,,,,1.2,0.7,1.0*21

$GPRMC,140306.1,A,5133.487541,N,00957.687431,E,0.0,164.1,260619,0.1,W,A*14

$PSTIS,*61

$GLGSV,3,1,09,70,43,106,23,86,50,299,34,76,35,262,26,75,11,216,32*65

$GLGSV,3,2,09,69,27,033,36,85,56,061,34,71,14,156,26,77,24,327,*69

$GLGSV,3,3,09,84,05,087,*5A

$GPGSV,4,1,13,07,10,296,32,08,39,295,35,10,55,136,30,11,01,268,18*7C

$GPGSV,4,2,13,15,12,043,26,16,41,195,32,18,13,251,25,20,54,084,31*70

$GPGSV,4,3,13,21,32,070,37,26,16,180,29,27,80,292,36,30,07,326,20*7C

$GPGSV,4,4,13,13,03,012,*49

$GPGGA,140307.1,5133.489824,N,00957.686583,E,1,10,0.7,234.7,M,47.0,M,,*59

$GNGNS,140307.1,5133.489824,N,00957.686583,E,AA,16,0.7,234.7,47.0,,*6B

$GPVTG,164.1,T,164.2,M,0.0,N,0.0,K,A*20

$GPGSA,A,3,07,08,10,15,16,18,20,21,26,27,,,1.2,0.7,1.0*33

$GNGSA,A,3,07,08,10,15,16,18,20,21,26,27,,,1.2,0.7,1.0*2D

$GNGSA,A,3,70,86,76,75,69,85,,,,,,,1.2,0.7,1.0*21

$GPRMC,140307.1,A,5133.489824,N,00957.686583,E,0.0,164.1,260619,0.1,W,A*1C

$PSTIS,*61

$GLGSV,3,1,09,70,43,106,20,86,50,299,33,76,35,262,29,75,11,216,33*6F

$GLGSV,3,2,09,69,27,033,30,85,56,061,31,71,14,156,28,77,24,327,*64

$GLGSV,3,3,09,84,05,087,*5A

$GPGSV,4,1,13,07,10,296,27,08,39,295,36,10,55,136,28,11,01,268,17*7D

$GPGSV,4,2,13,16,41,195,33,18,13,251,27,20,54,084,22,21,32,070,28*7A

$GPGSV,4,3,13,26,16,180,24,27,80,292,36,30,07,326,21,13,03,012,*73

$GPGSV,4,4,13,15,12,043,*4B

$GPGGA,140308.0,5133.487139,N,00957.691001,E,1,09,0.6,241.1,M,47.0,M,,*58

$GNGNS,140308.0,5133.487139,N,00957.691001,E,AA,15,0.6,241.1,47.0,,*61

$GPVTG,164.1,T,164.2,M,0.6,N,1.1,K,A*26

$GPGSA,A,2,07,08,10,16,18,20,21,26,27,,,,0.9,0.6,0.7*3B

$GNGSA,A,2,07,08,10,16,18,20,21,26,27,,,,0.9,0.6,0.7*25

$GNGSA,A,2,69,70,75,76,85,86,,,,,,,0.9,0.6,0.7*2D

$GPRMC,140308.0,A,5133.487139,N,00957.691001,E,0.6,164.1,260619,0.1,W,A*16

$PSTIS,*61

$GLGSV,3,1,09,70,43,106,19,86,50,299,31,76,35,262,29,75,11,216,26*63

$GLGSV,3,2,09,69,27,033,31,85,56,061,28,71,14,156,25,77,24,327,*60

$GLGSV,3,3,09,84,05,087,*5A

$GPGSV,4,1,13,07,10,296,29,08,39,295,31,10,55,136,31,11,01,268,16*7D

$GPGSV,4,2,13,16,41,195,31,18,13,251,27,20,54,084,27,21,32,070,23*76

$GPGSV,4,3,13,26,16,180,24,27,80,292,34,30,07,326,18,13,03,012,*7B

$GPGSV,4,4,13,15,12,043,*4B

$GPGGA,140309.0,5133.487426,N,00957.688893,E,1,09,0.6,242.5,M,47.0,M,,*5E

$GNGNS,140309.0,5133.487426,N,00957.688893,E,AA,15,0.6,242.5,47.0,,*67

$GPVTG,164.1,T,164.2,M,0.3,N,0.6,K,A*25

$GPGSA,A,2,07,08,10,16,18,20,21,26,27,,,,0.9,0.6,0.7*3B

$GNGSA,A,2,07,08,10,16,18,20,21,26,27,,,,0.9,0.6,0.7*25

$GNGSA,A,2,69,70,75,76,85,86,,,,,,,0.9,0.6,0.7*2D

$GPRMC,140309.0,A,5133.487426,N,00957.688893,E,0.3,164.1,260619,0.1,W,A*12

$PSTIS,*61

$GLGSV,3,1,09,70,43,106,25,86,50,299,28,76,35,262,35,75,11,216,26*69

$GLGSV,3,2,09,69,27,033,33,85,56,061,32,71,14,156,22,77,24,327,*6E

$GLGSV,3,3,09,84,05,087,*5A

$GPGSV,4,1,13,07,10,296,24,08,39,295,32,10,55,136,37,11,01,268,16*75

$GPGSV,4,2,13,16,41,195,32,18,13,251,31,20,54,084,31,21,32,070,21*77

$GPGSV,4,3,13,26,16,180,21,27,80,292,29,30,07,326,18,13,03,012,*72

$GPGSV,4,4,13,15,12,043,*4B

$GPGGA,140310.0,5133.487202,N,00957.688120,E,1,09,0.7,242.3,M,47.0,M,,*50

$GNGNS,140310.0,5133.487202,N,00957.688120,E,AA,15,0.7,242.3,47.0,,*69

$GPVTG,0.0,T,0.1,M,0.0,N,0.0,K,A*22

$GPGSA,A,2,07,08,10,16,18,20,21,26,27,,,,0.9,0.7,0.7*3A

$GNGSA,A,2,07,08,10,16,18,20,21,26,27,,,,0.9,0.7,0.7*24

$GNGSA,A,2,70,86,76,75,69,85,,,,,,,0.9,0.7,0.7*2C

$GPRMC,140310.0,A,5133.487202,N,00957.688120,E,0.0,0.0,260619,0.1,W,A*1A

$PSTIS,*61

$GLGSV,3,1,09,70,43,106,24,86,50,299,24,76,35,262,33,75,11,216,33*66

$GLGSV,3,2,09,69,27,033,30,85,56,061,32,71,14,156,20,77,24,327,*6F

$GLGSV,3,3,09,84,05,087,*5A

$GPGSV,4,1,13,07,10,296,24,08,39,295,26,10,55,136,38,11,01,268,16*7F

$GPGSV,4,2,13,16,41,195,31,18,13,251,31,20,54,084,29,21,32,070,20*7C

$GPGSV,4,3,13,26,16,180,19,27,80,292,32,30,07,326,17,13,03,012,*7C

$GPGSV,4,4,13,15,12,043,*4B

$GPGGA,140311.0,5133.486945,N,00957.687415,E,1,07,0.8,241.0,M,47.0,M,,*55

$GNGNS,140311.0,5133.486945,N,00957.687415,E,AA,13,0.8,241.0,47.0,,*64

$GPVTG,0.0,T,0.1,M,0.0,N,0.0,K,A*22

$GPGSA,A,2,07,08,10,16,18,20,27,,,,,,1.1,0.8,0.8*34

$GNGSA,A,2,07,08,10,16,18,20,27,,,,,,1.1,0.8,0.8*2A

$GNGSA,A,2,70,86,76,75,69,85,,,,,,,1.1,0.8,0.8*25

$GPRMC,140311.0,A,5133.486945,N,00957.687415,E,0.0,0.0,260619,0.1,W,A*1E

$PSTIS,*61

$GLGSV,3,1,09,70,43,106,23,86,50,299,30,76,35,262,29,75,11,216,24*69

$GLGSV,3,2,09,69,27,033,28,85,56,061,22,71,14,156,22,77,24,327,*65

$GLGSV,3,3,09,84,05,087,*5A

$GPGSV,4,1,13,07,10,296,20,08,39,295,22,10,55,136,31,11,01,268,15*75

$GPGSV,4,2,13,16,41,195,27,18,13,251,23,20,54,084,28,21,32,070,21*78

$GPGSV,4,3,13,26,16,180,19,27,80,292,32,30,07,326,18,13,03,012,*73

$GPGSV,4,4,13,15,12,043,*4B

$GPGGA,140312.0,5133.487346,N,00957.687862,E,1,08,0.7,236.7,M,47.0,M,,*55

$GNGNS,140312.0,5133.487346,N,00957.687862,E,AA,14,0.7,236.7,47.0,,*6C

$GPVTG,0.0,T,0.1,M,0.0,N,0.0,K,A*22

$GPGSA,A,2,07,08,10,16,18,20,21,27,,,,,1.0,0.7,0.7*36

$GNGSA,A,2,07,08,10,16,18,20,21,27,,,,,1.0,0.7,0.7*28

$GNGSA,A,2,70,86,76,75,69,85,,,,,,,1.0,0.7,0.7*24

$GPRMC,140312.0,A,5133.487346,N,00957.687862,E,0.0,0.0,260619,0.1,W,A*19

$PSTIS,*61

$GLGSV,3,1,09,70,43,106,22,86,50,299,28,76,35,262,29,75,11,216,21*64

$GLGSV,3,2,09,69,27,033,31,85,56,061,26,71,14,156,22,77,24,327,*69

$GLGSV,3,3,09,84,05,087,*5A

$GPGSV,4,1,13,07,10,296,18,08,39,295,25,10,55,136,32,11,01,268,16*79

$GPGSV,4,2,13,16,41,195,24,18,13,251,23,20,54,084,24,21,32,070,22*74

$GPGSV,4,3,13,26,16,180,15,27,80,292,31,30,07,326,19,13,03,012,*7D

$GPGSV,4,4,13,15,12,043,*4B

$GPGGA,140313.0,5133.487310,N,00957.688192,E,1,09,0.6,237.5,M,47.0,M,,*5D

$GNGNS,140313.0,5133.487310,N,00957.688192,E,AA,15,0.6,237.5,47.0,,*64

$GPVTG,0.0,T,0.1,M,0.0,N,0.0,K,A*22

$GPGSA,A,2,07,08,10,16,18,20,21,26,27,,,,0.9,0.6,0.7*3B

$GNGSA,A,2,07,08,10,16,18,20,21,26,27,,,,0.9,0.6,0.7*25

$GNGSA,A,2,70,86,76,75,69,85,,,,,,,0.9,0.6,0.7*2D

$GPRMC,140313.0,A,5133.487310,N,00957.688192,E,0.0,0.0,260619,0.1,W,A*12

$PSTIS,*61

$GLGSV,3,1,09,70,43,106,24,86,50,299,28,76,35,262,27,75,11,216,23*6E

$GLGSV,3,2,09,69,27,033,31,85,56,061,27,71,14,156,22,77,24,327,*68

$GLGSV,3,3,09,84,05,087,*5A

$GPGSV,4,1,13,07,10,296,17,08,39,295,27,10,55,136,31,11,01,268,15*74

$GPGSV,4,2,13,16,41,195,27,18,13,251,23,20,54,084,19,21,32,070,21*7A

$GPGSV,4,3,13,26,16,180,15,27,80,292,31,30,07,326,18,13,03,012,*7C

$GPGSV,4,4,13,15,12,043,*4B

$GPGGA,140314.0,5133.487736,N,00957.688350,E,1,08,0.7,236.1,M,47.0,M,,*53

$GNGNS,140314.0,5133.487736,N,00957.688350,E,AA,14,0.7,236.1,47.0,,*6A

$GPVTG,0.0,T,0.1,M,0.0,N,0.0,K,A*22

$GPGSA,A,2,07,08,10,16,18,20,21,27,,,,,1.0,0.7,0.7*36

$GNGSA,A,2,07,08,10,16,18,20,21,27,,,,,1.0,0.7,0.7*28

$GNGSA,A,2,70,86,76,75,69,85,,,,,,,1.0,0.7,0.7*24

$GPRMC,140314.0,A,5133.487736,N,00957.688350,E,0.0,0.0,260619,0.1,W,A*19

$PSTIS,*61

$GLGSV,3,1,09,70,43,106,23,86,50,299,28,76,35,262,28,75,11,216,25*60

$GLGSV,3,2,09,69,27,033,30,85,56,061,23,71,14,156,22,77,24,327,*6D

$GLGSV,3,3,09,84,05,087,*5A

$GPGSV,4,1,13,07,10,296,22,08,39,295,25,10,55,136,28,11,01,268,15*78

$GPGSV,4,2,13,16,41,195,23,18,13,251,21,20,54,084,22,21,32,070,21*74

$GPGSV,4,3,13,26,16,180,15,27,80,292,29,30,07,326,18,13,03,012,*75

$GPGSV,4,4,13,15,12,043,*4B

$GPGGA,140315.0,5133.487678,N,00957.688111,E,1,08,0.7,235.3,M,47.0,M,,*5F

$GNGNS,140315.0,5133.487678,N,00957.688111,E,AA,14,0.7,235.3,47.0,,*66

$GPVTG,0.0,T,0.1,M,0.0,N,0.0,K,A*22

$GPGSA,A,2,07,08,10,16,18,20,21,27,,,,,1.0,0.7,0.7*36

$GNGSA,A,2,07,08,10,16,18,20,21,27,,,,,1.0,0.7,0.7*28

$GNGSA,A,2,70,86,76,75,69,85,,,,,,,1.0,0.7,0.7*24

$GPRMC,140315.0,A,5133.487678,N,00957.688111,E,0.0,0.0,260619,0.1,W,A*14

$PSTIS,*61

$GLGSV,3,1,09,70,43,106,21,86,50,299,29,76,35,262,29,75,11,216,24*63

$GLGSV,3,2,09,69,27,033,30,85,56,061,23,71,14,156,15,77,24,327,*69

$GLGSV,3,3,09,84,05,087,*5A

$GPGSV,4,1,13,07,10,296,27,08,39,295,28,10,55,136,25,11,01,268,15*7D

$GPGSV,4,2,13,16,41,195,23,18,13,251,21,20,54,084,25,21,32,070,21*73

$GPGSV,4,3,13,26,16,180,15,27,80,292,28,30,07,326,20,13,03,012,*7F

$GPGSV,4,4,13,15,12,043,*4B

$GPGGA,140316.0,5133.487790,N,00957.687391,E,1,08,0.7,234.2,M,47.0,M,,*5E

$GNGNS,140316.0,5133.487790,N,00957.687391,E,AA,13,0.7,234.2,47.0,,*60

$GPVTG,0.0,T,0.1,M,0.0,N,0.0,K,A*22

$GPGSA,A,2,07,08,10,18,20,21,26,27,,,,,1.0,0.7,0.7*35

$GNGSA,A,2,07,08,10,18,20,21,26,27,,,,,1.0,0.7,0.7*2B

$GNGSA,A,2,70,86,76,75,69,,,,,,,,1.0,0.7,0.7*29

$GPRMC,140316.0,A,5133.487790,N,00957.687391,E,0.0,0.0,260619,0.1,W,A*15

$PSTIS,*61

$GLGSV,3,1,09,70,43,106,23,86,50,299,30,76,35,262,28,75,11,216,25*69

$GLGSV,3,2,09,69,27,033,29,85,56,061,23,71,14,156,16,77,24,327,*62

$GLGSV,3,3,09,84,05,087,*5A

$GPGSV,4,1,13,07,10,296,26,08,39,295,25,10,55,136,26,11,01,268,15*72

$GPGSV,4,2,13,16,41,195,15,18,13,251,23,20,54,084,18,21,32,070,21*7A

$GPGSV,4,3,13,26,16,180,18,27,80,292,30,30,07,326,20,13,03,012,*7B

$GPGSV,4,4,13,15,12,043,*4B

$GPGGA,140317.0,5133.487666,N,00957.687292,E,1,08,0.7,233.5,M,47.0,M,,*55

$GNGNS,140317.0,5133.487666,N,00957.687292,E,AA,13,0.7,233.5,47.0,,*6B

$GPVTG,0.0,T,0.1,M,0.0,N,0.0,K,A*22

$GPGSA,A,2,07,08,10,16,18,20,26,27,,,,,1.0,0.7,0.7*31

$GNGSA,A,2,07,08,10,16,18,20,26,27,,,,,1.0,0.7,0.7*2F

$GNGSA,A,2,70,86,76,75,69,,,,,,,,1.0,0.7,0.7*29

$GPRMC,140317.0,A,5133.487666,N,00957.687292,E,0.0,0.0,260619,0.1,W,A*1E

$PSTIS,*61

$GLGSV,3,1,09,70,43,106,25,86,50,299,30,76,35,262,29,75,11,216,26*6D

$GLGSV,3,2,09,69,27,033,30,85,56,061,16,71,14,156,17,77,24,327,*6D

$GLGSV,3,3,09,84,05,087,*5A

$GPGSV,4,1,13,07,10,296,26,08,39,295,26,10,55,136,24,11,01,268,15*73

$GPGSV,4,2,13,16,41,195,21,18,13,251,24,20,54,084,19,21,32,070,16*7F

$GPGSV,4,3,13,26,16,180,17,27,80,292,31,30,07,326,21,13,03,012,*74

$GPGSV,4,4,13,15,12,043,*4B

$GPGGA,140318.0,5133.487714,N,00957.686856,E,1,09,0.6,233.0,M,47.0,M,,*58

$GNGNS,140318.0,5133.487714,N,00957.686856,E,AA,15,0.6,233.0,47.0,,*61

$GPVTG,0.0,T,0.1,M,0.0,N,0.0,K,A*22

$GPGSA,A,2,07,08,10,16,18,20,21,26,27,,,,0.9,0.6,0.7*3B

$GNGSA,A,2,07,08,10,16,18,20,21,26,27,,,,0.9,0.6,0.7*25

$GNGSA,A,2,70,86,76,75,69,85,,,,,,,0.9,0.6,0.7*2D

$GPRMC,140318.0,A,5133.487714,N,00957.686856,E,0.0,0.0,260619,0.1,W,A*16

$PSTIS,*61

$GLGSV,3,1,09,70,43,106,23,86,50,299,26,76,35,262,28,75,11,216,24*6F

$GLGSV,3,2,09,69,27,033,29,85,56,061,20,71,14,156,17,77,24,327,*60

$GLGSV,3,3,09,84,05,087,*5A

$GPGSV,4,1,13,07,10,296,25,08,39,295,27,10,55,136,22,11,01,268,15*77

$GPGSV,4,2,13,16,41,195,20,18,13,251,22,20,54,084,19,21,32,070,20*7D

$GPGSV,4,3,13,26,16,180,17,27,80,292,32,30,07,326,21,13,03,012,*77

$GPGSV,4,4,13,15,12,043,*4B

$GPGGA,140319.0,5133.487845,N,00957.687032,E,1,07,0.7,232.9,M,47.0,M,,*5E

$GNGNS,140319.0,5133.487845,N,00957.687032,E,AA,13,0.7,232.9,47.0,,*6F

$GPVTG,0.0,T,0.1,M,0.0,N,0.0,K,A*22

$GPGSA,A,2,07,08,10,16,18,21,27,,,,,,1.0,0.7,0.7*34

$GNGSA,A,2,07,08,10,16,18,21,27,,,,,,1.0,0.7,0.7*2A

$GNGSA,A,2,70,86,76,75,69,85,,,,,,,1.0,0.7,0.7*24

$GPRMC,140319.0,A,5133.487845,N,00957.687032,E,0.0,0.0,260619,0.1,W,A*17

$PSTIS,*61

$GLGSV,3,1,09,70,43,106,23,86,50,299,29,76,35,262,28,75,11,216,24*60

$GLGSV,3,2,09,69,27,033,28,85,56,061,23,71,14,156,17,77,24,327,*62

$GLGSV,3,3,09,84,05,087,*5A

$GPGSV,4,1,13,07,10,296,27,08,39,295,23,10,55,136,25,11,01,268,13*70

$GPGSV,4,2,13,16,41,195,24,18,13,251,22,20,54,084,19,21,32,070,20*79

$GPGSV,4,3,13,26,16,180,17,27,80,292,32,30,07,326,21,13,03,012,*77

$GPGSV,4,4,13,15,12,043,*4B

$GPGGA,140320.0,5133.487703,N,00957.687010,E,1,08,0.7,233.1,M,47.0,M,,*5F

$GNGNS,140320.0,5133.487703,N,00957.687010,E,AA,14,0.7,233.1,47.0,,*66

$GPVTG,0.0,T,0.1,M,0.0,N,0.0,K,A*22

$GPGSA,A,2,07,08,10,16,18,21,26,27,,,,,0.9,0.7,0.7*38

$GNGSA,A,2,07,08,10,16,18,21,26,27,,,,,0.9,0.7,0.7*26

$GNGSA,A,2,70,86,76,75,69,85,,,,,,,0.9,0.7,0.7*2C

$GPRMC,140320.0,A,5133.487703,N,00957.687010,E,0.0,0.0,260619,0.1,W,A*10

$PSTIS,*61

$GLGSV,3,1,09,70,43,106,23,86,50,299,30,76,35,262,27,75,11,216,24*67

$GLGSV,3,2,09,69,27,033,30,85,56,061,23,71,14,156,20,77,24,327,*6F

$GLGSV,3,3,09,84,05,087,*5A

$GPGSV,4,1,13,07,10,296,28,08,39,295,23,10,55,136,25,11,01,268,13*7F

$GPGSV,4,2,13,16,41,195,25,18,13,251,23,20,54,084,19,21,32,070,17*7D

$GPGSV,4,3,13,26,16,180,19,27,80,292,32,30,07,326,21,13,03,012,*79

$GPGSV,4,4,13,15,12,043,*4B

$GPGGA,140321.0,5133.487739,N,00957.687000,E,1,08,0.7,233.3,M,47.0,M,,*54

$GNGNS,140321.0,5133.487739,N,00957.687000,E,AA,14,0.7,233.3,47.0,,*6D

$GPVTG,0.0,T,0.1,M,0.0,N,0.0,K,A*22

$GPGSA,A,2,07,08,10,16,18,21,26,27,,,,,0.9,0.7,0.7*38

$GNGSA,A,2,07,08,10,16,18,21,26,27,,,,,0.9,0.7,0.7*26

$GNGSA,A,2,70,86,76,75,69,85,,,,,,,0.9,0.7,0.7*2C

$GPRMC,140321.0,A,5133.487739,N,00957.687000,E,0.0,0.0,260619,0.1,W,A*19

$PSTIS,*61

$GLGSV,3,1,09,70,43,106,24,86,50,299,30,76,35,262,27,75,11,216,23*67

$GLGSV,3,2,09,69,27,033,31,85,56,061,20,71,14,156,19,77,24,327,*67

$GLGSV,3,3,09,84,05,087,*5A

$GPGSV,4,1,13,07,10,296,27,08,39,295,21,10,55,136,25,11,01,268,13*72

$GPGSV,4,2,13,16,41,195,27,18,13,251,21,21,32,070,17,26,16,180,16*77

$GPGSV,4,3,13,27,80,292,33,30,07,326,20,13,03,012,,15,12,043,*7B

$GPGSV,4,4,13,20,54,084,*44

$GPGGA,140322.0,5133.487734,N,00957.687031,E,1,08,0.7,233.3,M,47.0,M,,*58

$GNGNS,140322.0,5133.487734,N,00957.687031,E,AA,14,0.7,233.3,47.0,,*61

$GPVTG,0.0,T,0.1,M,0.0,N,0.0,K,A*22

$GPGSA,A,2,07,08,10,16,18,21,26,27,,,,,1.0,0.7,0.7*30

$GNGSA,A,2,07,08,10,16,18,21,26,27,,,,,1.0,0.7,0.7*2E

$GNGSA,A,2,70,86,76,75,69,85,,,,,,,1.0,0.7,0.7*24

$GPRMC,140322.0,A,5133.487734,N,00957.687031,E,0.0,0.0,260619,0.1,W,A*15

$PSTIS,*61

$GLGSV,3,1,09,70,43,106,26,86,50,299,26,76,35,262,27,75,11,216,25*64

$GLGSV,3,2,09,69,27,033,33,85,56,061,25,71,14,156,18,77,24,327,*61

$GLGSV,3,3,09,84,05,087,*5A

$GPGSV,4,1,13,07,10,296,28,08,39,295,27,10,55,136,19,11,01,268,13*74

$GPGSV,4,2,13,16,41,195,26,18,13,251,21,21,32,070,23,26,16,180,20*74

$GPGSV,4,3,13,27,80,292,35,30,07,326,20,13,03,012,,15,12,043,*7D

$GPGSV,4,4,13,20,54,084,*44

$GPGGA,140323.0,5133.487733,N,00957.687036,E,1,06,0.8,233.3,M,47.0,M,,*58

$GNGNS,140323.0,5133.487733,N,00957.687036,E,AA,12,0.8,233.3,47.0,,*69

$GPVTG,0.0,T,0.1,M,0.0,N,0.0,K,A*22

$GPGSA,A,2,07,08,16,18,21,27,,,,,,,1.1,0.8,0.7*3B

$GNGSA,A,2,07,08,16,18,21,27,,,,,,,1.1,0.8,0.7*25

$GNGSA,A,2,70,86,76,75,69,85,,,,,,,1.1,0.8,0.7*2A

$GPRMC,140323.0,A,5133.487733,N,00957.687036,E,0.0,0.0,260619,0.1,W,A*14

$PSTIS,*61

$GLGSV,3,1,09,70,43,106,25,86,50,299,22,76,35,262,28,75,11,216,28*61

$GLGSV,3,2,09,69,27,033,35,85,56,061,24,71,14,156,17,77,24,327,*69

$GLGSV,3,3,09,84,05,087,*5A

$GPGSV,4,1,13,07,10,296,26,08,39,295,25,10,55,136,24,11,01,268,15*70

$GPGSV,4,2,13,16,41,195,24,18,13,251,21,20,54,084,32,21,32,070,21*72

$GPGSV,4,3,13,26,16,180,22,27,80,292,34,30,07,326,19,13,03,012,*7C

$GPGSV,4,4,13,15,12,043,*4B

$GPGGA,140324.0,5133.487718,N,00957.687065,E,1,09,0.7,233.3,M,47.0,M,,*50

$GNGNS,140324.0,5133.487718,N,00957.687065,E,AA,15,0.7,233.3,47.0,,*69

$GPVTG,0.0,T,0.1,M,0.0,N,0.0,K,A*22

$GPGSA,A,2,07,08,10,16,18,20,21,26,27,,,,1.0,0.7,0.7*32

$GNGSA,A,2,07,08,10,16,18,20,21,26,27,,,,1.0,0.7,0.7*2C

$GNGSA,A,2,70,86,76,75,69,85,,,,,,,1.0,0.7,0.7*24

$GPRMC,140324.0,A,5133.487718,N,00957.687065,E,0.0,0.0,260619,0.1,W,A*1C

$PSTIS,*61

$GLGSV,3,1,09,70,43,106,25,86,50,299,21,76,35,262,25,75,11,216,26*61

$GLGSV,3,2,09,69,27,033,33,85,56,061,20,71,14,156,17,77,24,327,*6B

$GLGSV,3,3,09,84,05,087,*5A

$GPGSV,4,1,13,07,10,296,24,08,39,295,22,10,55,136,26,11,01,268,15*77

$GPGSV,4,2,13,16,41,195,25,18,13,251,18,20,54,084,29,21,32,070,21*73

$GPGSV,4,3,13,26,16,180,18,27,80,292,33,30,07,326,19,13,03,012,*72

$GPGSV,4,4,13,15,12,043,*4B

$GPGGA,140325.0,5133.487721,N,00957.687041,E,1,09,0.7,233.3,M,47.0,M,,*5D

$GNGNS,140325.0,5133.487721,N,00957.687041,E,AA,15,0.7,233.3,47.0,,*64

$GPVTG,0.0,T,0.1,M,0.0,N,0.0,K,A*22

$GPGSA,A,2,07,08,10,16,18,20,21,26,27,,,,1.0,0.7,0.7*32

$GNGSA,A,2,07,08,10,16,18,20,21,26,27,,,,1.0,0.7,0.7*2C

$GNGSA,A,2,70,86,76,75,69,85,,,,,,,1.0,0.7,0.7*24

$GPRMC,140325.0,A,5133.487721,N,00957.687041,E,0.0,0.0,260619,0.1,W,A*11

$PSTIS,*61

$GLGSV,3,1,09,70,43,106,26,86,50,299,21,76,35,262,24,75,11,216,25*60

$GLGSV,3,2,09,69,27,033,31,85,56,061,20,71,14,156,19,77,24,327,*67

$GLGSV,3,3,09,84,05,087,*5A

$GPGSV,4,1,13,07,10,296,26,08,39,295,24,10,55,136,26,11,01,268,15*73

$GPGSV,4,2,13,16,41,195,21,18,13,251,18,20,54,084,30,21,32,070,18*75

$GPGSV,4,3,13,26,16,180,18,27,80,292,35,30,07,326,19,13,03,012,*74

$GPGSV,4,4,13,15,12,043,*4B

$GPGGA,140326.0,5133.487718,N,00957.687045,E,1,06,0.8,233.3,M,47.0,M,,*50

$GNGNS,140326.0,5133.487718,N,00957.687045,E,AA,11,0.8,233.3,47.0,,*62

$GPVTG,0.0,T,0.1,M,0.0,N,0.0,K,A*22

$GPGSA,A,2,07,08,10,16,20,27,,,,,,,1.1,0.8,0.8*3D

$GNGSA,A,2,07,08,10,16,20,27,,,,,,,1.1,0.8,0.8*23

$GNGSA,A,2,70,86,76,75,69,,,,,,,,1.1,0.8,0.8*28

$GPRMC,140326.0,A,5133.487718,N,00957.687045,E,0.0,0.0,260619,0.1,W,A*1C

$PSTIS,*61

$GLGSV,3,1,09,70,43,106,25,86,50,299,19,76,35,262,23,75,11,216,20*6A

$GLGSV,3,2,09,69,27,033,30,85,56,061,18,71,14,156,19,77,24,327,*6D

$GLGSV,3,3,09,84,05,087,*5A

$GPGSV,4,1,13,07,10,296,25,08,39,295,23,10,55,136,26,11,01,268,15*77

$GPGSV,4,2,13,16,41,195,18,18,13,251,18,20,54,084,29,21,32,070,24*78

$GPGSV,4,3,13,26,16,180,18,27,80,292,36,30,07,326,14,13,03,012,*7A

$GPGSV,4,4,13,15,12,043,*4B

$GPGGA,140327.0,5133.487717,N,00957.687043,E,1,06,0.8,233.3,M,47.0,M,,*58

$GNGNS,140327.0,5133.487717,N,00957.687043,E,AA,10,0.8,233.3,47.0,,*6B

$GPVTG,0.0,T,0.1,M,0.0,N,0.0,K,A*22

$GPGSA,A,2,07,08,10,20,21,27,,,,,,,1.1,0.8,0.7*36

$GNGSA,A,2,07,08,10,20,21,27,,,,,,,1.1,0.8,0.7*28

$GNGSA,A,2,70,76,75,69,,,,,,,,,1.1,0.8,0.7*29

$GPRMC,140327.0,A,5133.487717,N,00957.687043,E,0.0,0.0,260619,0.1,W,A*14

$PSTIS,*61

$GLGSV,3,1,09,70,43,106,26,86,50,299,21,76,35,262,20,75,11,216,24*65

$GLGSV,3,2,09,69,27,033,30,85,56,061,21,71,14,156,14,77,24,327,*6A

$GLGSV,3,3,09,84,05,087,*5A

$GPGSV,4,1,13,07,10,296,24,08,39,295,20,10,55,136,26,11,01,268,16*76

$GPGSV,4,2,13,16,41,195,18,18,13,251,18,20,54,084,30,21,32,070,25*71

$GPGSV,4,3,13,26,16,180,15,27,80,292,35,30,07,326,14,13,03,012,*74

$GPGSV,4,4,13,15,12,043,*4B

$GPGGA,140328.0,5133.487716,N,00957.687038,E,1,06,0.9,233.3,M,47.0,M,,*5B

$GNGNS,140328.0,5133.487716,N,00957.687038,E,AA,11,0.9,233.3,47.0,,*69

$GPVTG,0.0,T,0.1,M,0.0,N,0.0,K,A*22

$GPGSA,A,2,07,08,10,20,21,27,,,,,,,1.1,0.9,0.7*37

$GNGSA,A,2,07,08,10,20,21,27,,,,,,,1.1,0.9,0.7*29

$GNGSA,A,2,70,86,75,69,85,,,,,,,,1.1,0.9,0.7*2A

$GPRMC,140328.0,A,5133.487716,N,00957.687038,E,0.0,0.0,260619,0.1,W,A*16

$PSTIS,*61

$GLGSV,3,1,09,70,43,106,27,86,50,299,17,76,35,262,19,75,11,216,18*64

$GLGSV,3,2,09,69,27,033,28,85,56,061,21,71,14,156,19,77,24,327,*6E

$GLGSV,3,3,09,84,05,087,*5A

$GPGSV,4,1,13,07,10,296,24,08,39,295,19,10,55,136,24,11,01,268,16*7E

$GPGSV,4,2,13,16,41,195,19,18,13,251,17,20,54,084,28,21,32,070,27*74

$GPGSV,4,3,13,26,16,180,16,27,80,292,33,30,07,326,16,13,03,012,*73

$GPGSV,4,4,13,15,12,043,*4B

$GPGGA,140329.0,5133.487714,N,00957.687037,E,1,09,0.6,233.3,M,47.0,M,,*57

$GNGNS,140329.0,5133.487714,N,00957.687037,E,AA,15,0.6,233.3,47.0,,*6E

$GPVTG,0.0,T,0.1,M,0.0,N,0.0,K,A*22

$GPGSA,A,2,07,08,10,16,18,20,21,26,27,,,,0.9,0.6,0.7*3B

$GNGSA,A,2,07,08,10,16,18,20,21,26,27,,,,0.9,0.6,0.7*25

$GNGSA,A,2,70,86,76,75,69,85,,,,,,,0.9,0.6,0.7*2D

$GPRMC,140329.0,A,5133.487714,N,00957.687037,E,0.0,0.0,260619,0.1,W,A*1A

$PSTIS,*61

$GLGSV,3,1,09,70,43,106,27,86,50,299,17,76,35,262,18,75,11,216,20*6E

$GLGSV,3,2,09,69,27,033,27,85,56,061,22,71,14,156,19,77,24,327,*62

$GLGSV,3,3,09,84,05,087,*5A

$GPGSV,4,1,13,07,10,296,26,08,39,295,25,10,55,136,27,11,01,268,16*70

$GPGSV,4,2,13,16,41,195,21,18,13,251,19,20,54,084,28,21,32,070,28*7E

$GPGSV,4,3,13,26,16,180,18,27,80,292,33,30,07,326,19,13,03,012,*72

$GPGSV,4,4,13,15,12,043,*4B

$GPGGA,140330.0,5133.487713,N,00957.687037,E,1,09,0.6,233.3,M,47.0,M,,*58

$GNGNS,140330.0,5133.487713,N,00957.687037,E,AA,15,0.6,233.3,47.0,,*61

$GPVTG,0.0,T,0.1,M,0.0,N,0.0,K,A*22

$GPGSA,A,2,07,08,10,16,18,20,21,26,27,,,,0.9,0.6,0.7*3B

$GNGSA,A,2,07,08,10,16,18,20,21,26,27,,,,0.9,0.6,0.7*25

$GNGSA,A,2,70,86,76,75,69,85,,,,,,,0.9,0.6,0.7*2D

$GPRMC,140330.0,A,5133.487713,N,00957.687037,E,0.0,0.0,260619,0.1,W,A*15

$PSTIS,*61

$GLGSV,3,1,09,70,43,106,25,86,50,299,19,76,35,262,21,75,11,216,24*6C

$GLGSV,3,2,09,69,27,033,24,85,56,061,19,71,14,156,16,77,24,327,*66

$GLGSV,3,3,09,84,05,087,*5A

$GPGSV,4,1,13,07,10,296,23,08,39,295,28,10,55,136,23,11,01,268,16*7C

$GPGSV,4,2,13,16,41,195,23,18,13,251,21,20,54,084,28,21,32,070,26*79

$GPGSV,4,3,13,26,16,180,17,27,80,292,33,30,07,326,19,13,03,012,*7D

$GPGSV,4,4,13,15,12,043,*4B

$GPGGA,140331.0,5133.487712,N,00957.687032,E,1,09,0.7,233.3,M,47.0,M,,*5C

$GNGNS,140331.0,5133.487712,N,00957.687032,E,AA,15,0.7,233.3,47.0,,*65

$GPVTG,0.0,T,0.1,M,0.0,N,0.0,K,A*22

$GPGSA,A,2,07,08,10,16,18,20,21,26,27,,,,1.0,0.7,0.7*32

$GNGSA,A,2,07,08,10,16,18,20,21,26,27,,,,1.0,0.7,0.7*2C

$GNGSA,A,2,70,86,76,75,69,85,,,,,,,1.0,0.7,0.7*24

$GPRMC,140331.0,A,5133.487712,N,00957.687032,E,0.0,0.0,260619,0.1,W,A*10

$PSTIS,*61

$GLGSV,3,1,09,70,43,106,23,86,50,299,25,76,35,262,18,75,11,216,24*6F

$GLGSV,3,2,09,69,27,033,28,85,56,061,16,71,14,156,17,77,24,327,*64

$GLGSV,3,3,09,84,05,087,*5A

$GPGSV,4,1,13,07,10,296,25,08,39,295,27,10,55,136,27,11,01,268,16*71

$GPGSV,4,2,13,16,41,195,25,18,13,251,21,20,54,084,29,21,32,070,22*7A

$GPGSV,4,3,13,26,16,180,17,27,80,292,35,30,07,326,15,13,03,012,*77

$GPGSV,4,4,13,15,12,043,*4B

$GPGGA,140332.0,5133.487712,N,00957.687029,E,1,08,0.7,233.4,M,47.0,M,,*53

$GNGNS,140332.0,5133.487712,N,00957.687029,E,AA,14,0.7,233.4,47.0,,*6A

$GPVTG,0.0,T,0.1,M,0.0,N,0.0,K,A*22

$GPGSA,A,2,07,08,10,16,18,20,21,27,,,,,1.0,0.7,0.7*36

$GNGSA,A,2,07,08,10,16,18,20,21,27,,,,,1.0,0.7,0.7*28

$GNGSA,A,2,70,86,76,75,69,85,,,,,,,1.0,0.7,0.7*24

$GPRMC,140332.0,A,5133.487712,N,00957.687029,E,0.0,0.0,260619,0.1,W,A*19

$PSTIS,*61

$GLGSV,3,1,09,70,43,106,22,86,50,299,21,76,35,262,20,75,11,216,25*60

$GLGSV,3,2,09,69,27,033,28,85,56,061,20,71,14,156,18,77,24,327,*6E

$GLGSV,3,3,09,84,05,087,*5A

$GPGSV,4,1,13,07,10,296,26,08,39,295,29,10,55,136,23,11,01,268,16*78

$GPGSV,4,2,13,16,41,195,27,18,13,251,23,20,54,084,25,21,32,070,27*73

$GPGSV,4,3,13,26,16,180,16,27,80,292,32,30,07,326,15,13,03,012,*71

$GPGSV,4,4,13,15,12,043,*4B

$GPGGA,140333.0,5133.487713,N,00957.687030,E,1,09,0.7,233.4,M,47.0,M,,*5A

$GNGNS,140333.0,5133.487713,N,00957.687030,E,AA,15,0.7,233.4,47.0,,*63

$GPVTG,0.0,T,0.1,M,0.0,N,0.0,K,A*22

$GPGSA,A,2,07,08,10,16,18,20,21,26,27,,,,1.0,0.7,0.7*32

$GNGSA,A,2,07,08,10,16,18,20,21,26,27,,,,1.0,0.7,0.7*2C

$GNGSA,A,2,70,86,76,75,69,85,,,,,,,1.0,0.7,0.7*24

$GPRMC,140333.0,A,5133.487713,N,00957.687030,E,0.0,0.0,260619,0.1,W,A*11

$PSTIS,*61

$GLGSV,3,1,09,70,43,106,24,86,50,299,21,76,35,262,23,75,11,216,27*67

$GLGSV,3,2,09,69,27,033,29,85,56,061,20,71,14,156,23,77,24,327,*67

$GLGSV,3,3,09,84,05,087,*5A

$GPGSV,4,1,13,07,10,296,25,08,39,295,28,10,55,136,26,11,01,268,16*7F

$GPGSV,4,2,13,16,41,195,25,18,13,251,21,20,54,084,27,21,32,070,25*73

$GPGSV,4,3,13,26,16,180,16,27,80,292,33,30,07,326,15,13,03,012,*70

$GPGSV,4,4,13,15,12,043,*4B

$GPGGA,140334.0,5133.487716,N,00957.687027,E,1,09,0.7,233.4,M,47.0,M,,*5E

$GNGNS,140334.0,5133.487716,N,00957.687027,E,AA,14,0.7,233.4,47.0,,*66

$GPVTG,0.0,T,0.1,M,0.0,N,0.0,K,A*22

$GPGSA,A,2,07,08,10,16,18,20,21,26,27,,,,1.0,0.7,0.7*32

$GNGSA,A,2,07,08,10,16,18,20,21,26,27,,,,1.0,0.7,0.7*2C

$GNGSA,A,2,70,86,76,75,69,,,,,,,,1.0,0.7,0.7*29

$GPRMC,140334.0,A,5133.487716,N,00957.687027,E,0.0,0.0,260619,0.1,W,A*15

$PSTIS,*61

$GLGSV,3,1,09,70,43,106,25,86,50,299,23,76,35,262,24,75,11,216,27*63

$GLGSV,3,2,09,69,27,033,30,85,56,061,20,71,14,156,22,77,24,327,*6E

$GLGSV,3,3,09,84,05,087,*5A

$GPGSV,4,1,13,07,10,296,24,08,39,295,27,10,55,136,31,11,01,268,16*77

$GPGSV,4,2,13,16,41,195,18,18,13,251,21,20,54,084,31,21,32,070,24*7B

$GPGSV,4,3,13,26,16,180,16,27,80,292,35,30,07,326,15,13,03,012,*76

$GPGSV,4,4,13,15,12,043,*4B

$GPGGA,140335.0,5133.487716,N,00957.687025,E,1,08,0.7,233.4,M,47.0,M,,*5C

$GNGNS,140335.0,5133.487716,N,00957.687025,E,AA,13,0.7,233.4,47.0,,*62

$GPVTG,0.0,T,0.1,M,0.0,N,0.0,K,A*22

$GPGSA,A,2,07,08,10,16,18,20,21,27,,,,,1.0,0.7,0.7*36

$GNGSA,A,2,07,08,10,16,18,20,21,27,,,,,1.0,0.7,0.7*28

$GNGSA,A,2,70,86,76,75,69,,,,,,,,1.0,0.7,0.7*29

$GPRMC,140335.0,A,5133.487716,N,00957.687025,E,0.0,0.0,260619,0.1,W,A*16

$PSTIS,*61

$GLGSV,3,1,09,70,43,106,22,86,50,299,22,76,35,262,23,75,11,216,26*63

$GLGSV,3,2,09,69,27,033,28,85,56,061,16,71,14,156,17,77,24,327,*64

$GLGSV,3,3,09,84,05,087,*5A

$GPGSV,4,1,13,07,10,296,25,08,39,295,26,10,55,136,31,11,01,268,16*77

$GPGSV,4,2,13,16,41,195,24,18,13,251,17,20,54,084,30,21,32,070,21*75

$GPGSV,4,3,13,26,16,180,16,27,80,292,34,30,07,326,15,13,03,012,*77

$GPGSV,4,4,13,15,12,043,*4B

$GPGGA,140336.0,5133.487717,N,00957.687019,E,1,09,0.7,233.4,M,47.0,M,,*50

$GNGNS,140336.0,5133.487717,N,00957.687019,E,AA,15,0.7,233.4,47.0,,*69

$GPVTG,0.0,T,0.1,M,0.0,N,0.0,K,A*22

$GPGSA,A,2,07,08,10,16,18,20,21,26,27,,,,1.0,0.7,0.7*32

$GNGSA,A,2,07,08,10,16,18,20,21,26,27,,,,1.0,0.7,0.7*2C

$GNGSA,A,2,70,86,76,75,69,85,,,,,,,1.0,0.7,0.7*24

$GPRMC,140336.0,A,5133.487717,N,00957.687019,E,0.0,0.0,260619,0.1,W,A*1B

$PSTIS,*61

$GLGSV,3,1,09,70,43,106,19,86,50,299,19,76,35,262,21,75,11,216,26*61

$GLGSV,3,2,09,69,27,033,28,85,56,061,26,71,14,156,20,77,24,327,*63

$GLGSV,3,3,09,84,05,087,*5A

$GPGSV,4,1,13,07,10,296,22,08,39,295,26,10,55,136,30,11,01,268,16*71

$GPGSV,4,2,13,16,41,195,25,18,13,251,21,20,54,084,29,21,32,070,24*7C

$GPGSV,4,3,13,26,16,180,16,27,80,292,32,30,07,326,15,13,03,012,*71

$GPGSV,4,4,13,15,12,043,*4B

$GPGGA,140337.0,5133.487715,N,00957.687021,E,1,08,0.7,233.4,M,47.0,M,,*59

$GNGNS,140337.0,5133.487715,N,00957.687021,E,AA,14,0.7,233.4,47.0,,*60

$GPVTG,0.0,T,0.1,M,0.0,N,0.0,K,A*22

$GPGSA,A,2,07,08,10,16,18,20,21,27,,,,,1.0,0.7,0.7*36

$GNGSA,A,2,07,08,10,16,18,20,21,27,,,,,1.0,0.7,0.7*28

$GNGSA,A,2,70,86,76,75,69,85,,,,,,,1.0,0.7,0.7*24

$GPRMC,140337.0,A,5133.487715,N,00957.687021,E,0.0,0.0,260619,0.1,W,A*13

$PSTIS,*61

$GLGSV,3,1,09,70,43,106,19,86,50,299,19,76,35,262,21,75,11,216,27*60

$GLGSV,3,2,09,69,27,033,27,85,56,061,29,71,14,156,18,77,24,327,*68

$GLGSV,3,3,09,84,05,087,*5A

$GPGSV,4,1,13,07,10,296,22,08,39,295,26,10,55,136,32,11,01,268,16*73

$GPGSV,4,2,13,16,41,195,22,18,13,251,23,20,54,084,23,21,32,070,24*73

$GPGSV,4,3,13,26,16,180,16,27,80,292,29,30,07,326,15,13,03,012,*7B

$GPGSV,4,4,13,15,12,043,*4B

$GPGGA,140338.0,5133.487718,N,00957.687023,E,1,09,0.7,233.4,M,47.0,M,,*58

$GNGNS,140338.0,5133.487718,N,00957.687023,E,AA,12,0.7,233.4,47.0,,*66

$GPVTG,0.0,T,0.1,M,0.0,N,0.0,K,A*22

$GPGSA,A,2,07,08,10,16,18,20,21,26,27,,,,1.0,0.7,0.7*32

$GNGSA,A,2,07,08,10,16,18,20,21,26,27,,,,1.0,0.7,0.7*2C

$GNGSA,A,2,75,69,85,,,,,,,,,,1.0,0.7,0.7*2C

$GPRMC,140338.0,A,5133.487718,N,00957.687023,E,0.0,0.0,260619,0.1,W,A*13

$PSTIS,*61

$GLGSV,3,1,09,70,43,106,19,86,50,299,19,76,35,262,21,75,11,216,27*60

$GLGSV,3,2,09,69,27,033,29,85,56,061,29,71,14,156,18,77,24,327,*66

$GLGSV,3,3,09,84,05,087,*5A

$GPGSV,4,1,13,07,10,296,22,08,39,295,28,10,55,136,34,11,01,268,16*7B

$GPGSV,4,2,13,16,41,195,22,18,13,251,24,20,54,084,25,21,32,070,26*70

$GPGSV,4,3,13,26,16,180,16,27,80,292,24,30,07,326,15,13,03,012,*76

$GPGSV,4,4,13,15,12,043,*4B

$GPGGA,140339.0,5133.487720,N,00957.687020,E,1,08,0.8,233.4,M,47.0,M,,*5F

$GNGNS,140339.0,5133.487720,N,00957.687020,E,AA,12,0.8,233.4,47.0,,*60

$GPVTG,0.0,T,0.1,M,0.0,N,0.0,K,A*22

$GPGSA,A,2,07,08,10,16,18,20,21,27,,,,,1.1,0.8,0.7*38

$GNGSA,A,2,07,08,10,16,18,20,21,27,,,,,1.1,0.8,0.7*26

$GNGSA,A,2,86,75,69,85,,,,,,,,,1.1,0.8,0.7*2C

$GPRMC,140339.0,A,5133.487720,N,00957.687020,E,0.0,0.0,260619,0.1,W,A*1A

$PSTIS,*61

$GLGSV,3,1,09,70,43,106,19,86,50,299,23,76,35,262,13,75,11,216,27*68

$GLGSV,3,2,09,69,27,033,29,85,56,061,28,71,14,156,21,77,24,327,*6D

$GLGSV,3,3,09,84,05,087,*5A

$GPGSV,4,1,13,07,10,296,20,08,39,295,28,10,55,136,33,11,01,268,16*7E

$GPGSV,4,2,13,16,41,195,22,18,13,251,23,20,54,084,28,21,32,070,25*79

$GPGSV,4,3,13,26,16,180,15,27,80,292,27,30,07,326,15,13,03,012,*76

$GPGSV,4,4,13,15,12,043,*4B

$GPGGA,140340.0,5133.487720,N,00957.687020,E,1,09,0.7,233.4,M,47.0,M,,*5F

$GNGNS,140340.0,5133.487720,N,00957.687020,E,AA,14,0.7,233.4,47.0,,*67

$GPVTG,0.0,T,0.1,M,0.0,N,0.0,K,A*22

$GPGSA,A,2,07,08,10,16,18,20,21,26,27,,,,1.0,0.7,0.7*32

$GNGSA,A,2,07,08,10,16,18,20,21,26,27,,,,1.0,0.7,0.7*2C

$GNGSA,A,2,86,76,75,69,85,,,,,,,,1.0,0.7,0.7*23

$GPRMC,140340.0,A,5133.487720,N,00957.687020,E,0.0,0.0,260619,0.1,W,A*14

$PSTIS,*61

$GLGSV,3,1,09,70,43,106,14,86,50,299,25,76,35,262,13,75,11,216,24*60

$GLGSV,3,2,09,69,27,033,27,85,56,061,27,71,14,156,21,77,24,327,*6C

$GLGSV,3,3,09,84,05,087,*5A

$GPGSV,4,1,13,07,10,296,20,08,39,295,27,10,55,136,32,11,01,268,16*70

$GPGSV,4,2,13,16,41,195,30,18,13,251,22,20,54,084,27,21,32,070,24*75

$GPGSV,4,3,13,26,16,180,15,27,80,292,30,30,07,326,15,13,03,012,*70

$GPGSV,4,4,13,15,12,043,*4B

$GPGGA,140341.0,5133.487722,N,00957.687017,E,1,07,0.8,233.4,M,47.0,M,,*59

$GNGNS,140341.0,5133.487722,N,00957.687017,E,AA,12,0.8,233.4,47.0,,*69

$GPVTG,0.0,T,0.1,M,0.0,N,0.0,K,A*22

$GPGSA,A,2,08,10,16,18,20,21,27,,,,,,1.1,0.8,0.8*30

$GNGSA,A,2,08,10,16,18,20,21,27,,,,,,1.1,0.8,0.8*2E

$GNGSA,A,2,70,86,75,69,85,,,,,,,,1.1,0.8,0.8*24

$GPRMC,140341.0,A,5133.487722,N,00957.687017,E,0.0,0.0,260619,0.1,W,A*13

$PSTIS,*61

$GLGSV,3,1,09,70,43,106,21,86,50,299,19,76,35,262,17,75,11,216,24*6D

$GLGSV,3,2,09,69,27,033,28,85,56,061,22,71,14,156,22,77,24,327,*65

$GLGSV,3,3,09,84,05,087,*5A

$GPGSV,4,1,13,07,10,296,18,08,39,295,28,10,55,136,33,11,01,268,12*71

$GPGSV,4,2,13,16,41,195,27,18,13,251,18,20,54,084,28,21,32,070,25*74

$GPGSV,4,3,13,26,16,180,15,27,80,292,31,30,07,326,15,13,03,012,*71

$GPGSV,4,4,13,15,12,043,*4B

$GPGGA,140342.0,5133.487723,N,00957.687013,E,1,08,0.7,233.4,M,47.0,M,,*5F

$GNGNS,140342.0,5133.487723,N,00957.687013,E,AA,14,0.7,233.4,47.0,,*66

$GPVTG,0.0,T,0.1,M,0.0,N,0.0,K,A*22

$GPGSA,A,2,07,08,10,16,18,20,21,27,,,,,1.0,0.7,0.7*36

$GNGSA,A,2,07,08,10,16,18,20,21,27,,,,,1.0,0.7,0.7*28

$GNGSA,A,2,70,86,76,75,69,85,,,,,,,1.0,0.7,0.7*24

$GPRMC,140342.0,A,5133.487723,N,00957.687013,E,0.0,0.0,260619,0.1,W,A*15

$PSTIS,*61

$GLGSV,3,1,09,70,43,106,22,86,50,299,22,76,35,262,24,75,11,216,23*61

$GLGSV,3,2,09,69,27,033,26,85,56,061,20,71,14,156,22,77,24,327,*69

$GLGSV,3,3,09,84,05,087,*5A

$GPGSV,4,1,13,07,10,296,25,08,39,295,27,10,55,136,33,11,01,268,12*70

$GPGSV,4,2,13,16,41,195,24,18,13,251,21,20,54,084,27,21,32,070,22*75

$GPGSV,4,3,13,26,16,180,15,27,80,292,29,30,07,326,15,13,03,012,*78

$GPGSV,4,4,13,15,12,043,*4B

$GPGGA,140343.0,5133.487723,N,00957.687016,E,1,08,0.8,233.4,M,47.0,M,,*54

$GNGNS,140343.0,5133.487723,N,00957.687016,E,AA,14,0.8,233.4,47.0,,*6D

$GPVTG,0.0,T,0.1,M,0.0,N,0.0,K,A*22

$GPGSA,A,2,07,08,10,16,18,20,21,27,,,,,1.1,0.8,0.7*38

$GNGSA,A,2,07,08,10,16,18,20,21,27,,,,,1.1,0.8,0.7*26

$GNGSA,A,2,70,86,76,75,69,85,,,,,,,1.1,0.8,0.7*2A

$GPRMC,140343.0,A,5133.487723,N,00957.687016,E,0.0,0.0,260619,0.1,W,A*11

$PSTIS,*61

$GLGSV,3,1,09,70,43,106,19,86,50,299,22,76,35,262,22,75,11,216,24*68

$GLGSV,3,2,09,69,27,033,20,85,56,061,24,71,14,156,18,77,24,327,*62

$GLGSV,3,3,09,84,05,087,*5A

$GPGSV,4,1,13,07,10,296,26,08,39,295,28,10,55,136,34,11,01,268,12*7B

$GPGSV,4,2,13,16,41,195,26,18,13,251,20,20,54,084,25,21,32,070,23*75

$GPGSV,4,3,13,26,16,180,15,27,80,292,28,30,07,326,10,13,03,012,*7C

$GPGSV,4,4,13,15,12,043,*4B

$GPGGA,140344.0,5133.487724,N,00957.687017,E,1,08,0.8,233.4,M,47.0,M,,*55

$GNGNS,140344.0,5133.487724,N,00957.687017,E,AA,13,0.8,233.4,47.0,,*6B

$GPVTG,0.0,T,0.1,M,0.0,N,0.0,K,A*22

$GPGSA,A,2,07,08,10,16,18,20,21,27,,,,,1.1,0.8,0.7*38

$GNGSA,A,2,07,08,10,16,18,20,21,27,,,,,1.1,0.8,0.7*26

$GNGSA,A,2,70,76,75,69,85,,,,,,,,1.1,0.8,0.7*24

$GPRMC,140344.0,A,5133.487724,N,00957.687017,E,0.0,0.0,260619,0.1,W,A*10

$PSTIS,*61

$GLGSV,3,1,09,70,43,106,18,86,50,299,14,76,35,262,22,75,11,216,24*6C

$GLGSV,3,2,09,69,27,033,22,85,56,061,25,71,14,156,17,77,24,327,*6E

$GLGSV,3,3,09,84,05,087,*5A

$GPGSV,4,1,13,07,10,296,25,08,39,295,27,10,55,136,32,11,01,268,12*71

$GPGSV,4,2,13,16,41,195,25,18,13,251,19,20,54,084,22,21,32,070,24*7C

$GPGSV,4,3,13,26,16,180,15,27,80,292,22,30,07,326,10,13,03,012,*76

$GPGSV,4,4,13,15,12,043,*4B

$GPGGA,140345.0,5133.487724,N,00957.687016,E,1,08,0.8,233.4,M,47.0,M,,*55

$GNGNS,140345.0,5133.487724,N,00957.687016,E,AA,13,0.8,233.4,47.0,,*6B

$GPVTG,0.0,T,0.1,M,0.0,N,0.0,K,A*22

$GPGSA,A,2,07,08,10,16,18,20,21,27,,,,,1.1,0.8,0.7*38

$GNGSA,A,2,07,08,10,16,18,20,21,27,,,,,1.1,0.8,0.7*26

$GNGSA,A,2,70,86,75,69,85,,,,,,,,1.1,0.8,0.7*2B

$GPRMC,140345.0,A,5133.487724,N,00957.687016,E,0.0,0.0,260619,0.1,W,A*10

$PSTIS,*61

$GLGSV,3,1,09,70,43,106,17,86,50,299,14,76,35,262,16,75,11,216,25*65

$GLGSV,3,2,09,69,27,033,28,85,56,061,22,71,14,156,17,77,24,327,*63

$GLGSV,3,3,09,84,05,087,*5A

$GPGSV,4,1,13,07,10,296,27,08,39,295,26,10,55,136,29,11,01,268,12*78

$GPGSV,4,2,13,16,41,195,21,18,13,251,19,20,54,084,25,21,32,070,23*78

$GPGSV,4,3,13,26,16,180,15,27,80,292,22,30,07,326,10,13,03,012,*76

$GPGSV,4,4,13,15,12,043,*4B

$GPGGA,140346.0,5133.487724,N,00957.687013,E,1,07,0.8,233.4,M,47.0,M,,*5C

$GNGNS,140346.0,5133.487724,N,00957.687013,E,AA,12,0.8,233.4,47.0,,*6C

$GPVTG,0.0,T,0.1,M,0.0,N,0.0,K,A*22

$GPGSA,A,2,07,08,10,16,20,21,27,,,,,,1.2,0.8,0.8*3D

$GNGSA,A,2,07,08,10,16,20,21,27,,,,,,1.2,0.8,0.8*23

$GNGSA,A,2,70,76,75,69,85,,,,,,,,1.2,0.8,0.8*28

$GPRMC,140346.0,A,5133.487724,N,00957.687013,E,0.0,0.0,260619,0.1,W,A*16

$PSTIS,*61

$GLGSV,3,1,09,70,43,106,18,86,50,299,15,76,35,262,19,75,11,216,26*67

$GLGSV,3,2,09,69,27,033,28,85,56,061,18,71,14,156,17,77,24,327,*6A

$GLGSV,3,3,09,84,05,087,*5A

$GPGSV,4,1,13,07,10,296,25,08,39,295,28,10,55,136,28,11,01,268,12*75

$GPGSV,4,2,13,16,41,195,23,18,13,251,19,20,54,084,27,21,32,070,21*7A

$GPGSV,4,3,13,26,16,180,15,27,80,292,24,30,07,326,10,13,03,012,*70

$GPGSV,4,4,13,15,12,043,*4B

$GPGGA,140347.0,5133.487727,N,00957.687012,E,1,07,0.7,233.4,M,47.0,M,,*50

$GNGNS,140347.0,5133.487727,N,00957.687012,E,AA,13,0.7,233.4,47.0,,*61

$GPVTG,0.0,T,0.1,M,0.0,N,0.0,K,A*22

$GPGSA,A,2,07,08,10,16,20,21,27,,,,,,1.0,0.7,0.7*3F

$GNGSA,A,2,07,08,10,16,20,21,27,,,,,,1.0,0.7,0.7*21

$GNGSA,A,2,70,86,76,75,69,85,,,,,,,1.0,0.7,0.7*24

$GPRMC,140347.0,A,5133.487727,N,00957.687012,E,0.0,0.0,260619,0.1,W,A*15

$PSTIS,*61

$GLGSV,3,1,09,70,43,106,22,86,50,299,18,76,35,262,16,75,11,216,22*68

$GLGSV,3,2,09,69,27,033,27,85,56,061,25,71,14,156,15,77,24,327,*69

$GLGSV,3,3,09,84,05,087,*5A

$GPGSV,4,1,13,07,10,296,23,08,39,295,25,10,55,136,30,11,01,268,12*77

$GPGSV,4,2,13,16,41,195,22,18,13,251,15,20,54,084,24,21,32,070,23*76

$GPGSV,4,3,13,26,16,180,12,27,80,292,26,30,07,326,10,13,03,012,*75

$GPGSV,4,4,13,15,12,043,*4B

$GPGGA,140348.0,5133.487728,N,00957.687009,E,1,09,0.7,233.4,M,47.0,M,,*54

$GNGNS,140348.0,5133.487728,N,00957.687009,E,AA,15,0.7,233.4,47.0,,*6D

$GPVTG,0.0,T,0.1,M,0.0,N,0.0,K,A*22

$GPGSA,A,2,07,08,10,16,18,20,21,26,27,,,,1.0,0.7,0.7*32

$GNGSA,A,2,07,08,10,16,18,20,21,26,27,,,,1.0,0.7,0.7*2C

$GNGSA,A,2,70,86,76,75,69,85,,,,,,,1.0,0.7,0.7*24

$GPRMC,140348.0,A,5133.487728,N,00957.687009,E,0.0,0.0,260619,0.1,W,A*1F

$PSTIS,*61

$GLGSV,3,1,09,70,43,106,24,86,50,299,18,76,35,262,18,75,11,216,23*61

$GLGSV,3,2,09,69,27,033,26,85,56,061,20,71,14,156,15,77,24,327,*6D

$GLGSV,3,3,09,84,05,087,*5A

$GPGSV,4,1,13,07,10,296,25,08,39,295,24,10,55,136,30,11,01,268,13*71

$GPGSV,4,2,13,16,41,195,21,18,13,251,18,20,54,084,19,21,32,070,25*70

$GPGSV,4,3,13,26,16,180,12,27,80,292,28,30,07,326,10,13,03,012,*7B

$GPGSV,4,4,13,15,12,043,*4B

$GPGGA,140349.0,5133.487727,N,00957.687009,E,1,08,0.8,233.4,M,47.0,M,,*54

$GNGNS,140349.0,5133.487727,N,00957.687009,E,AA,14,0.8,233.4,47.0,,*6D

$GPVTG,0.0,T,0.1,M,0.0,N,0.0,K,A*22

$GPGSA,A,2,07,08,10,16,18,20,21,27,,,,,1.1,0.8,0.7*38

$GNGSA,A,2,07,08,10,16,18,20,21,27,,,,,1.1,0.8,0.7*26

$GNGSA,A,2,70,86,76,75,69,85,,,,,,,1.1,0.8,0.7*2A

$GPRMC,140349.0,A,5133.487727,N,00957.687009,E,0.0,0.0,260619,0.1,W,A*11

$PSTIS,*61

$GLGSV,3,1,09,70,43,106,22,86,50,299,24,76,35,262,28,75,11,216,26*6E

$GLGSV,3,2,09,69,27,033,27,85,56,061,25,71,14,156,15,77,24,327,*69

$GLGSV,3,3,09,84,05,087,*5A

$GPGSV,4,1,13,07,10,296,20,08,39,295,24,10,55,136,28,11,01,268,13*7D

$GPGSV,4,2,13,16,41,195,22,18,13,251,17,20,54,084,25,21,32,070,28*7E

$GPGSV,4,3,13,26,16,180,12,27,80,292,28,30,07,326,10,13,03,012,*7B

$GPGSV,4,4,13,15,12,043,*4B

$GPGGA,140350.0,5133.487724,N,00957.687003,E,1,08,0.8,233.4,M,47.0,M,,*55

$GNGNS,140350.0,5133.487724,N,00957.687003,E,AA,14,0.8,233.4,47.0,,*6C

$GPVTG,0.0,T,0.1,M,0.0,N,0.0,K,A*22

$GPGSA,A,2,07,08,10,16,18,20,21,27,,,,,1.1,0.8,0.7*38

$GNGSA,A,2,07,08,10,16,18,20,21,27,,,,,1.1,0.8,0.7*26

$GNGSA,A,2,70,86,76,75,69,85,,,,,,,1.1,0.8,0.7*2A

$GPRMC,140350.0,A,5133.487724,N,00957.687003,E,0.0,0.0,260619,0.1,W,A*10

$PSTIS,*61

$GLGSV,3,1,09,70,43,106,21,86,50,299,24,76,35,262,32,75,11,216,27*67

$GLGSV,3,2,09,69,27,033,32,85,56,061,28,71,14,156,14,77,24,327,*61

$GLGSV,3,3,09,84,05,087,*5A

$GPGSV,4,1,13,07,10,296,24,08,39,295,23,10,55,136,29,11,01,268,13*7F

$GPGSV,4,2,13,16,41,195,26,18,13,251,25,20,54,084,29,21,32,070,27*78

$GPGSV,4,3,13,26,16,180,15,27,80,292,28,30,07,326,10,13,03,012,*7C

$GPGSV,4,4,13,15,12,043,*4B

$GPGGA,140351.0,5133.487721,N,00957.687000,E,1,09,0.7,233.4,M,47.0,M,,*5C

$GNGNS,140351.0,5133.487721,N,00957.687000,E,AA,15,0.7,233.4,47.0,,*65

$GPVTG,0.0,T,0.1,M,0.0,N,0.0,K,A*22

$GPGSA,A,2,07,08,10,16,18,20,21,26,27,,,,1.0,0.7,0.7*32

$GNGSA,A,2,07,08,10,16,18,20,21,26,27,,,,1.0,0.7,0.7*2C

$GNGSA,A,2,70,86,76,75,69,85,,,,,,,1.0,0.7,0.7*24

$GPRMC,140351.0,A,5133.487721,N,00957.687000,E,0.0,0.0,260619,0.1,W,A*17

$PSTIS,*61

$GLGSV,3,1,09,70,43,106,19,86,50,299,23,76,35,262,30,75,11,216,26*68

$GLGSV,3,2,09,69,27,033,30,85,56,061,24,71,14,156,20,77,24,327,*68

$GLGSV,3,3,09,84,05,087,*5A

$GPGSV,4,1,13,07,10,296,27,08,39,295,26,10,55,136,23,11,01,268,13*73

$GPGSV,4,2,13,16,41,195,29,18,13,251,25,20,54,084,30,21,32,070,26*7E

$GPGSV,4,3,13,26,16,180,20,27,80,292,22,30,07,326,10,13,03,012,*70

$GPGSV,4,4,13,15,12,043,*4B

$GPGGA,140352.0,5133.487717,N,00957.687001,E,1,09,0.6,233.4,M,47.0,M,,*5A

$GNGNS,140352.0,5133.487717,N,00957.687001,E,AA,15,0.6,233.4,47.0,,*63

$GPVTG,0.0,T,0.1,M,0.0,N,0.0,K,A*22

$GPGSA,A,2,07,08,10,16,18,20,21,26,27,,,,0.9,0.6,0.7*3B

$GNGSA,A,2,07,08,10,16,18,20,21,26,27,,,,0.9,0.6,0.7*25

$GNGSA,A,2,70,86,76,75,69,85,,,,,,,0.9,0.6,0.7*2D

$GPRMC,140352.0,A,5133.487717,N,00957.687001,E,0.0,0.0,260619,0.1,W,A*10

$PSTIS,*61

$GLGSV,3,1,09,70,43,106,17,86,50,299,25,76,35,262,33,75,11,216,27*62

$GLGSV,3,2,09,69,27,033,29,85,56,061,27,71,14,156,23,77,24,327,*60

$GLGSV,3,3,09,84,05,087,*5A

$GPGSV,4,1,13,07,10,296,20,08,39,295,25,10,55,136,28,11,01,268,13*7C

$GPGSV,4,2,13,16,41,195,30,18,13,251,29,20,54,084,31,21,32,070,25*78

$GPGSV,4,3,13,26,16,180,19,27,80,292,25,30,07,326,10,13,03,012,*7D

$GPGSV,4,4,13,15,12,043,*4B

$GPGGA,140353.0,5133.487715,N,00957.687002,E,1,09,0.6,233.4,M,47.0,M,,*5A

$GNGNS,140353.0,5133.487715,N,00957.687002,E,AA,15,0.6,233.4,47.0,,*63

$GPVTG,0.0,T,0.1,M,0.0,N,0.0,K,A*22

$GPGSA,A,2,07,08,10,16,18,20,21,26,27,,,,0.9,0.6,0.7*3B

$GNGSA,A,2,07,08,10,16,18,20,21,26,27,,,,0.9,0.6,0.7*25

$GNGSA,A,2,70,86,76,75,69,85,,,,,,,0.9,0.6,0.7*2D

$GPRMC,140353.0,A,5133.487715,N,00957.687002,E,0.0,0.0,260619,0.1,W,A*10

$PSTIS,*61

$GLGSV,3,1,09,70,43,106,16,86,50,299,26,76,35,262,34,75,11,216,25*65

$GLGSV,3,2,09,69,27,033,30,85,56,061,28,71,14,156,25,77,24,327,*61

$GLGSV,3,3,09,84,05,087,*5A

$GPGSV,4,1,13,07,10,296,19,08,39,295,25,10,55,136,31,11,01,268,15*78

$GPGSV,4,2,13,16,41,195,29,18,13,251,27,20,54,084,32,21,32,070,27*7F

$GPGSV,4,3,13,26,16,180,23,27,80,292,25,30,07,326,10,13,03,012,*74

$GPGSV,4,4,13,15,12,043,*4B

$GPGGA,140354.0,5133.487714,N,00957.687000,E,1,09,0.7,233.5,M,47.0,M,,*5E

$GNGNS,140354.0,5133.487714,N,00957.687000,E,AA,15,0.7,233.5,47.0,,*67

$GPVTG,0.0,T,0.1,M,0.0,N,0.0,K,A*22

$GPGSA,A,2,07,08,10,16,18,20,21,26,27,,,,1.0,0.7,0.7*32

$GNGSA,A,2,07,08,10,16,18,20,21,26,27,,,,1.0,0.7,0.7*2C

$GNGSA,A,2,70,86,76,75,69,85,,,,,,,1.0,0.7,0.7*24

$GPRMC,140354.0,A,5133.487714,N,00957.687000,E,0.0,0.0,260619,0.1,W,A*14

$PSTIS,*61

$GLGSV,3,1,09,70,43,106,16,86,50,299,26,76,35,262,34,75,11,216,26*66

$GLGSV,3,2,09,69,27,033,29,85,56,061,28,71,14,156,25,77,24,327,*69

$GLGSV,3,3,09,84,05,087,*5A

$GPGSV,4,1,13,07,10,296,17,08,39,295,26,10,55,136,31,11,01,268,15*75

$GPGSV,4,2,13,16,41,195,30,18,13,251,27,20,54,084,32,21,32,070,26*76

$GPGSV,4,3,13,26,16,180,23,27,80,292,28,30,07,326,10,13,03,012,*79

$GPGSV,4,4,13,15,12,043,*4B

$GPGGA,140355.0,5133.487711,N,00957.687000,E,1,09,0.7,233.4,M,47.0,M,,*5B

$GNGNS,140355.0,5133.487711,N,00957.687000,E,AA,14,0.7,233.4,47.0,,*63

$GPVTG,0.0,T,0.1,M,0.0,N,0.0,K,A*22

$GPGSA,A,2,07,08,10,16,18,20,21,26,27,,,,1.0,0.7,0.7*32

$GNGSA,A,2,07,08,10,16,18,20,21,26,27,,,,1.0,0.7,0.7*2C

$GNGSA,A,2,86,76,75,69,85,,,,,,,,1.0,0.7,0.7*23

$GPRMC,140355.0,A,5133.487711,N,00957.687000,E,0.0,0.0,260619,0.1,W,A*10

$PSTIS,*61

$GLGSV,3,1,09,70,43,106,16,86,50,299,25,76,35,262,35,75,11,216,27*65

$GLGSV,3,2,09,69,27,033,30,85,56,061,25,71,14,156,24,77,24,327,*6D

$GLGSV,3,3,09,84,05,087,*5A

$GPGSV,4,1,13,07,10,296,17,08,39,295,28,10,55,136,28,11,01,268,15*73

$GPGSV,4,2,13,16,41,195,31,18,13,251,27,20,54,084,31,21,32,070,27*75

$GPGSV,4,3,13,26,16,180,24,27,80,292,29,30,07,326,10,13,03,012,*7F

$GPGSV,4,4,13,15,12,043,*4B

$GPGGA,140356.0,5133.487706,N,00957.687000,E,1,09,0.7,233.4,M,47.0,M,,*5E

$GNGNS,140356.0,5133.487706,N,00957.687000,E,AA,15,0.7,233.4,47.0,,*67

$GPVTG,0.0,T,0.1,M,0.0,N,0.0,K,A*22

$GPGSA,A,2,07,08,10,16,18,20,21,26,27,,,,0.9,0.7,0.7*3A

$GNGSA,A,2,07,08,10,16,18,20,21,26,27,,,,0.9,0.7,0.7*24

$GNGSA,A,2,70,86,76,75,69,85,,,,,,,0.9,0.7,0.7*2C

$GPRMC,140356.0,A,5133.487706,N,00957.687000,E,0.0,0.0,260619,0.1,W,A*15

$PSTIS,*61

$GLGSV,3,1,09,70,43,106,19,86,50,299,21,76,35,262,36,75,11,216,28*62

$GLGSV,3,2,09,69,27,033,27,85,56,061,27,71,14,156,25,77,24,327,*68

$GLGSV,3,3,09,84,05,087,*5A

$GPGSV,4,1,13,07,10,296,17,08,39,295,25,10,55,136,25,11,01,268,15*73

$GPGSV,4,2,13,16,41,195,34,18,13,251,27,20,54,084,30,21,32,070,27*71

$GPGSV,4,3,13,26,16,180,23,27,80,292,28,30,07,326,10,13,03,012,*79

$GPGSV,4,4,13,15,12,043,*4B

$GPGGA,140357.0,5133.487705,N,00957.686999,E,1,08,0.8,233.4,M,47.0,M,,*5A

$GNGNS,140357.0,5133.487705,N,00957.686999,E,AA,13,0.8,233.4,47.0,,*64

$GPVTG,0.0,T,0.1,M,0.0,N,0.0,K,A*22

$GPGSA,A,2,08,10,16,18,20,21,26,27,,,,,1.1,0.8,0.8*34

$GNGSA,A,2,08,10,16,18,20,21,26,27,,,,,1.1,0.8,0.8*2A

$GNGSA,A,2,86,76,75,69,85,,,,,,,,1.1,0.8,0.8*22

$GPRMC,140357.0,A,5133.487705,N,00957.686999,E,0.0,0.0,260619,0.1,W,A*1F

$PSTIS,*61

$GLGSV,3,1,09,70,43,106,18,86,50,299,24,76,35,262,36,75,11,216,28*66

$GLGSV,3,2,09,69,27,033,28,85,56,061,28,71,14,156,24,77,24,327,*69

$GLGSV,3,3,09,84,05,087,*5A

$GPGSV,4,1,13,07,10,296,17,08,39,295,26,10,55,136,25,11,01,268,15*70

$GPGSV,4,2,13,16,41,195,34,18,13,251,26,20,54,084,29,21,32,070,26*79

$GPGSV,4,3,13,26,16,180,25,27,80,292,26,30,07,326,10,13,03,012,*71

$GPGSV,4,4,13,15,12,043,*4B

$GPGGA,140358.0,5133.487703,N,00957.687000,E,1,08,0.8,233.4,M,47.0,M,,*5B

$GNGNS,140358.0,5133.487703,N,00957.687000,E,AA,13,0.8,233.4,47.0,,*65

$GPVTG,0.0,T,0.1,M,0.0,N,0.0,K,A*22

$GPGSA,A,2,08,10,16,18,20,21,26,27,,,,,1.1,0.8,0.8*34

$GNGSA,A,2,08,10,16,18,20,21,26,27,,,,,1.1,0.8,0.8*2A

$GNGSA,A,2,86,76,75,69,85,,,,,,,,1.1,0.8,0.8*22

$GPRMC,140358.0,A,5133.487703,N,00957.687000,E,0.0,0.0,260619,0.1,W,A*1E

$PSTIS,*61

$GLGSV,3,1,09,70,43,106,18,86,50,299,19,76,35,262,36,75,11,216,27*67

$GLGSV,3,2,09,69,27,033,30,85,56,061,27,71,14,156,24,77,24,327,*6F

$GLGSV,3,3,09,84,05,087,*5A

$GPGSV,4,1,13,07,10,296,17,08,39,295,20,10,55,136,25,11,01,268,14*77

$GPGSV,4,2,13,16,41,195,34,18,13,251,27,20,54,084,30,21,32,070,26*70

$GPGSV,4,3,13,26,16,180,26,27,80,292,27,30,07,326,15,13,03,012,*76

$GPGSV,4,4,13,15,12,043,*4B

$GPGGA,140359.0,5133.487704,N,00957.687000,E,1,08,0.8,233.4,M,47.0,M,,*5D

$GNGNS,140359.0,5133.487704,N,00957.687000,E,AA,12,0.8,233.4,47.0,,*62

$GPVTG,0.0,T,0.1,M,0.0,N,0.0,K,A*22

$GPGSA,A,2,08,10,16,18,20,21,26,27,,,,,1.1,0.8,0.7*3B

$GNGSA,A,2,08,10,16,18,20,21,26,27,,,,,1.1,0.8,0.7*25

$GNGSA,A,2,76,75,69,85,,,,,,,,,1.1,0.8,0.7*23

$GPRMC,140359.0,A,5133.487704,N,00957.687000,E,0.0,0.0,260619,0.1,W,A*18

$PSTIS,*61

$GLGSV,3,1,09,70,43,106,18,86,50,299,18,76,35,262,36,75,11,216,27*66

$GLGSV,3,2,09,69,27,033,28,85,56,061,26,71,14,156,23,77,24,327,*60

$GLGSV,3,3,09,84,05,087,*5A

$GPGSV,4,1,13,07,10,296,17,08,39,295,21,10,55,136,25,11,01,268,14*76

$GPGSV,4,2,13,16,41,195,33,18,13,251,27,20,54,084,30,21,32,070,27*76

$GPGSV,4,3,13,26,16,180,25,27,80,292,27,30,07,326,15,13,03,012,*75

$GPGSV,4,4,13,15,12,043,*4B

$GPGGA,140400.0,5133.487705,N,00957.686998,E,1,08,0.8,233.4,M,47.0,M,,*5E

$GNGNS,140400.0,5133.487705,N,00957.686998,E,AA,12,0.8,233.4,47.0,,*61

$GPVTG,0.0,T,0.1,M,0.0,N,0.0,K,A*22

$GPGSA,A,2,08,10,16,18,20,21,26,27,,,,,1.1,0.8,0.8*34

$GNGSA,A,2,08,10,16,18,20,21,26,27,,,,,1.1,0.8,0.8*2A

$GNGSA,A,2,76,75,69,85,,,,,,,,,1.1,0.8,0.8*2C

$GPRMC,140400.0,A,5133.487705,N,00957.686998,E,0.0,0.0,260619,0.1,W,A*1B

$PSTIS,*61

$GLGSV,3,1,09,70,43,106,15,86,50,299,20,76,35,262,36,75,11,216,26*61

$GLGSV,3,2,09,69,27,033,27,85,56,061,28,71,14,156,24,77,24,327,*66

$GLGSV,3,3,09,84,05,087,*5A

$GPGSV,4,1,13,07,10,296,13,08,39,295,25,10,55,136,28,11,01,268,14*7B

$GPGSV,4,2,13,16,41,195,33,18,13,251,26,20,54,084,28,21,32,070,25*7C

$GPGSV,4,3,13,26,16,180,25,27,80,292,27,30,07,326,16,13,03,012,*76

$GPGSV,4,4,13,15,12,043,*4B

$GPGGA,140401.0,5133.487706,N,00957.686999,E,1,08,0.8,233.4,M,47.0,M,,*5D

$GNGNS,140401.0,5133.487706,N,00957.686999,E,AA,12,0.8,233.4,47.0,,*62

$GPVTG,0.0,T,0.1,M,0.0,N,0.0,K,A*22

$GPGSA,A,2,08,10,16,18,20,21,26,27,,,,,1.1,0.8,0.8*34

$GNGSA,A,2,08,10,16,18,20,21,26,27,,,,,1.1,0.8,0.8*2A

$GNGSA,A,2,76,75,69,85,,,,,,,,,1.1,0.8,0.8*2C

$GPRMC,140401.0,A,5133.487706,N,00957.686999,E,0.0,0.0,260619,0.1,W,A*18

$PSTIS,*61

$GLGSV,3,1,09,70,43,106,15,86,50,299,22,76,35,262,35,75,11,216,25*63

$GLGSV,3,2,09,69,27,033,26,85,56,061,28,71,14,156,23,77,24,327,*60

$GLGSV,3,3,09,84,05,087,*5A

$GPGSV,4,1,13,07,10,296,13,08,39,295,25,10,55,136,27,11,01,268,14*74

$GPGSV,4,2,13,16,41,195,35,18,13,251,26,20,54,084,28,21,32,070,27*78

$GPGSV,4,3,13,26,16,180,25,27,80,292,29,30,07,326,17,13,03,012,*79

$GPGSV,4,4,13,15,12,043,*4B

$GPGGA,140402.0,5133.487706,N,00957.686999,E,1,08,0.8,233.4,M,47.0,M,,*5E

$GNGNS,140402.0,5133.487706,N,00957.686999,E,AA,13,0.8,233.4,47.0,,*60

$GPVTG,0.0,T,0.1,M,0.0,N,0.0,K,A*22

$GPGSA,A,2,08,10,16,18,20,21,26,27,,,,,1.0,0.8,0.7*3A

$GNGSA,A,2,08,10,16,18,20,21,26,27,,,,,1.0,0.8,0.7*24

$GNGSA,A,2,86,76,75,69,85,,,,,,,,1.0,0.8,0.7*2C

$GPRMC,140402.0,A,5133.487706,N,00957.686999,E,0.0,0.0,260619,0.1,W,A*1B

$PSTIS,*61

$GLGSV,3,1,09,70,43,106,15,86,50,299,20,76,35,262,35,75,11,216,25*61

$GLGSV,3,2,09,69,27,033,23,85,56,061,27,71,14,156,21,77,24,327,*68

$GLGSV,3,3,09,84,05,087,*5A

$GPGSV,4,1,13,07,10,296,17,08,39,295,20,10,55,136,27,11,01,268,14*75

$GPGSV,4,2,13,16,41,195,33,18,13,251,27,20,54,084,27,21,32,070,29*7E

$GPGSV,4,3,13,26,16,180,25,27,80,292,29,30,07,326,17,13,03,012,*79

$GPGSV,4,4,13,15,12,043,*4B

$GPGGA,140403.0,5133.487708,N,00957.686998,E,1,09,0.7,233.4,M,47.0,M,,*5E

$GNGNS,140403.0,5133.487708,N,00957.686998,E,AA,14,0.7,233.4,47.0,,*66

$GPVTG,0.0,T,0.1,M,0.0,N,0.0,K,A*22

$GPGSA,A,2,07,08,10,16,18,20,21,26,27,,,,0.9,0.7,0.7*3A

$GNGSA,A,2,07,08,10,16,18,20,21,26,27,,,,0.9,0.7,0.7*24

$GNGSA,A,2,86,76,75,69,85,,,,,,,,0.9,0.7,0.7*2B

$GPRMC,140403.0,A,5133.487708,N,00957.686998,E,0.0,0.0,260619,0.1,W,A*15

$PSTIS,*61

$GLGSV,3,1,09,70,43,106,15,86,50,299,21,76,35,262,34,75,11,216,24*60

$GLGSV,3,2,09,69,27,033,27,85,56,061,27,71,14,156,20,77,24,327,*6D

$GLGSV,3,3,09,84,05,087,*5A

$GPGSV,4,1,13,07,10,296,18,08,39,295,20,10,55,136,27,11,01,268,14*7A

$GPGSV,4,2,13,16,41,195,32,18,13,251,26,20,54,084,28,21,32,070,28*70

$GPGSV,4,3,13,26,16,180,23,27,80,292,28,30,07,326,17,13,03,012,*7E

$GPGSV,4,4,13,15,12,043,*4B

$GPGGA,140404.0,5133.487705,N,00957.686993,E,1,08,0.7,233.4,M,47.0,M,,*5E

$GNGNS,140404.0,5133.487705,N,00957.686993,E,AA,14,0.7,233.4,47.0,,*67

$GPVTG,0.0,T,0.1,M,0.0,N,0.0,K,A*22

$GPGSA,A,2,07,10,16,18,20,21,26,27,,,,,1.0,0.7,0.7*3A

$GNGSA,A,2,07,10,16,18,20,21,26,27,,,,,1.0,0.7,0.7*24

$GNGSA,A,2,70,86,76,75,69,85,,,,,,,1.0,0.7,0.7*24

$GPRMC,140404.0,A,5133.487705,N,00957.686993,E,0.0,0.0,260619,0.1,W,A*14

$PSTIS,*61

$GLGSV,3,1,09,70,43,106,19,86,50,299,19,76,35,262,35,75,11,216,24*66

$GLGSV,3,2,09,69,27,033,24,85,56,061,26,71,14,156,23,77,24,327,*6C

$GLGSV,3,3,09,84,05,087,*5A

$GPGSV,4,1,13,07,10,296,18,08,39,295,20,10,55,136,27,11,01,268,14*7A

$GPGSV,4,2,13,16,41,195,31,18,13,251,26,20,54,084,29,21,32,070,27*7D

$GPGSV,4,3,13,26,16,180,20,27,80,292,28,30,07,326,17,13,03,012,*7D

$GPGSV,4,4,13,15,12,043,*4B

$GPGGA,140405.0,5133.487705,N,00957.686993,E,1,07,1.0,233.4,M,47.0,M,,*56

$GNGNS,140405.0,5133.487705,N,00957.686993,E,AA,11,1.0,233.4,47.0,,*65

$GPVTG,0.0,T,0.1,M,0.0,N,0.0,K,A*22

$GPGSA,A,2,10,16,18,20,21,26,27,,,,,,1.2,1.0,0.8*36

$GNGSA,A,2,10,16,18,20,21,26,27,,,,,,1.2,1.0,0.8*28

$GNGSA,A,2,76,75,69,85,,,,,,,,,1.2,1.0,0.8*26

$GPRMC,140405.0,A,5133.487705,N,00957.686993,E,0.0,0.0,260619,0.1,W,A*15

$PSTIS,*61

$GLGSV,3,1,09,70,43,106,19,86,50,299,19,76,35,262,34,75,11,216,21*62

$GLGSV,3,2,09,69,27,033,23,85,56,061,26,71,14,156,23,77,24,327,*6B

$GLGSV,3,3,09,84,05,087,*5A

$GPGSV,4,1,13,07,10,296,19,08,39,295,20,10,55,136,29,11,01,268,14*75

$GPGSV,4,2,13,16,41,195,31,18,13,251,27,20,54,084,29,21,32,070,25*7E

$GPGSV,4,3,13,26,16,180,24,27,80,292,29,30,07,326,17,13,03,012,*78

$GPGSV,4,4,13,15,12,043,*4B

$GPGGA,140406.0,5133.487703,N,00957.686992,E,1,08,0.7,233.4,M,47.0,M,,*5B

$GNGNS,140406.0,5133.487703,N,00957.686992,E,AA,13,0.7,233.4,47.0,,*65

$GPVTG,0.0,T,0.1,M,0.0,N,0.0,K,A*22

$GPGSA,A,2,07,10,16,18,20,21,26,27,,,,,1.0,0.7,0.7*3A

$GNGSA,A,2,07,10,16,18,20,21,26,27,,,,,1.0,0.7,0.7*24

$GNGSA,A,2,70,76,75,69,85,,,,,,,,1.0,0.7,0.7*2A

$GPRMC,140406.0,A,5133.487703,N,00957.686992,E,0.0,0.0,260619,0.1,W,A*11

$PSTIS,*61

$GLGSV,3,1,09,70,43,106,16,86,50,299,19,76,35,262,35,75,11,216,21*6C

$GLGSV,3,2,09,69,27,033,23,85,56,061,28,71,14,156,22,77,24,327,*64

$GLGSV,3,3,09,84,05,087,*5A

$GPGSV,4,1,13,07,10,296,19,08,39,295,18,10,55,136,27,11,01,268,14*70

$GPGSV,4,2,13,16,41,195,33,18,13,251,27,20,54,084,27,21,32,070,26*71

$GPGSV,4,3,13,26,16,180,23,27,80,292,28,30,07,326,17,13,03,012,*7E

$GPGSV,4,4,13,15,12,043,*4B

$GPGGA,140407.0,5133.487702,N,00957.686990,E,1,09,0.7,233.4,M,47.0,M,,*58

$GNGNS,140407.0,5133.487702,N,00957.686990,E,AA,15,0.7,233.4,47.0,,*61

$GPVTG,0.0,T,0.1,M,0.0,N,0.0,K,A*22

$GPGSA,A,2,07,08,10,16,18,20,21,26,27,,,,1.0,0.7,0.7*32

$GNGSA,A,2,07,08,10,16,18,20,21,26,27,,,,1.0,0.7,0.7*2C

$GNGSA,A,2,70,86,76,75,69,85,,,,,,,1.0,0.7,0.7*24

$GPRMC,140407.0,A,5133.487702,N,00957.686990,E,0.0,0.0,260619,0.1,W,A*13

$PSTIS,*61

$GLGSV,3,1,09,70,43,106,18,86,50,299,22,76,35,262,35,75,11,216,19*61

$GLGSV,3,2,09,69,27,033,26,85,56,061,30,71,14,156,21,77,24,327,*6B

$GLGSV,3,3,09,84,05,087,*5A

$GPGSV,4,1,13,07,10,296,17,08,39,295,16,10,55,136,27,11,01,268,16*72

$GPGSV,4,2,13,16,41,195,34,18,13,251,28,20,54,084,27,21,32,070,28*77

$GPGSV,4,3,13,26,16,180,20,27,80,292,28,30,07,326,17,13,03,012,*7D

$GPGSV,4,4,13,15,12,043,*4B

$GPGGA,140408.0,5133.487700,N,00957.686991,E,1,09,0.7,233.4,M,47.0,M,,*54

$GNGNS,140408.0,5133.487700,N,00957.686991,E,AA,15,0.7,233.4,47.0,,*6D

$GPVTG,0.0,T,0.1,M,0.0,N,0.0,K,A*22

$GPGSA,A,2,07,08,10,16,18,20,21,26,27,,,,1.0,0.7,0.7*32

$GNGSA,A,2,07,08,10,16,18,20,21,26,27,,,,1.0,0.7,0.7*2C

$GNGSA,A,2,70,86,76,75,69,85,,,,,,,1.0,0.7,0.7*24

$GPRMC,140408.0,A,5133.487700,N,00957.686991,E,0.0,0.0,260619,0.1,W,A*1F

$PSTIS,*61

$GLGSV,3,1,09,70,43,106,18,86,50,299,22,76,34,262,36,75,11,216,26*6F

$GLGSV,3,2,09,69,27,033,28,85,56,061,27,71,14,156,21,77,24,327,*63

$GLGSV,3,3,09,84,05,087,*5A

$GPGSV,4,1,13,07,10,296,16,08,39,295,19,10,55,136,30,11,01,268,19*75

$GPGSV,4,2,13,15,12,043,13,16,41,195,34,18,13,251,29,20,54,084,21*7D

$GPGSV,4,3,13,21,32,070,27,26,16,180,21,27,80,292,29,30,07,326,17*7F

$GPGSV,4,4,13,13,03,012,*49

$GPGGA,140409.0,5133.487700,N,00957.686990,E,1,07,0.9,233.4,M,47.0,M,,*54

$GNGNS,140409.0,5133.487700,N,00957.686990,E,AA,12,0.9,233.4,47.0,,*64

$GPVTG,0.0,T,0.1,M,0.0,N,0.0,K,A*22

$GPGSA,A,2,10,16,18,20,21,26,27,,,,,,1.2,0.9,0.8*3E

$GNGSA,A,2,10,16,18,20,21,26,27,,,,,,1.2,0.9,0.8*20

$GNGSA,A,2,86,76,75,69,85,,,,,,,,1.2,0.9,0.8*20

$GPRMC,140409.0,A,5133.487700,N,00957.686990,E,0.0,0.0,260619,0.1,W,A*1F

$PSTIS,*61

$GLGSV,3,1,09,70,43,106,16,86,50,299,21,76,34,262,35,75,11,216,22*65

$GLGSV,3,2,09,69,27,033,26,85,56,061,24,71,14,156,21,77,24,327,*6E

$GLGSV,3,3,09,84,05,087,*5A

$GPGSV,4,1,13,07,10,296,20,08,39,295,26,10,55,136,30,11,01,268,19*7C

$GPGSV,4,2,13,15,12,043,13,16,41,195,33,18,13,251,30,20,54,084,21*72

$GPGSV,4,3,13,21,32,070,25,26,16,180,24,27,80,292,29,30,07,326,17*78

$GPGSV,4,4,13,13,03,012,*49

$GPGGA,140410.0,5133.487696,N,00957.686990,E,1,08,0.7,233.4,M,47.0,M,,*53

$GNGNS,140410.0,5133.487696,N,00957.686990,E,AA,14,0.7,233.4,47.0,,*6A

$GPVTG,0.0,T,0.1,M,0.0,N,0.0,K,A*22

$GPGSA,A,2,07,08,10,16,18,21,26,27,,,,,0.9,0.7,0.7*38

$GNGSA,A,2,07,08,10,16,18,21,26,27,,,,,0.9,0.7,0.7*26

$GNGSA,A,2,70,86,76,75,69,85,,,,,,,0.9,0.7,0.7*2C

$GPRMC,140410.0,A,5133.487696,N,00957.686990,E,0.0,0.0,260619,0.1,W,A*19

$PSTIS,*61

$GLGSV,3,1,09,70,43,106,23,86,50,299,25,76,34,262,36,75,11,216,23*65

$GLGSV,3,2,09,69,27,033,28,85,56,061,26,71,14,156,26,77,24,327,*65

$GLGSV,3,3,09,84,05,087,*5A

$GPGSV,4,1,13,07,10,296,20,08,39,295,22,10,55,136,28,11,01,268,19*71

$GPGSV,4,2,13,15,12,043,13,16,41,195,37,18,13,251,29,20,54,084,20*7F

$GPGSV,4,3,13,21,32,070,25,26,16,180,24,27,80,292,28,30,07,326,17*79

$GPGSV,4,4,13,13,03,012,*49

$GPGGA,140411.0,5133.487694,N,00957.686987,E,1,08,0.8,233.4,M,47.0,M,,*59

$GNGNS,140411.0,5133.487694,N,00957.686987,E,AA,14,0.8,233.4,47.0,,*60

$GPVTG,0.0,T,0.1,M,0.0,N,0.0,K,A*22

$GPGSA,A,2,08,10,16,18,20,21,26,27,,,,,1.1,0.8,0.8*34

$GNGSA,A,2,08,10,16,18,20,21,26,27,,,,,1.1,0.8,0.8*2A

$GNGSA,A,2,70,86,76,75,69,85,,,,,,,1.1,0.8,0.8*25

$GPRMC,140411.0,A,5133.487694,N,00957.686987,E,0.0,0.0,260619,0.1,W,A*1C

$PSTIS,*61

$GLGSV,3,1,09,70,43,106,19,86,50,299,23,76,34,262,37,75,11,216,23*6B

$GLGSV,3,2,09,69,27,033,28,85,56,061,19,71,14,156,26,77,24,327,*69

$GLGSV,3,3,09,84,05,087,*5A

$GPGSV,4,1,13,07,10,296,20,08,39,295,17,10,55,136,24,11,01,268,15*77

