$GPGSV,4,1,13,07,09,293,26,08,43,296,34,10,58,130,36,11,04,271,26*76

$GPGSV,4,2,13,16,38,194,38,18,16,253,34,20,52,078,36,21,29,071,28*70

$GPGSV,4,3,13,26,13,178,35,27,83,279,38,30,07,322,28,13,02,009,*7F

$GPGSV,4,4,13,15,11,039,*45

$GLGSV,3,1,10,70,46,101,31,86,54,305,40,77,26,323,23,76,32,258,42*62

$GLGSV,3,2,10,75,07,215,34,69,24,029,23,87,00,279,24,85,53,068,34*65

$GLGSV,3,3,10,71,18,154,20,84,02,090,*6E

$BDGSV,3,1,11,205,15,122,19,206,22,056,19,209,21,085,19,211,19,101,27*6D

$BDGSV,3,2,11,214,40,070,28,216,24,061,23,221,08,030,13,227,22,285,28*68

$BDGSV,3,3,11,228,76,298,35,202,01,101,,213,02,074,*64

$GPGGA,,,,,,0,,,,,,,,*66

$GNGNS,,,,,,NN,,,,,,*53

$GPVTG,,T,,M,,N,,K,N*2C

$GPRMC,,V,,,,,,,,,,N*53

$GPGSA,A,1,,,,,,,,,,,,,,,*1E

$GNGSA,A,1,,,,,,,,,,,,,,,*00

$BDGSA,A,1,,,,,,,,,,,,,,,*0F

$GPGSV,4,1,13,07,09,293,26,08,43,296,34,10,58,130,36,11,04,271,26*76

$GPGSV,4,2,13,16,38,194,38,18,16,253,34,20,52,078,36,21,29,071,28*70

$GPGSV,4,3,13,26,13,178,35,27,83,279,38,30,07,322,28,13,02,009,*7F

$GPGSV,4,4,13,15,11,039,*45

$GLGSV,3,1,10,70,46,101,31,86,54,305,40,77,26,323,23,76,32,258,42*62

$GLGSV,3,2,10,75,07,215,34,69,24,029,23,87,00,279,24,85,53,068,34*65

$GLGSV,3,3,10,71,18,154,20,84,02,090,*6E

$BDGSV,3,1,11,205,15,122,19,206,22,056,19,209,21,085,19,211,19,101,27*6D

$BDGSV,3,2,11,214,40,070,28,216,24,061,23,221,08,030,13,227,22,285,28*68

$BDGSV,3,3,11,228,76,298,35,202,01,101,,213,02,074,*64

$GPGGA,,,,,,0,,,,,,,,*66

$GNGNS,,,,,,NN,,,,,,*53

$GPVTG,,T,,M,,N,,K,N*2C

$GPRMC,,V,,,,,,,,,,N*53

$GPGSA,A,1,,,,,,,,,,,,,,,*1E

$GNGSA,A,1,,,,,,,,,,,,,,,*00

$BDGSA,A,1,,,,,,,,,,,,,,,*0F

$GPGSV,4,1,13,08,45,296,37,20,52,075,35,07,08,292,,10,59,127,*70

$GPGSV,4,2,13,11,05,271,,13,02,008,,15,11,037,,16,36,192,*7C

$GPGSV,4,3,13,18,18,253,,21,28,071,,26,12,178,,27,84,268,*7B

$GPGSV,4,4,13,30,07,322,*4C

$GLGSV,3,1,10,86,54,306,37,76,30,257,26,85,52,070,37,70,47,099,*63

$GLGSV,3,2,10,77,26,322,,75,06,213,,69,23,029,,84,01,091,*66

$GLGSV,3,3,10,87,02,281,,71,20,154,*66

$BDGSV,3,1,11,202,01,101,,205,15,122,,206,22,054,,209,22,085,*6A

$BDGSV,3,2,11,211,18,102,,213,02,074,,214,40,068,,216,24,060,*68

$BDGSV,3,3,11,221,07,030,,227,23,285,,228,77,299,*6E

$GPGGA,,,,,,0,,,,,,,,*66

$GNGNS,,,,,,NN,,,,,,*53

$GPVTG,,T,,M,,N,,K,N*2C

$GPRMC,,V,,,,,,,,,,N*53

$GPGSA,A,1,,,,,,,,,,,,,,,*1E

$GNGSA,A,1,,,,,,,,,,,,,,,*00

$BDGSA,A,1,,,,,,,,,,,,,,,*0F

$GPGSV,4,1,13,08,45,296,37,20,52,075,35,07,08,292,,10,59,127,*70

$GPGSV,4,2,13,11,05,271,,13,02,008,,15,11,037,,16,36,192,*7C

$GPGSV,4,3,13,18,18,253,,21,28,071,,26,12,178,,27,84,268,*7B

$GPGSV,4,4,13,30,07,322,*4C

$GLGSV,3,1,10,86,54,306,37,76,30,257,26,85,52,070,37,70,47,099,*63

$GLGSV,3,2,10,77,26,322,,75,06,213,,69,23,029,,84,01,091,*66

$GLGSV,3,3,10,87,02,281,,71,20,154,*66

$BDGSV,3,1,11,202,01,101,,205,15,122,,206,22,054,,209,22,085,*6A

$BDGSV,3,2,11,211,18,102,,213,02,074,,214,40,068,,216,24,060,*68

$BDGSV,3,3,11,221,07,030,,227,23,285,,228,77,299,*6E

$GPGGA,,,,,,0,,,,,,,,*66

$GNGNS,,,,,,NN,,,,,,*53

$GPVTG,,T,,M,,N,,K,N*2C

$GPRMC,,V,,,,,,,,,,N*53

$GPGSA,A,1,,,,,,,,,,,,,,,*1E

$GNGSA,A,1,,,,,,,,,,,,,,,*00

$BDGSA,A,1,,,,,,,,,,,,,,,*0F

$GPGSV,4,1,13,08,45,296,37,20,52,075,35,07,08,292,,10,59,127,*70

$GPGSV,4,2,13,11,05,271,,13,02,008,,15,11,037,,16,36,192,*7C

$GPGSV,4,3,13,18,18,253,,21,28,071,,26,12,178,,27,85,271,*72

$GPGSV,4,4,13,30,07,322,*4C

$GLGSV,3,1,10,86,54,306,37,76,30,257,26,85,52,070,37,70,47,099,*63

$GLGSV,3,2,10,77,26,322,,75,06,213,,69,23,029,,84,01,091,*66

$GLGSV,3,3,10,87,02,281,,71,20,154,*66

$BDGSV,3,1,11,202,01,101,,205,15,122,,206,22,054,,209,22,085,*6A

$BDGSV,3,2,11,211,18,102,,213,02,074,,214,40,068,,216,24,060,*68

$BDGSV,3,3,11,221,07,030,,227,23,285,,228,77,299,*6E

$GPGGA,,,,,,0,,,,,,,,*66

$GNGNS,,,,,,NN,,,,,,*53

$GPVTG,,T,,M,,N,,K,N*2C

$GPRMC,,V,,,,,,,,,,N*53

$GPGSA,A,1,,,,,,,,,,,,,,,*1E

$GNGSA,A,1,,,,,,,,,,,,,,,*00

$BDGSA,A,1,,,,,,,,,,,,,,,*0F

$GPGSV,4,1,13,08,45,296,37,20,52,075,35,07,08,292,,10,59,127,*70

$GPGSV,4,2,13,11,05,271,,13,02,008,,15,11,037,,16,36,192,*7C

$GPGSV,4,3,13,18,18,253,,21,28,071,,26,12,178,,27,85,271,*72

$GPGSV,4,4,13,30,07,322,*4C

$GLGSV,3,1,10,86,54,306,37,76,30,257,26,85,52,070,37,70,47,099,*63

$GLGSV,3,2,10,77,26,322,,75,06,213,,69,23,029,,84,01,091,*66

$GLGSV,3,3,10,87,02,281,,71,20,154,*66

$BDGSV,3,1,11,202,01,101,,205,15,122,,206,22,054,,209,22,085,*6A

$BDGSV,3,2,11,211,18,102,,213,02,074,,214,40,068,,216,24,060,*68

$BDGSV,3,3,11,221,07,030,,227,23,285,,228,77,299,*6E

$GPGGA,,,,,,0,,,,,,,,*66

$GNGNS,,,,,,NN,,,,,,*53

$GPVTG,,T,,M,,N,,K,N*2C

$GPRMC,,V,,,,,,,,,,N*53

$GPGSA,A,1,,,,,,,,,,,,,,,*1E

$GNGSA,A,1,,,,,,,,,,,,,,,*00

$BDGSA,A,1,,,,,,,,,,,,,,,*0F

$GPGSV,4,1,13,07,08,292,34,08,45,296,35,10,59,127,29,15,11,037,26*7B

$GPGSV,4,2,13,16,36,192,27,18,18,253,25,20,52,075,30,21,28,071,30*7B

$GPGSV,4,3,13,26,12,178,33,27,85,271,36,30,07,322,31,11,05,271,*78

$GPGSV,4,4,13,13,02,008,*43

$GLGSV,3,1,10,86,54,306,37,77,26,322,31,76,30,257,25,69,23,029,24*6B

$GLGSV,3,2,10,85,52,070,37,71,20,154,30,70,47,099,,75,06,213,*6B

$GLGSV,3,3,10,84,01,091,,87,02,281,*67

$BDGSV,3,1,11,202,01,101,,205,15,122,,206,22,054,,209,22,085,*6A

$BDGSV,3,2,11,211,18,102,,213,02,074,,214,40,068,,216,24,060,*68

$BDGSV,3,3,11,221,07,030,,227,23,285,,228,77,299,*6E

$GPGGA,141408.2,5133.479219,N,00957.640248,E,1,11,0.6,234.8,M,47.0,M,,*5D

$GNGNS,141408.2,5133.479219,N,00957.640248,E,AA,17,0.6,234.8,47.0,,*6F

$GPVTG,302.3,T,302.3,M,1.3,N,2.4,K,A*27

$GPGSA,A,3,07,08,10,15,16,18,20,21,26,27,30,,1.1,0.6,1.0*32

$GNGSA,A,3,07,08,10,15,16,18,20,21,26,27,30,,1.1,0.6,1.0*2C

$GNGSA,A,3,86,77,76,69,85,71,,,,,,,1.1,0.6,1.0*20

$BDGSA,A,3,,,,,,,,,,,,,1.1,0.6,1.0*24

$GPRMC,141408.2,A,5133.479219,N,00957.640248,E,1.3,302.3,260619,0.0,E,A*06

$GPGSV,4,1,13,07,08,292,34,08,45,296,35,10,59,127,29,15,11,037,26*7B

$GPGSV,4,2,13,16,36,192,27,18,18,253,25,20,52,075,30,21,28,071,30*7B

$GPGSV,4,3,13,26,12,178,33,27,85,271,36,30,07,322,31,11,05,271,*78

$GPGSV,4,4,13,13,02,008,*43

$GLGSV,3,1,10,86,54,306,37,77,26,322,31,76,30,257,25,69,23,029,24*6B

$GLGSV,3,2,10,85,52,070,37,71,20,154,30,70,47,099,,75,06,213,*6B

$GLGSV,3,3,10,84,01,091,,87,02,281,*67

$BDGSV,3,1,11,202,01,101,,205,15,122,,206,22,054,,209,22,085,*6A

$BDGSV,3,2,11,211,18,102,,213,02,074,,214,40,068,,216,24,060,*68

$BDGSV,3,3,11,221,07,030,,227,23,285,,228,77,299,*6E

$GPGGA,141408.2,5133.479219,N,00957.640248,E,1,11,0.6,234.8,M,47.0,M,,*5D

$GNGNS,141408.2,5133.479219,N,00957.640248,E,AA,17,0.6,234.8,47.0,,*6F

$GPVTG,302.3,T,302.3,M,1.3,N,2.4,K,A*27

$GPGSA,A,3,07,08,10,15,16,18,20,21,26,27,30,,1.1,0.6,1.0*32

$GNGSA,A,3,07,08,10,15,16,18,20,21,26,27,30,,1.1,0.6,1.0*2C

$GNGSA,A,3,86,77,76,69,85,71,,,,,,,1.1,0.6,1.0*20

$BDGSA,A,3,,,,,,,,,,,,,1.1,0.6,1.0*24

$GPRMC,141408.2,A,5133.479219,N,00957.640248,E,1.3,302.3,260619,0.0,E,A*06

$GPGSV,4,1,13,07,08,292,34,08,45,296,35,10,59,127,29,15,11,037,26*7B

$GPGSV,4,2,13,16,36,192,27,18,18,253,25,20,52,075,30,21,28,071,30*7B

$GPGSV,4,3,13,26,12,178,33,27,85,271,36,30,07,322,31,11,05,271,*78

$GPGSV,4,4,13,13,02,008,*43

$GPGSV,4,1,13,07,08,292,34,08,45,296,35,10,59,127,29,15,11,037,26*7B

$GPGSV,4,2,13,16,36,192,27,18,18,253,25,20,52,075,30,21,28,071,30*7B

$GPGSV,4,3,13,26,12,178,33,27,85,271,36,30,07,322,31,11,05,271,*78

$GPGSV,4,4,13,13,02,008,*43

$GLGSV,3,1,10,86,54,306,37,77,26,322,31,76,30,257,25,69,23,029,24*6B

$GLGSV,3,2,10,85,52,070,37,71,20,154,30,70,47,099,,75,06,213,*6B

$GLGSV,3,3,10,84,01,091,,87,02,281,*67

$BDGSV,3,1,11,202,01,101,,205,15,122,,206,22,054,,209,22,085,*6A

$BDGSV,3,2,11,211,18,102,,213,02,074,,214,40,068,,216,24,060,*68

$BDGSV,3,3,11,221,07,030,,227,23,285,,228,77,299,*6E

$GPGGA,,,,,,0,,,,,,,,*66

$GNGNS,,,,,,NN,,,,,,*53

$GPVTG,,T,,M,,N,,K,N*2C

$GPRMC,,V,,,,,,,,,,N*53

$GPGSA,A,1,,,,,,,,,,,,,,,*1E

$GNGSA,A,1,,,,,,,,,,,,,,,*00

$BDGSA,A,1,,,,,,,,,,,,,,,*0F

$GLGSV,3,1,10,86,54,306,37,77,26,322,31,76,30,257,25,69,23,029,24*6B

$GLGSV,3,2,10,85,52,070,37,71,20,154,30,70,47,099,,75,06,213,*6B

$GLGSV,3,3,10,84,01,091,,87,02,281,*67

$BDGSV,3,1,11,202,01,101,,205,15,122,,206,22,054,,209,22,085,*6A

$BDGSV,3,2,11,211,18,102,,213,02,074,,214,40,068,,216,24,060,*68

$BDGSV,3,3,11,221,07,030,,227,23,285,,228,77,299,*6E

$GPGGA,,,,,,0,,,,,,,,*66

$GNGNS,,,,,,NN,,,,,,*53

$GPVTG,,T,,M,,N,,K,N*2C

$GPRMC,,V,,,,,,,,,,N*53

$GPGSA,A,1,,,,,,,,,,,,,,,*1E

$GNGSA,A,1,,,,,,,,,,,,,,,*00

$BDGSA,A,1,,,,,,,,,,,,,,,*0F

$GPGSV,4,1,13,16,36,192,28,07,08,292,,08,45,296,,10,59,127,*77

$GPGSV,4,2,13,11,05,271,,13,02,008,,15,11,037,,18,18,253,*70

$GPGSV,4,3,13,20,52,075,,21,28,071,,26,12,178,,27,84,268,*78

$GPGSV,4,4,13,30,07,322,*4C

$GPGSV,4,1,13,16,36,192,28,07,08,292,,08,45,296,,10,59,127,*77

$GPGSV,4,2,13,11,05,271,,13,02,008,,15,11,037,,18,18,253,*70

$GPGSV,4,3,13,20,52,075,,21,28,071,,26,12,178,,27,84,268,*78

$GPGSV,4,4,13,30,07,322,*4C

$GLGSV,3,1,10,76,30,257,24,70,47,099,,86,54,306,,77,26,322,*6B

$GLGSV,3,2,10,75,06,213,,69,23,028,,84,01,091,,87,02,281,*66

$GLGSV,3,3,10,85,52,070,,71,20,154,*6D

$BDGSV,3,1,11,202,01,101,,205,15,122,,206,22,054,,209,22,085,*6A

$BDGSV,3,2,11,211,18,102,,213,02,074,,214,40,068,,216,24,060,*68

$BDGSV,3,3,11,221,07,030,,227,23,285,,228,77,299,*6E

$GPGGA,,,,,,0,,,,,,,,*66

$GNGNS,,,,,,NN,,,,,,*53

$GPVTG,,T,,M,,N,,K,N*2C

$GPRMC,,V,,,,,,,,,,N*53

$GPGSA,A,1,,,,,,,,,,,,,,,*1E

$GNGSA,A,1,,,,,,,,,,,,,,,*00

$BDGSA,A,1,,,,,,,,,,,,,,,*0F

$GLGSV,3,1,10,76,30,257,24,70,47,099,,86,54,306,,77,26,322,*6B

$GLGSV,3,2,10,75,06,213,,69,23,028,,84,01,091,,87,02,281,*66

$GLGSV,3,3,10,85,52,070,,71,20,154,*6D

$BDGSV,3,1,11,202,01,101,,205,15,122,,206,22,054,,209,22,085,*6A

$BDGSV,3,2,11,211,18,102,,213,02,074,,214,40,068,,216,24,060,*68

$BDGSV,3,3,11,221,07,030,,227,23,285,,228,77,299,*6E

$GPGGA,,,,,,0,,,,,,,,*66

$GNGNS,,,,,,NN,,,,,,*53

$GPVTG,,T,,M,,N,,K,N*2C

$GPRMC,,V,,,,,,,,,,N*53

$GPGSA,A,1,,,,,,,,,,,,,,,*1E

$GNGSA,A,1,,,,,,,,,,,,,,,*00

$BDGSA,A,1,,,,,,,,,,,,,,,*0F

$GPGSV,4,1,13,07,08,292,22,08,45,296,28,11,05,271,25,16,36,192,28*72

$GPGSV,4,2,13,18,18,253,22,10,59,127,,13,02,008,,15,11,037,*78

$GPGSV,4,3,13,20,52,075,,21,28,071,,26,12,178,,27,84,268,*78

$GPGSV,4,4,13,30,07,322,*4C

$GLGSV,3,1,10,86,54,306,27,76,30,257,28,75,06,213,23,70,47,099,*60

$GLGSV,3,2,10,77,26,322,,69,23,028,,84,01,091,,87,02,281,*65

$GLGSV,3,3,10,85,52,070,,71,20,154,*6D

$BDGSV,3,1,11,202,01,101,,205,15,122,,206,22,054,,209,22,085,*6A

$BDGSV,3,2,11,211,18,102,,213,02,074,,214,40,068,,216,24,060,*68

$BDGSV,3,3,11,221,07,030,,227,23,285,,228,77,299,*6E

$GPGGA,,,,,,0,,,,,,,,*66

$GNGNS,,,,,,NN,,,,,,*53

$GPVTG,,T,,M,,N,,K,N*2C

$GPRMC,,V,,,,,,,,,,N*53

$GPGSA,A,1,,,,,,,,,,,,,,,*1E

$GNGSA,A,1,,,,,,,,,,,,,,,*00

$BDGSA,A,1,,,,,,,,,,,,,,,*0F

$GPGSV,4,1,13,07,08,292,22,08,45,296,28,11,05,271,25,16,36,192,28*72

$GPGSV,4,2,13,18,18,253,22,10,59,127,,13,02,008,,15,11,037,*78

$GPGSV,4,3,13,20,52,075,,21,28,071,,26,12,178,,27,84,268,*78

$GPGSV,4,4,13,30,07,322,*4C

$GLGSV,3,1,10,86,54,306,27,76,30,257,28,75,06,213,23,70,47,099,*60

$GLGSV,3,2,10,77,26,322,,69,23,028,,84,01,091,,87,02,281,*65

$GLGSV,3,3,10,85,52,070,,71,20,154,*6D

$BDGSV,3,1,11,202,01,101,,205,15,122,,206,22,054,,209,22,085,*6A

$BDGSV,3,2,11,211,18,102,,213,02,074,,214,40,068,,216,24,060,*68

$BDGSV,3,3,11,221,07,030,,227,23,285,,228,77,299,*6E

$GPGGA,,,,,,0,,,,,,,,*66

$GNGNS,,,,,,NN,,,,,,*53

$GPVTG,,T,,M,,N,,K,N*2C

$GPRMC,,V,,,,,,,,,,N*53

$GPGSA,A,1,,,,,,,,,,,,,,,*1E

$GNGSA,A,1,,,,,,,,,,,,,,,*00

$BDGSA,A,1,,,,,,,,,,,,,,,*0F

$GPGSV,4,1,13,07,08,292,22,08,45,296,28,11,05,271,25,16,36,192,28*72

$GPGSV,4,2,13,18,18,253,22,10,59,127,,13,02,008,,15,11,037,*78

$GPGSV,4,3,13,20,52,075,,21,28,071,,26,12,178,,27,84,268,*78

$GPGSV,4,4,13,30,07,322,*4C

$GLGSV,3,1,10,86,54,306,27,76,30,257,28,75,06,213,23,70,47,099,*60

$GLGSV,3,2,10,77,26,322,,69,23,028,,84,01,091,,87,02,281,*65

$GLGSV,3,3,10,85,52,070,,71,20,154,*6D

$BDGSV,3,1,11,202,01,101,,205,15,122,,206,22,054,,209,22,085,*6A

$BDGSV,3,2,11,211,18,102,,213,02,074,,214,40,068,,216,24,060,*68

$BDGSV,3,3,11,221,07,030,,227,23,285,,228,77,299,*6E

$GPGGA,,,,,,0,,,,,,,,*66

$GNGNS,,,,,,NN,,,,,,*53

$GPVTG,,T,,M,,N,,K,N*2C

$GPRMC,,V,,,,,,,,,,N*53

$GPGSA,A,1,,,,,,,,,,,,,,,*1E

$GNGSA,A,1,,,,,,,,,,,,,,,*00

$BDGSA,A,1,,,,,,,,,,,,,,,*0F

$GPGSV,4,1,13,07,08,292,22,08,45,296,28,11,05,271,25,16,36,192,28*72

$GPGSV,4,2,13,18,18,253,22,10,59,127,,13,02,008,,15,11,037,*78

$GPGSV,4,3,13,20,52,075,,21,28,071,,26,12,178,,27,84,268,*78

$GPGSV,4,4,13,30,07,322,*4C

$GLGSV,3,1,10,86,54,306,27,76,30,257,28,75,06,213,23,70,47,099,*60

$GLGSV,3,2,10,77,26,322,,69,23,028,,84,01,091,,87,02,281,*65

$GLGSV,3,3,10,85,52,070,,71,20,154,*6D

$BDGSV,3,1,11,202,01,101,,205,15,122,,206,22,054,,209,22,085,*6A

$BDGSV,3,2,11,211,18,102,,213,02,074,,214,40,068,,216,24,060,*68

$BDGSV,3,3,11,221,07,030,,227,23,285,,228,77,299,*6E

$GPGGA,,,,,,0,,,,,,,,*66

$GNGNS,,,,,,NN,,,,,,*53

$GPVTG,,T,,M,,N,,K,N*2C

$GPRMC,,V,,,,,,,,,,N*53

$GPGSA,A,1,,,,,,,,,,,,,,,*1E

$GNGSA,A,1,,,,,,,,,,,,,,,*00

$BDGSA,A,1,,,,,,,,,,,,,,,*0F

$GPGSV,4,1,13,07,08,292,19,08,45,296,22,10,59,127,23,11,05,271,26*79

$GPGSV,4,2,13,16,36,192,28,18,18,253,22,20,52,075,27,26,12,178,21*73

$GPGSV,4,1,13,07,08,292,19,08,45,296,22,10,59,127,23,11,05,271,26*79

$GPGSV,4,2,13,16,36,192,28,18,18,253,22,20,52,075,27,26,12,178,21*73

$GPGSV,4,3,13,27,84,268,30,13,02,008,,15,11,037,,21,28,071,*7D

$GPGSV,4,4,13,30,07,322,*4C

$GLGSV,3,1,10,86,54,306,32,77,26,322,25,76,30,257,32,75,06,213,23*6B

$GLGSV,3,2,10,85,52,070,23,70,47,099,,69,23,028,,84,01,091,*6C

$GLGSV,3,3,10,87,02,281,,71,20,154,*66

$BDGSV,3,1,11,202,01,101,,205,15,122,,206,22,054,,209,22,085,*6A

$BDGSV,3,2,11,211,18,102,,213,02,074,,214,40,068,,216,24,060,*68

$BDGSV,3,3,11,221,07,030,,227,23,285,,228,77,299,*6E

$GPGGA,141413.2,5133.481683,N,00957.647326,E,1,09,1.0,208.7,M,47.0,M,,*57

$GNGNS,141413.2,5133.481683,N,00957.647326,E,AA,14,1.0,208.7,47.0,,*6F

$GPVTG,302.3,T,302.3,M,0.9,N,1.7,K,A*2C

$GPGSA,A,3,07,08,10,11,16,18,20,26,27,,,,1.7,1.0,1.3*34

$GNGSA,A,3,07,08,10,11,16,18,20,26,27,,,,1.7,1.0,1.3*2A

$GNGSA,A,3,86,77,76,75,85,,,,,,,,1.7,1.0,1.3*29

$BDGSA,A,3,,,,,,,,,,,,,1.7,1.0,1.3*26

$GPRMC,141413.2,A,5133.481683,N,00957.647326,E,0.9,302.3,260619,0.0,E,A*09

$GPGSV,4,3,13,27,84,268,30,13,02,008,,15,11,037,,21,28,071,*7D

$GPGSV,4,4,13,30,07,322,*4C

$GLGSV,3,1,10,86,54,306,32,77,26,322,25,76,30,257,32,75,06,213,23*6B

$GLGSV,3,2,10,85,52,070,23,70,47,099,,69,23,028,,84,01,091,*6C

$GLGSV,3,3,10,87,02,281,,71,20,154,*66

$BDGSV,3,1,11,202,01,101,,205,15,122,,206,22,054,,209,22,085,*6A

$BDGSV,3,2,11,211,18,102,,213,02,074,,214,40,068,,216,24,060,*68

$BDGSV,3,3,11,221,07,030,,227,23,285,,228,77,299,*6E

$GPGGA,141413.2,5133.481683,N,00957.647326,E,1,09,1.0,208.7,M,47.0,M,,*57

$GNGNS,141413.2,5133.481683,N,00957.647326,E,AA,14,1.0,208.7,47.0,,*6F

$GPVTG,302.3,T,302.3,M,0.9,N,1.7,K,A*2C

$GPGSA,A,3,07,08,10,11,16,18,20,26,27,,,,1.7,1.0,1.3*34

$GNGSA,A,3,07,08,10,11,16,18,20,26,27,,,,1.7,1.0,1.3*2A

$GNGSA,A,3,86,77,76,75,85,,,,,,,,1.7,1.0,1.3*29

$BDGSA,A,3,,,,,,,,,,,,,1.7,1.0,1.3*26

$GPRMC,141413.2,A,5133.481683,N,00957.647326,E,0.9,302.3,260619,0.0,E,A*09

$GPGSV,4,1,13,07,08,292,19,08,45,296,22,10,59,127,23,11,05,271,26*79

$GPGSV,4,2,13,16,36,192,28,18,18,253,22,20,52,075,27,26,12,178,21*73

$GPGSV,4,3,13,27,84,268,30,13,02,008,,15,11,037,,21,28,071,*7D

$GPGSV,4,4,13,30,07,322,*4C

$GLGSV,3,1,10,86,54,306,32,77,26,322,25,76,30,257,32,75,06,213,23*6B

$GLGSV,3,2,10,85,52,070,23,70,47,099,,69,23,028,,84,01,091,*6C

$GLGSV,3,3,10,87,02,281,,71,20,154,*66

$BDGSV,3,1,11,202,01,101,,205,15,122,,206,22,054,,209,22,085,*6A

$BDGSV,3,2,11,211,18,102,,213,02,074,,214,40,068,,216,24,060,*68

$GPGSV,4,1,13,07,08,292,19,08,45,296,22,10,59,127,23,11,05,271,26*79

$GPGSV,4,2,13,16,36,192,28,18,18,253,22,20,52,075,27,26,12,178,21*73

$GPGSV,4,3,13,27,84,268,30,13,02,008,,15,11,037,,21,28,071,*7D

$GPGSV,4,4,13,30,07,322,*4C

$GLGSV,3,1,10,86,54,306,32,77,26,322,25,76,30,257,32,75,06,213,23*6B

$GLGSV,3,2,10,85,52,070,23,70,47,099,,69,23,028,,84,01,091,*6C

$GLGSV,3,3,10,87,02,281,,71,20,154,*66

$BDGSV,3,1,11,202,01,101,,205,15,122,,206,22,054,,209,22,085,*6A

$BDGSV,3,2,11,211,18,102,,213,02,074,,214,40,068,,216,24,060,*68

$BDGSV,3,3,11,221,07,030,,227,23,285,,228,77,299,*6E

$GPGGA,,,,,,0,,,,,,,,*66

$GNGNS,,,,,,NN,,,,,,*53

$GPVTG,,T,,M,,N,,K,N*2C

$GPRMC,,V,,,,,,,,,,N*53

$GPGSA,A,1,,,,,,,,,,,,,,,*1E

$GNGSA,A,1,,,,,,,,,,,,,,,*00

$BDGSA,A,1,,,,,,,,,,,,,,,*0F

$BDGSV,3,3,11,221,07,030,,227,23,285,,228,77,299,*6E

$GPGGA,,,,,,0,,,,,,,,*66

$GNGNS,,,,,,NN,,,,,,*53

$GPVTG,,T,,M,,N,,K,N*2C

$GPRMC,,V,,,,,,,,,,N*53

$GPGSA,A,1,,,,,,,,,,,,,,,*1E

$GNGSA,A,1,,,,,,,,,,,,,,,*00

$BDGSA,A,1,,,,,,,,,,,,,,,*0F

$GPGSV,4,1,13,08,45,296,33,16,36,192,29,27,85,267,31,07,08,292,*76

$GPGSV,4,2,13,10,59,127,,11,05,271,,13,02,008,,15,11,037,*7D

$GPGSV,4,3,13,18,18,253,,20,52,075,,21,28,071,,26,12,178,*79

$GPGSV,4,4,13,30,07,322,*4C

$GLGSV,3,1,10,86,55,306,35,76,30,257,34,70,47,099,,77,26,322,*6D

$GLGSV,3,2,10,75,05,213,,69,23,028,,84,01,091,,87,02,281,*65

$GLGSV,3,3,10,85,52,070,,71,20,154,*6D

$BDGSV,3,1,11,202,01,101,,205,15,122,,206,22,054,,209,22,085,*6A

$BDGSV,3,2,11,211,18,102,,213,02,074,,214,40,068,,216,24,060,*68

$BDGSV,3,3,11,221,07,030,,227,23,285,,228,77,299,*6E

$GPGGA,,,,,,0,,,,,,,,*66

$GNGNS,,,,,,NN,,,,,,*53

$GPVTG,,T,,M,,N,,K,N*2C

$GPRMC,,V,,,,,,,,,,N*53

$GPGSA,A,1,,,,,,,,,,,,,,,*1E

$GPGSV,4,1,13,08,45,296,33,16,36,192,29,27,85,267,31,07,08,292,*76

$GPGSV,4,2,13,10,59,127,,11,05,271,,13,02,008,,15,11,037,*7D

$GPGSV,4,3,13,18,18,253,,20,52,075,,21,28,071,,26,12,178,*79

$GPGSV,4,4,13,30,07,322,*4C

$GLGSV,3,1,10,86,55,306,35,76,30,257,34,70,47,099,,77,26,322,*6D

$GLGSV,3,2,10,75,05,213,,69,23,028,,84,01,091,,87,02,281,*65

$GLGSV,3,3,10,85,52,070,,71,20,154,*6D

$BDGSV,3,1,11,202,01,101,,205,15,122,,206,22,054,,209,22,085,*6A

$BDGSV,3,2,11,211,18,102,,213,02,074,,214,40,068,,216,24,060,*68

$BDGSV,3,3,11,221,07,030,,227,23,285,,228,77,299,*6E

$GPGGA,,,,,,0,,,,,,,,*66

$GNGNS,,,,,,NN,,,,,,*53

$GPVTG,,T,,M,,N,,K,N*2C

$GPRMC,,V,,,,,,,,,,N*53

$GPGSA,A,1,,,,,,,,,,,,,,,*1E

$GNGSA,A,1,,,,,,,,,,,,,,,*00

$BDGSA,A,1,,,,,,,,,,,,,,,*0F

$GNGSA,A,1,,,,,,,,,,,,,,,*00

$BDGSA,A,1,,,,,,,,,,,,,,,*0F

$GPGSV,4,1,13,08,45,296,33,16,36,192,29,27,85,267,31,07,08,292,*76

$GPGSV,4,2,13,10,59,127,,11,05,271,,13,02,008,,15,11,037,*7D

$GPGSV,4,3,13,18,18,253,,20,52,075,,21,28,071,,26,12,178,*79

$GPGSV,4,4,13,30,07,322,*4C

$GLGSV,3,1,10,86,55,306,35,76,30,257,34,70,47,099,,77,26,322,*6D

$GLGSV,3,2,10,75,05,213,,69,23,028,,84,01,091,,87,02,281,*65

$GLGSV,3,3,10,85,52,070,,71,20,154,*6D

$BDGSV,3,1,11,202,01,101,,205,15,122,,206,22,054,,209,22,085,*6A

$BDGSV,3,2,11,211,18,102,,213,02,074,,214,40,068,,216,24,060,*68

$BDGSV,3,3,11,221,07,030,,227,23,285,,228,77,299,*6E

$GPGGA,,,,,,0,,,,,,,,*66

$GNGNS,,,,,,NN,,,,,,*53

$GPVTG,,T,,M,,N,,K,N*2C

$GPRMC,,V,,,,,,,,,,N*53

$GPGSA,A,1,,,,,,,,,,,,,,,*1E

$GNGSA,A,1,,,,,,,,,,,,,,,*00

$BDGSA,A,1,,,,,,,,,,,,,,,*0F

$GPGSV,4,1,13,08,45,296,33,16,36,192,29,27,85,267,31,07,08,292,*76

$GPGSV,4,2,13,10,59,127,,11,05,271,,13,02,008,,15,11,037,*7D

$GPGSV,4,3,13,18,18,253,,20,52,075,,21,28,071,,26,12,178,*79

$GPGSV,4,4,13,30,07,322,*4C

$GLGSV,3,1,10,86,55,306,35,76,30,257,34,70,47,099,,77,26,322,*6D

$GLGSV,3,2,10,75,05,213,,69,23,028,,84,01,091,,87,02,281,*65

$GLGSV,3,3,10,85,52,070,,71,20,154,*6D

$BDGSV,3,1,11,202,01,101,,205,15,122,,206,22,054,,209,22,085,*6A

$BDGSV,3,2,11,211,18,102,,213,02,074,,214,40,068,,216,24,060,*68

$BDGSV,3,3,11,221,07,030,,227,23,285,,228,77,299,*6E

$GPGGA,,,,,,0,,,,,,,,*66

$GNGNS,,,,,,NN,,,,,,*53

$GPVTG,,T,,M,,N,,K,N*2C

$GPRMC,,V,,,,,,,,,,N*53

$GPGSA,A,1,,,,,,,,,,,,,,,*1E

$GNGSA,A,1,,,,,,,,,,,,,,,*00

$BDGSA,A,1,,,,,,,,,,,,,,,*0F

$GPGSV,4,1,13,07,08,292,27,08,45,296,35,11,05,271,20,16,36,192,29*7F

$GPGSV,4,2,13,18,18,253,24,20,52,075,27,26,12,178,21,27,85,267,33*7C

$GPGSV,4,3,13,10,59,127,,13,02,008,,15,11,037,,21,28,071,*72

$GPGSV,4,4,13,30,07,322,*4C

$GLGSV,3,1,10,86,55,306,36,77,26,322,21,76,30,257,32,70,47,099,*6B

$GLGSV,3,2,10,75,05,213,,69,23,028,,84,01,091,,87,02,281,*65

$GLGSV,3,3,10,85,52,070,,71,20,154,*6D

$BDGSV,3,1,11,202,01,101,,205,15,122,,206,22,054,,209,22,085,*6A

$BDGSV,3,2,11,211,18,102,,213,02,074,,214,40,068,,216,24,060,*68

$BDGSV,3,3,11,221,07,030,,227,23,285,,228,77,299,*6E

$GPGGA,141417.2,5133.483491,N,00957.634455,E,1,08,1.2,246.0,M,47.0,M,,*59

$GNGNS,141417.2,5133.483491,N,00957.634455,E,AA,11,1.2,246.0,47.0,,*65

$GPVTG,230.0,T,230.0,M,0.5,N,0.9,K,A*2F

$GPGSA,A,3,07,08,11,16,18,20,26,27,,,,,1.9,1.2,1.5*3F

$GNGSA,A,3,07,08,11,16,18,20,26,27,,,,,1.9,1.2,1.5*21

$GNGSA,A,3,86,77,76,,,,,,,,,,1.9,1.2,1.5*2C

$BDGSA,A,3,,,,,,,,,,,,,1.9,1.2,1.5*2C

$GPRMC,141417.2,A,5133.483491,N,00957.634455,E,0.5,230.0,260619,0.0,E,A*06

$GPGSV,4,1,13,07,08,292,27,08,45,296,35,11,05,271,20,16,36,192,29*7F

$GPGSV,4,2,13,18,18,253,24,20,52,075,27,26,12,178,21,27,85,267,33*7C

$GPGSV,4,3,13,10,59,127,,13,02,008,,15,11,037,,21,28,071,*72

$GPGSV,4,4,13,30,07,322,*4C

$GLGSV,3,1,10,86,55,306,36,77,26,322,21,76,30,257,32,70,47,099,*6B

$GLGSV,3,2,10,75,05,213,,69,23,028,,84,01,091,,87,02,281,*65

$GLGSV,3,3,10,85,52,070,,71,20,154,*6D

$BDGSV,3,1,11,202,01,101,,205,15,122,,206,22,054,,209,22,085,*6A

$BDGSV,3,2,11,211,18,102,,213,02,074,,214,40,068,,216,24,060,*68

$BDGSV,3,3,11,221,07,030,,227,23,285,,228,77,299,*6E

$GPGGA,141417.2,5133.483491,N,00957.634455,E,1,08,1.2,246.0,M,47.0,M,,*59

$GNGNS,141417.2,5133.483491,N,00957.634455,E,AA,11,1.2,246.0,47.0,,*65

$GPVTG,230.0,T,230.0,M,0.5,N,0.9,K,A*2F

$GPGSA,A,3,07,08,11,16,18,20,26,27,,,,,1.9,1.2,1.5*3F

$GNGSA,A,3,07,08,11,16,18,20,26,27,,,,,1.9,1.2,1.5*21

$GNGSA,A,3,86,77,76,,,,,,,,,,1.9,1.2,1.5*2C

$BDGSA,A,3,,,,,,,,,,,,,1.9,1.2,1.5*2C

$GPRMC,141417.2,A,5133.483491,N,00957.634455,E,0.5,230.0,260619,0.0,E,A*06

$GPGSV,4,1,13,07,08,292,27,08,45,296,35,11,05,271,20,16,36,192,29*7F

$GPGSV,4,2,13,18,18,253,24,20,52,075,27,26,12,178,21,27,85,267,33*7C

$GPGSV,4,3,13,10,59,127,,13,02,008,,15,11,037,,21,28,071,*72

$GPGSV,4,4,13,30,07,322,*4C

$GLGSV,3,1,10,86,55,306,36,77,26,322,21,76,30,257,32,70,47,099,*6B

$GLGSV,3,2,10,75,05,213,,69,23,028,,84,01,091,,87,02,281,*65

$GLGSV,3,3,10,85,52,070,,71,20,154,*6D

$BDGSV,3,1,11,202,01,101,,205,15,122,,206,22,054,,209,22,085,*6A

$BDGSV,3,2,11,211,18,102,,213,02,074,,214,40,068,,216,24,060,*68

$BDGSV,3,3,11,221,07,030,,227,23,285,,228,77,299,*6E

$GPGGA,,,,,,0,,,,,,,,*66

$GNGNS,,,,,,NN,,,,,,*53

$GPVTG,,T,,M,,N,,K,N*2C

$GPRMC,,V,,,,,,,,,,N*53

$GPGSA,A,1,,,,,,,,,,,,,,,*1E

$GNGSA,A,1,,,,,,,,,,,,,,,*00

$BDGSA,A,1,,,,,,,,,,,,,,,*0F

$GPGSV,4,1,13,07,08,292,27,08,45,296,35,11,05,271,20,16,36,192,29*7F

$GPGSV,4,2,13,18,18,253,24,20,52,075,27,26,12,178,21,27,85,267,33*7C

$GPGSV,4,3,13,10,59,127,,13,02,008,,15,11,037,,21,28,071,*72

$GPGSV,4,4,13,30,07,322,*4C

$GLGSV,3,1,10,86,55,306,36,77,26,322,21,76,30,257,32,70,47,099,*6B

$GLGSV,3,2,10,75,05,213,,69,23,028,,84,01,091,,87,02,281,*65

$GLGSV,3,3,10,85,52,070,,71,20,154,*6D

$BDGSV,3,1,11,202,01,101,,205,15,122,,206,22,054,,209,22,085,*6A

$BDGSV,3,2,11,211,18,102,,213,02,074,,214,40,068,,216,24,060,*68

$BDGSV,3,3,11,221,07,030,,227,23,285,,228,77,299,*6E

$GPGGA,,,,,,0,,,,,,,,*66

$GNGNS,,,,,,NN,,,,,,*53

$GPVTG,,T,,M,,N,,K,N*2C

$GPRMC,,V,,,,,,,,,,N*53

$GPGSA,A,1,,,,,,,,,,,,,,,*1E

$GNGSA,A,1,,,,,,,,,,,,,,,*00

$BDGSA,A,1,,,,,,,,,,,,,,,*0F

$GPGSV,4,1,13,08,45,296,33,20,52,075,26,27,85,267,34,07,08,292,*73

$GPGSV,4,2,13,10,59,127,,11,05,271,,13,02,008,,15,11,037,*7D

$GPGSV,4,3,13,16,36,192,,18,18,253,,21,28,071,,26,12,178,*76

$GPGSV,4,4,13,30,07,322,*4C

$GLGSV,3,1,10,70,47,098,,86,55,306,,77,26,322,,76,30,257,*6D

$GLGSV,3,2,10,75,05,213,,69,23,028,,84,01,091,,87,02,281,*65

$GLGSV,3,3,10,85,52,070,,71,20,154,*6D

$BDGSV,3,1,11,202,01,101,,205,15,122,,206,22,054,,209,22,085,*6A

$BDGSV,3,2,11,211,18,102,,213,02,074,,214,40,068,,216,24,060,*68

$BDGSV,3,3,11,221,07,030,,227,23,285,,228,77,299,*6E

$GPGGA,,,,,,0,,,,,,,,*66

$GNGNS,,,,,,NN,,,,,,*53

$GPVTG,,T,,M,,N,,K,N*2C

$GPRMC,,V,,,,,,,,,,N*53

$GPGSA,A,1,,,,,,,,,,,,,,,*1E

$GPGSV,4,1,13,08,45,296,33,20,52,075,26,27,85,267,34,07,08,292,*73

$GPGSV,4,2,13,10,59,127,,11,05,271,,13,02,008,,15,11,037,*7D

$GPGSV,4,3,13,16,36,192,,18,18,253,,21,28,071,,26,12,178,*76

$GPGSV,4,4,13,30,07,322,*4C

$GLGSV,3,1,10,70,47,098,,86,55,306,,77,26,322,,76,30,257,*6D

$GLGSV,3,2,10,75,05,213,,69,23,028,,84,01,091,,87,02,281,*65

$GLGSV,3,3,10,85,52,070,,71,20,154,*6D

$BDGSV,3,1,11,202,01,101,,205,15,122,,206,22,054,,209,22,085,*6A

$BDGSV,3,2,11,211,18,102,,213,02,074,,214,40,068,,216,24,060,*68

$BDGSV,3,3,11,221,07,030,,227,23,285,,228,77,299,*6E

$GPGGA,,,,,,0,,,,,,,,*66

$GNGNS,,,,,,NN,,,,,,*53

$GPVTG,,T,,M,,N,,K,N*2C

$GPRMC,,V,,,,,,,,,,N*53

$GPGSA,A,1,,,,,,,,,,,,,,,*1E

$GNGSA,A,1,,,,,,,,,,,,,,,*00

$BDGSA,A,1,,,,,,,,,,,,,,,*0F

$GNGSA,A,1,,,,,,,,,,,,,,,*00

$BDGSA,A,1,,,,,,,,,,,,,,,*0F

$GPGSV,4,1,13,08,45,296,33,20,52,075,26,27,85,267,34,07,08,292,*73

$GPGSV,4,2,13,10,59,127,,11,05,271,,13,02,008,,15,11,037,*7D

$GPGSV,4,3,13,16,36,192,,18,18,253,,21,28,071,,26,12,178,*76

$GPGSV,4,4,13,30,07,322,*4C

$GLGSV,3,1,10,70,47,098,,86,55,306,,77,26,322,,76,30,257,*6D

$GLGSV,3,2,10,75,05,213,,69,23,028,,84,01,091,,87,02,281,*65

$GLGSV,3,3,10,85,52,070,,71,20,154,*6D

$BDGSV,3,1,11,202,01,101,,205,15,122,,206,22,054,,209,22,085,*6A

$BDGSV,3,2,11,211,18,102,,213,02,074,,214,40,068,,216,24,060,*68

$BDGSV,3,3,11,221,07,030,,227,23,285,,228,77,299,*6E

$GPGGA,,,,,,0,,,,,,,,*66

$GNGNS,,,,,,NN,,,,,,*53

$GPVTG,,T,,M,,N,,K,N*2C

$GPRMC,,V,,,,,,,,,,N*53

$GPGSA,A,1,,,,,,,,,,,,,,,*1E

$GNGSA,A,1,,,,,,,,,,,,,,,*00

$BDGSA,A,1,,,,,,,,,,,,,,,*0F

$GPGSV,4,1,13,08,45,296,33,20,52,075,26,27,85,267,34,07,08,292,*73

$GPGSV,4,2,13,10,59,127,,11,05,271,,13,02,008,,15,11,037,*7D

$GPGSV,4,3,13,16,36,192,,18,18,253,,21,28,071,,26,12,178,*76

$GPGSV,4,4,13,30,07,322,*4C

$GLGSV,3,1,10,70,47,098,,86,55,306,,77,26,322,,76,30,257,*6D

$GLGSV,3,2,10,75,05,213,,69,23,028,,84,01,091,,87,02,281,*65

$GLGSV,3,3,10,85,52,070,,71,20,154,*6D

$BDGSV,3,1,11,202,01,101,,205,15,122,,206,22,054,,209,22,085,*6A

$BDGSV,3,2,11,211,18,102,,213,02,074,,214,40,068,,216,24,060,*68

$BDGSV,3,3,11,221,07,030,,227,23,285,,228,77,299,*6E

$GPGGA,,,,,,0,,,,,,,,*66

$GNGNS,,,,,,NN,,,,,,*53

$GPVTG,,T,,M,,N,,K,N*2C

$GPRMC,,V,,,,,,,,,,N*53

$GPGSA,A,1,,,,,,,,,,,,,,,*1E

$GNGSA,A,1,,,,,,,,,,,,,,,*00

$BDGSA,A,1,,,,,,,,,,,,,,,*0F

$GPGSV,4,1,13,07,08,292,28,08,45,296,35,11,05,271,23,16,36,192,29*73

$GPGSV,4,2,13,20,52,075,27,27,85,267,32,10,59,127,,13,02,008,*74

$GPGSV,4,3,13,15,11,037,,18,18,253,,21,28,071,,26,12,178,*7E

$GPGSV,4,4,13,30,07,322,*4C

$GLGSV,3,1,10,86,55,306,35,76,30,257,25,70,47,098,,77,26,322,*6C

$GLGSV,3,2,10,75,05,213,,69,23,028,,84,01,091,,87,02,281,*65

$GPGSV,4,1,13,07,08,292,28,08,45,296,35,11,05,271,23,16,36,192,29*73

$GPGSV,4,2,13,20,52,075,27,27,85,267,32,10,59,127,,13,02,008,*74

$GPGSV,4,3,13,15,11,037,,18,18,253,,21,28,071,,26,12,178,*7E

$GPGSV,4,4,13,30,07,322,*4C

$GLGSV,3,1,10,86,55,306,35,76,30,257,25,70,47,098,,77,26,322,*6C

$GLGSV,3,2,10,75,05,213,,69,23,028,,84,01,091,,87,02,281,*65

$GLGSV,3,3,10,85,52,070,,71,20,154,*6D

$BDGSV,3,1,11,202,01,101,,205,15,122,,206,22,054,,209,22,085,*6A

$BDGSV,3,2,11,211,18,102,,213,02,074,,214,40,068,,216,24,060,*68

$BDGSV,3,3,11,221,07,030,,227,23,285,,228,77,299,*6E

$GPGGA,,,,,,0,,,,,,,,*66

$GNGNS,,,,,,NN,,,,,,*53

$GPVTG,,T,,M,,N,,K,N*2C

$GPRMC,,V,,,,,,,,,,N*53

$GPGSA,A,1,,,,,,,,,,,,,,,*1E

$GNGSA,A,1,,,,,,,,,,,,,,,*00

$BDGSA,A,1,,,,,,,,,,,,,,,*0F

$GLGSV,3,3,10,85,52,070,,71,20,154,*6D

$BDGSV,3,1,11,202,01,101,,205,15,122,,206,22,054,,209,22,085,*6A

$BDGSV,3,2,11,211,18,102,,213,02,074,,214,40,068,,216,24,060,*68

$BDGSV,3,3,11,221,07,030,,227,23,285,,228,77,299,*6E

$GPGGA,,,,,,0,,,,,,,,*66

$GNGNS,,,,,,NN,,,,,,*53

$GPVTG,,T,,M,,N,,K,N*2C

$GPRMC,,V,,,,,,,,,,N*53

$GPGSA,A,1,,,,,,,,,,,,,,,*1E

$GNGSA,A,1,,,,,,,,,,,,,,,*00

$BDGSA,A,1,,,,,,,,,,,,,,,*0F

$GPGSV,4,1,13,07,08,292,28,08,45,296,36,10,59,127,21,11,05,271,22*78

$GPGSV,4,2,13,16,36,192,27,18,18,253,22,20,52,075,24,21,28,071,20*78

$GPGSV,4,3,13,27,85,267,31,13,02,008,,15,11,037,,26,12,178,*74

$GPGSV,4,4,13,30,07,322,*4C

$GLGSV,3,1,10,86,55,306,32,77,26,322,22,76,30,257,24,75,05,213,20*6A

$GLGSV,3,2,10,70,47,098,,69,23,028,,84,01,091,,87,02,281,*67

$GLGSV,3,3,10,85,52,070,,71,20,154,*6D

$BDGSV,3,1,11,202,01,101,,205,15,122,,206,22,054,,209,22,085,*6A

$BDGSV,3,2,11,211,18,102,,213,02,074,,214,40,068,,216,24,060,*68

$BDGSV,3,3,11,221,07,030,,227,23,285,,228,77,299,*6E

$GPGGA,141422.2,5133.477072,N,00957.633440,E,1,09,0.9,246.0,M,47.0,M,,*55

$GNGNS,141422.2,5133.477072,N,00957.633440,E,AA,13,0.9,246.0,47.0,,*6A

$GPVTG,230.0,T,230.0,M,1.1,N,2.0,K,A*21

$GPGSA,A,3,07,08,10,11,16,18,20,21,27,,,,1.5,0.9,1.2*38

$GNGSA,A,3,07,08,10,11,16,18,20,21,27,,,,1.5,0.9,1.2*26

$GNGSA,A,3,86,77,76,75,,,,,,,,,1.5,0.9,1.2*2F

$BDGSA,A,3,,,,,,,,,,,,,1.5,0.9,1.2*2D

$GPRMC,141422.2,A,5133.477072,N,00957.633440,E,1.1,230.0,260619,0.0,E,A*04

$GPGSV,4,1,13,07,08,292,28,08,45,296,36,10,59,127,21,11,05,271,22*78

$GPGSV,4,2,13,16,36,192,27,18,18,253,22,20,52,075,24,21,28,071,20*78

$GPGSV,4,3,13,27,85,267,31,13,02,008,,15,11,037,,26,12,178,*74

$GPGSV,4,4,13,30,07,322,*4C

$GLGSV,3,1,10,86,55,306,32,77,26,322,22,76,30,257,24,75,05,213,20*6A

$GLGSV,3,2,10,70,47,098,,69,23,028,,84,01,091,,87,02,281,*67

$GLGSV,3,3,10,85,52,070,,71,20,154,*6D

$BDGSV,3,1,11,202,01,101,,205,15,122,,206,22,054,,209,22,085,*6A

$BDGSV,3,2,11,211,18,102,,213,02,074,,214,40,068,,216,24,060,*68

$BDGSV,3,3,11,221,07,030,,227,23,285,,228,77,299,*6E

$GPGGA,141422.2,5133.477072,N,00957.633440,E,1,09,0.9,246.0,M,47.0,M,,*55

$GNGNS,141422.2,5133.477072,N,00957.633440,E,AA,13,0.9,246.0,47.0,,*6A

$GPVTG,230.0,T,230.0,M,1.1,N,2.0,K,A*21

$GPGSA,A,3,07,08,10,11,16,18,20,21,27,,,,1.5,0.9,1.2*38

$GNGSA,A,3,07,08,10,11,16,18,20,21,27,,,,1.5,0.9,1.2*26

$GNGSA,A,3,86,77,76,75,,,,,,,,,1.5,0.9,1.2*2F

$BDGSA,A,3,,,,,,,,,,,,,1.5,0.9,1.2*2D

$GPRMC,141422.2,A,5133.477072,N,00957.633440,E,1.1,230.0,260619,0.0,E,A*04

$GPGSV,4,1,13,07,08,292,28,08,45,296,36,10,59,127,21,11,05,271,22*78

$GPGSV,4,2,13,16,36,192,27,18,18,253,22,20,52,075,24,21,28,071,20*78

$GPGSV,4,3,13,27,85,267,31,13,02,008,,15,11,037,,26,12,178,*74

$GPGSV,4,4,13,30,07,322,*4C

$GLGSV,3,1,10,86,55,306,32,77,26,322,22,76,30,257,24,75,05,213,20*6A

$GLGSV,3,2,10,70,47,098,,69,23,028,,84,01,091,,87,02,281,*67

$GLGSV,3,3,10,85,52,070,,71,20,154,*6D

$BDGSV,3,1,11,202,01,101,,205,15,122,,206,22,054,,209,22,085,*6A

$BDGSV,3,2,11,211,18,102,,213,02,074,,214,40,068,,216,24,060,*68

$BDGSV,3,3,11,221,07,030,,227,23,285,,228,77,299,*6E

$GPGGA,,,,,,0,,,,,,,,*66

$GNGNS,,,,,,NN,,,,,,*53

$GPVTG,,T,,M,,N,,K,N*2C

$GPRMC,,V,,,,,,,,,,N*53

$GPGSA,A,1,,,,,,,,,,,,,,,*1E

$GNGSA,A,1,,,,,,,,,,,,,,,*00

$BDGSA,A,1,,,,,,,,,,,,,,,*0F

$GPGSV,4,1,13,07,08,292,28,08,45,296,36,10,59,127,21,11,05,271,22*78

$GPGSV,4,2,13,16,36,192,27,18,18,253,22,20,52,075,24,21,28,071,20*78

$GPGSV,4,3,13,27,85,267,31,13,02,008,,15,11,037,,26,12,178,*74

$GPGSV,4,4,13,30,07,322,*4C

$GLGSV,3,1,10,86,55,306,32,77,26,322,22,76,30,257,24,75,05,213,20*6A

$GLGSV,3,2,10,70,47,098,,69,23,028,,84,01,091,,87,02,281,*67

$GLGSV,3,3,10,85,52,070,,71,20,154,*6D

$BDGSV,3,1,11,202,01,101,,205,15,122,,206,22,054,,209,22,085,*6A

$BDGSV,3,2,11,211,18,102,,213,02,074,,214,40,068,,216,24,060,*68

$BDGSV,3,3,11,221,07,030,,227,23,285,,228,77,299,*6E

$GPGGA,,,,,,0,,,,,,,,*66

$GNGNS,,,,,,NN,,,,,,*53

$GPVTG,,T,,M,,N,,K,N*2C

$GPRMC,,V,,,,,,,,,,N*53

$GPGSA,A,1,,,,,,,,,,,,,,,*1E

$GNGSA,A,1,,,,,,,,,,,,,,,*00

$BDGSA,A,1,,,,,,,,,,,,,,,*0F

$GPGSV,4,1,13,07,08,292,25,08,45,296,33,10,59,127,26,11,05,271,25*70

$GPGSV,4,1,13,07,08,292,25,08,45,296,33,10,59,127,26,11,05,271,25*70

$GPGSV,4,2,13,16,36,192,25,18,18,254,26,20,52,075,26,27,85,267,34*7A

$GPGSV,4,3,13,13,02,008,,15,11,037,,21,28,071,,26,11,178,*71

$GPGSV,4,4,13,30,07,322,*4C

$GLGSV,3,1,10,86,55,306,29,77,26,320,22,76,30,257,32,85,52,070,24*6B

$GLGSV,3,2,10,70,47,098,,75,05,213,,69,23,028,,84,01,091,*66

$GLGSV,3,3,10,87,02,281,,71,20,154,*66

$BDGSV,3,1,11,202,01,101,,205,15,122,,206,22,054,,209,22,085,*6A

$BDGSV,3,2,11,211,18,102,,213,02,074,,214,40,068,,216,24,060,*68

$BDGSV,3,3,11,221,07,030,,227,23,285,,228,77,299,*6E

$GPGGA,,,,,,0,,,,,,,,*66

$GNGNS,,,,,,NN,,,,,,*53

$GPVTG,,T,,M,,N,,K,N*2C

$GPRMC,,V,,,,,,,,,,N*53

$GPGSA,A,1,,,,,,,,,,,,,,,*1E

$GNGSA,A,1,,,,,,,,,,,,,,,*00

$BDGSA,A,1,,,,,,,,,,,,,,,*0F

$GPGSV,4,2,13,16,36,192,25,18,18,254,26,20,52,075,26,27,85,267,34*7A

$GPGSV,4,3,13,13,02,008,,15,11,037,,21,28,071,,26,11,178,*71

$GPGSV,4,4,13,30,07,322,*4C

$GLGSV,3,1,10,86,55,306,29,77,26,320,22,76,30,257,32,85,52,070,24*6B

$GLGSV,3,2,10,70,47,098,,75,05,213,,69,23,028,,84,01,091,*66

$GLGSV,3,3,10,87,02,281,,71,20,154,*66

$BDGSV,3,1,11,202,01,101,,205,15,122,,206,22,054,,209,22,085,*6A

$BDGSV,3,2,11,211,18,102,,213,02,074,,214,40,068,,216,24,060,*68

$BDGSV,3,3,11,221,07,030,,227,23,285,,228,77,299,*6E

$GPGGA,,,,,,0,,,,,,,,*66

$GNGNS,,,,,,NN,,,,,,*53

$GPVTG,,T,,M,,N,,K,N*2C

$GPRMC,,V,,,,,,,,,,N*53

$GPGSA,A,1,,,,,,,,,,,,,,,*1E

$GNGSA,A,1,,,,,,,,,,,,,,,*00

$BDGSA,A,1,,,,,,,,,,,,,,,*0F

$GPGSV,4,1,13,07,08,292,25,08,45,296,33,10,59,127,26,11,05,271,25*70

$GPGSV,4,2,13,16,36,192,25,18,18,254,26,20,52,075,26,27,85,267,34*7A

$GPGSV,4,3,13,13,02,008,,15,11,037,,21,28,071,,26,11,178,*71

$GPGSV,4,4,13,30,07,322,*4C

$GLGSV,3,1,10,86,55,306,29,77,26,320,22,76,30,257,32,85,52,070,24*6B

$GLGSV,3,2,10,70,47,098,,75,05,213,,69,23,028,,84,01,091,*66

$GLGSV,3,3,10,87,02,281,,71,20,154,*66

$BDGSV,3,1,11,202,01,101,,205,15,122,,206,22,054,,209,22,085,*6A

$BDGSV,3,2,11,211,18,102,,213,02,074,,214,40,068,,216,24,060,*68

$BDGSV,3,3,11,221,07,030,,227,23,285,,228,77,299,*6E

$GPGGA,,,,,,0,,,,,,,,*66

$GNGNS,,,,,,NN,,,,,,*53

$GPVTG,,T,,M,,N,,K,N*2C

$GPRMC,,V,,,,,,,,,,N*53

$GPGSA,A,1,,,,,,,,,,,,,,,*1E

$GNGSA,A,1,,,,,,,,,,,,,,,*00

$BDGSA,A,1,,,,,,,,,,,,,,,*0F

$GPGSV,4,1,13,07,08,292,25,08,45,296,33,10,59,127,26,11,05,271,25*70

$GPGSV,4,2,13,16,36,192,25,18,18,254,26,20,52,075,26,27,85,267,34*7A

$GPGSV,4,3,13,13,02,008,,15,11,037,,21,28,071,,26,11,178,*71

$GPGSV,4,4,13,30,07,322,*4C

$GLGSV,3,1,10,86,55,306,29,77,26,320,22,76,30,257,32,85,52,070,24*6B

$GLGSV,3,2,10,70,47,098,,75,05,213,,69,23,028,,84,01,091,*66

$GLGSV,3,3,10,87,02,281,,71,20,154,*66

$BDGSV,3,1,11,202,01,101,,205,15,122,,206,22,054,,209,22,085,*6A

$BDGSV,3,2,11,211,18,102,,213,02,074,,214,40,068,,216,24,060,*68

$BDGSV,3,3,11,221,07,030,,227,23,285,,228,77,299,*6E

$GPGGA,,,,,,0,,,,,,,,*66

$GNGNS,,,,,,NN,,,,,,*53

$GPVTG,,T,,M,,N,,K,N*2C

$GPRMC,,V,,,,,,,,,,N*53

$GPGSA,A,1,,,,,,,,,,,,,,,*1E

$GNGSA,A,1,,,,,,,,,,,,,,,*00

$BDGSA,A,1,,,,,,,,,,,,,,,*0F

$GPGSV,4,1,13,07,08,292,25,08,45,296,36,10,59,127,26,11,05,271,24*74

$GPGSV,4,2,13,16,36,192,23,18,18,254,26,20,52,075,26,27,85,267,34*7C

$GPGSV,4,3,13,13,02,008,,15,11,037,,21,28,071,,26,11,178,*71

$GPGSV,4,4,13,30,07,322,*4C

$GLGSV,3,1,10,86,55,306,29,77,26,320,20,76,30,257,31,75,05,213,20*64

$GLGSV,3,2,10,85,52,070,23,70,47,098,,69,23,028,,84,01,091,*6D

$GLGSV,3,3,10,87,02,281,,71,20,154,*66

$BDGSV,3,1,11,202,01,101,,205,15,122,,206,22,054,,209,22,085,*6A

$BDGSV,3,2,11,211,18,102,,213,02,074,,214,40,068,,216,24,060,*68

$BDGSV,3,3,11,221,07,030,,227,23,285,,228,77,299,*6E

$GPGGA,141426.2,5133.481903,N,00957.629721,E,1,08,1.0,221.8,M,47.0,M,,*58

$GNGNS,141426.2,5133.481903,N,00957.629721,E,AA,13,1.0,221.8,47.0,,*66

$GPVTG,48.2,T,48.2,M,1.8,N,3.3,K,A*2A

$GPGSA,A,3,07,08,10,11,16,18,20,27,,,,,1.8,1.0,1.4*38

$GNGSA,A,3,07,08,10,11,16,18,20,27,,,,,1.8,1.0,1.4*26

$GNGSA,A,3,86,77,76,75,85,,,,,,,,1.8,1.0,1.4*21

$BDGSA,A,3,,,,,,,,,,,,,1.8,1.0,1.4*2E

$GPRMC,141426.2,A,5133.481903,N,00957.629721,E,1.8,48.2,260619,0.0,E,A*3F

$GPGSV,4,1,13,07,08,292,25,08,45,296,36,10,59,127,26,11,05,271,24*74

$GPGSV,4,2,13,16,36,192,23,18,18,254,26,20,52,075,26,27,85,267,34*7C

$GPGSV,4,3,13,13,02,008,,15,11,037,,21,28,071,,26,11,178,*71

$GPGSV,4,4,13,30,07,322,*4C

$GLGSV,3,1,10,86,55,306,29,77,26,320,20,76,30,257,31,75,05,213,20*64

$GLGSV,3,2,10,85,52,070,23,70,47,098,,69,23,028,,84,01,091,*6D

$GLGSV,3,3,10,87,02,281,,71,20,154,*66

$BDGSV,3,1,11,202,01,101,,205,15,122,,206,22,054,,209,22,085,*6A

$BDGSV,3,2,11,211,18,102,,213,02,074,,214,40,068,,216,24,060,*68

$BDGSV,3,3,11,221,07,030,,227,23,285,,228,77,299,*6E

$GPGGA,141426.2,5133.481903,N,00957.629721,E,1,08,1.0,221.8,M,47.0,M,,*58

$GNGNS,141426.2,5133.481903,N,00957.629721,E,AA,13,1.0,221.8,47.0,,*66

$GPVTG,48.2,T,48.2,M,1.8,N,3.3,K,A*2A

$GPGSA,A,3,07,08,10,11,16,18,20,27,,,,,1.8,1.0,1.4*38

$GNGSA,A,3,07,08,10,11,16,18,20,27,,,,,1.8,1.0,1.4*26

$GNGSA,A,3,86,77,76,75,85,,,,,,,,1.8,1.0,1.4*21

$BDGSA,A,3,,,,,,,,,,,,,1.8,1.0,1.4*2E

$GPRMC,141426.2,A,5133.481903,N,00957.629721,E,1.8,48.2,260619,0.0,E,A*3F

$GPGSV,4,1,13,07,08,292,25,08,45,296,36,10,59,127,26,11,05,271,24*74

$GPGSV,4,2,13,16,36,192,23,18,18,254,26,20,52,075,26,27,85,267,34*7C

$GPGSV,4,3,13,13,02,008,,15,11,037,,21,28,071,,26,11,178,*71

$GPGSV,4,4,13,30,07,322,*4C

$GLGSV,3,1,10,86,55,306,29,77,26,320,20,76,30,257,31,75,05,213,20*64

$GLGSV,3,2,10,85,52,070,23,70,47,098,,69,23,028,,84,01,091,*6D

$GLGSV,3,3,10,87,02,281,,71,20,154,*66

$BDGSV,3,1,11,202,01,101,,205,15,122,,206,22,054,,209,22,085,*6A

$BDGSV,3,2,11,211,18,102,,213,02,074,,214,40,068,,216,24,060,*68

$BDGSV,3,3,11,221,07,030,,227,23,285,,228,77,299,*6E

$GPGGA,,,,,,0,,,,,,,,*66

$GNGNS,,,,,,NN,,,,,,*53

$GPVTG,,T,,M,,N,,K,N*2C

$GPRMC,,V,,,,,,,,,,N*53

$GPGSA,A,1,,,,,,,,,,,,,,,*1E

$GNGSA,A,1,,,,,,,,,,,,,,,*00

$BDGSA,A,1,,,,,,,,,,,,,,,*0F

$GPGSV,4,1,13,07,08,292,25,08,45,296,36,10,59,127,26,11,05,271,24*74

$GPGSV,4,2,13,16,36,192,23,18,18,254,26,20,52,075,26,27,85,267,34*7C

$GPGSV,4,3,13,13,02,008,,15,11,037,,21,28,071,,26,11,178,*71

$GPGSV,4,4,13,30,07,322,*4C

$GLGSV,3,1,10,86,55,306,29,77,26,320,20,76,30,257,31,75,05,213,20*64

$GLGSV,3,2,10,85,52,070,23,70,47,098,,69,23,028,,84,01,091,*6D

$GLGSV,3,3,10,87,02,281,,71,20,154,*66

$BDGSV,3,1,11,202,01,101,,205,15,122,,206,22,054,,209,22,085,*6A

$BDGSV,3,2,11,211,18,102,,213,02,074,,214,40,068,,216,24,060,*68

$BDGSV,3,3,11,221,07,030,,227,23,285,,228,77,299,*6E

$GPGGA,,,,,,0,,,,,,,,*66

$GNGNS,,,,,,NN,,,,,,*53

$GPVTG,,T,,M,,N,,K,N*2C

$GPRMC,,V,,,,,,,,,,N*53

$GPGSA,A,1,,,,,,,,,,,,,,,*1E

$GNGSA,A,1,,,,,,,,,,,,,,,*00

$BDGSA,A,1,,,,,,,,,,,,,,,*0F

$GPGSV,4,1,13,08,45,296,35,16,36,192,29,27,85,267,33,07,08,292,*72

$GPGSV,4,2,13,10,59,127,,11,05,271,,13,02,008,,15,11,037,*7D

$GPGSV,4,3,13,18,18,254,,20,52,075,,21,28,071,,26,11,178,*7D

$GPGSV,4,4,13,30,07,322,*4C

$GLGSV,3,1,10,86,55,306,29,77,26,320,23,76,30,257,31,75,05,213,22*65

$GPGSV,4,1,13,08,45,296,35,16,36,192,29,27,85,267,33,07,08,292,*72

$GPGSV,4,2,13,10,59,127,,11,05,271,,13,02,008,,15,11,037,*7D

$GPGSV,4,3,13,18,18,254,,20,52,075,,21,28,071,,26,11,178,*7D

$GPGSV,4,4,13,30,07,322,*4C

$GLGSV,3,1,10,86,55,306,29,77,26,320,23,76,30,257,31,75,05,213,22*65

$GLGSV,3,2,10,70,47,098,,69,23,028,,84,01,091,,87,02,281,*67

$GLGSV,3,3,10,85,52,070,,71,20,154,*6D

$BDGSV,3,1,11,202,01,101,,205,15,122,,206,22,054,,209,22,085,*6A

$BDGSV,3,2,11,211,18,102,,213,02,074,,214,40,068,,216,24,060,*68

$BDGSV,3,3,11,221,07,030,,227,23,285,,228,77,299,*6E

$GPGGA,,,,,,0,,,,,,,,*66

$GNGNS,,,,,,NN,,,,,,*53

$GPVTG,,T,,M,,N,,K,N*2C

$GPRMC,,V,,,,,,,,,,N*53

$GPGSA,A,1,,,,,,,,,,,,,,,*1E

$GNGSA,A,1,,,,,,,,,,,,,,,*00

$BDGSA,A,1,,,,,,,,,,,,,,,*0F

$GLGSV,3,2,10,70,47,098,,69,23,028,,84,01,091,,87,02,281,*67

$GLGSV,3,3,10,85,52,070,,71,20,154,*6D

$BDGSV,3,1,11,202,01,101,,205,15,122,,206,22,054,,209,22,085,*6A

$BDGSV,3,2,11,211,18,102,,213,02,074,,214,40,068,,216,24,060,*68

$BDGSV,3,3,11,221,07,030,,227,23,285,,228,77,299,*6E

$GPGGA,,,,,,0,,,,,,,,*66

$GNGNS,,,,,,NN,,,,,,*53

$GPVTG,,T,,M,,N,,K,N*2C

$GPRMC,,V,,,,,,,,,,N*53

$GPGSA,A,1,,,,,,,,,,,,,,,*1E

$GNGSA,A,1,,,,,,,,,,,,,,,*00

$BDGSA,A,1,,,,,,,,,,,,,,,*0F

$GPGSV,4,1,13,08,45,296,35,16,36,192,29,27,85,267,33,07,08,292,*72

$GPGSV,4,2,13,10,59,127,,11,05,271,,13,02,008,,15,11,037,*7D

$GPGSV,4,3,13,18,18,254,,20,52,075,,21,28,071,,26,11,178,*7D

$GPGSV,4,4,13,30,07,322,*4C

$GLGSV,3,1,10,86,55,306,29,77,26,320,23,76,30,257,31,75,05,213,22*65

$GLGSV,3,2,10,70,47,098,,69,23,028,,84,01,091,,87,02,281,*67

$GLGSV,3,3,10,85,52,070,,71,20,154,*6D

$BDGSV,3,1,11,202,01,101,,205,15,122,,206,22,054,,209,22,085,*6A

$BDGSV,3,2,11,211,18,102,,213,02,074,,214,40,068,,216,24,060,*68

$BDGSV,3,3,11,221,07,030,,227,23,285,,228,77,299,*6E

$GPGGA,,,,,,0,,,,,,,,*66

$GNGNS,,,,,,NN,,,,,,*53

$GPVTG,,T,,M,,N,,K,N*2C

$GPRMC,,V,,,,,,,,,,N*53

$GPGSA,A,1,,,,,,,,,,,,,,,*1E

$GNGSA,A,1,,,,,,,,,,,,,,,*00

$BDGSA,A,1,,,,,,,,,,,,,,,*0F

$GPGSV,4,1,13,08,45,296,35,16,36,192,29,27,85,267,33,07,08,292,*72

$GPGSV,4,2,13,10,59,127,,11,05,271,,13,02,008,,15,11,037,*7D

$GPGSV,4,3,13,18,18,254,,20,52,075,,21,28,071,,26,11,178,*7D

$GPGSV,4,4,13,30,07,322,*4C

$GLGSV,3,1,10,86,55,306,29,77,26,320,23,76,30,257,31,75,05,213,22*65

$GLGSV,3,2,10,70,47,098,,69,23,028,,84,01,091,,87,02,281,*67

$GLGSV,3,3,10,85,52,070,,71,20,154,*6D

$BDGSV,3,1,11,202,01,101,,205,15,122,,206,22,054,,209,22,085,*6A

$BDGSV,3,2,11,211,18,102,,213,02,074,,214,40,068,,216,24,060,*68

$BDGSV,3,3,11,221,07,030,,227,23,285,,228,77,299,*6E

$GPGGA,,,,,,0,,,,,,,,*66

$GNGNS,,,,,,NN,,,,,,*53

$GPVTG,,T,,M,,N,,K,N*2C

$GPRMC,,V,,,,,,,,,,N*53

$GPGSA,A,1,,,,,,,,,,,,,,,*1E

$GNGSA,A,1,,,,,,,,,,,,,,,*00

$BDGSA,A,1,,,,,,,,,,,,,,,*0F

$GPGSV,4,1,13,07,08,292,20,08,45,296,35,10,59,127,23,11,05,271,22*71

$GPGSV,4,2,13,16,36,192,27,18,18,254,24,20,52,075,26,26,11,178,20*7E

$GPGSV,4,3,13,27,85,267,34,13,02,008,,15,11,037,,21,28,071,*77

$GPGSV,4,4,13,30,07,322,*4C

$GLGSV,3,1,10,86,55,306,30,77,26,320,23,76,30,257,31,75,05,213,22*6D

$GLGSV,3,2,10,85,52,070,21,70,47,098,,69,23,028,,84,01,091,*6F

$GLGSV,3,3,10,87,02,281,,71,20,154,*66

$BDGSV,3,1,11,202,01,101,,205,15,122,,206,22,054,,209,22,085,*6A

$BDGSV,3,2,11,211,18,102,,213,02,074,,214,40,068,,216,24,060,*68

$BDGSV,3,3,11,221,07,030,,227,23,285,,228,77,299,*6E

$GPGGA,141430.3,5133.476018,N,00957.645821,E,1,09,1.0,228.4,M,47.0,M,,*54

$GNGNS,141430.3,5133.476018,N,00957.645821,E,AA,14,1.0,228.4,47.0,,*6C

$GPVTG,70.8,T,70.8,M,0.7,N,1.3,K,A*26

$GPGSA,A,3,07,08,10,11,16,18,20,26,27,,,,1.7,1.0,1.3*34

$GNGSA,A,3,07,08,10,11,16,18,20,26,27,,,,1.7,1.0,1.3*2A

$GNGSA,A,3,86,77,76,75,85,,,,,,,,1.7,1.0,1.3*29

$BDGSA,A,3,,,,,,,,,,,,,1.7,1.0,1.3*26

$GPRMC,141430.3,A,5133.476018,N,00957.645821,E,0.7,70.8,260619,0.0,E,A*38

$GPGSV,4,1,13,07,08,292,20,08,45,296,35,10,59,127,23,11,05,271,22*71

$GPGSV,4,2,13,16,36,192,27,18,18,254,24,20,52,075,26,26,11,178,20*7E

$GPGSV,4,3,13,27,85,267,34,13,02,008,,15,11,037,,21,28,071,*77

$GPGSV,4,4,13,30,07,322,*4C

$GLGSV,3,1,10,86,55,306,30,77,26,320,23,76,30,257,31,75,05,213,22*6D

$GLGSV,3,2,10,85,52,070,21,70,47,098,,69,23,028,,84,01,091,*6F

$GLGSV,3,3,10,87,02,281,,71,20,154,*66

$BDGSV,3,1,11,202,01,101,,205,15,122,,206,22,054,,209,22,085,*6A

$BDGSV,3,2,11,211,18,102,,213,02,074,,214,40,068,,216,24,060,*68

$BDGSV,3,3,11,221,07,030,,227,23,285,,228,77,299,*6E

$GPGGA,141430.3,5133.476018,N,00957.645821,E,1,09,1.0,228.4,M,47.0,M,,*54

$GNGNS,141430.3,5133.476018,N,00957.645821,E,AA,14,1.0,228.4,47.0,,*6C

$GPVTG,70.8,T,70.8,M,0.7,N,1.3,K,A*26

$GPGSA,A,3,07,08,10,11,16,18,20,26,27,,,,1.7,1.0,1.3*34

$GNGSA,A,3,07,08,10,11,16,18,20,26,27,,,,1.7,1.0,1.3*2A

$GNGSA,A,3,86,77,76,75,85,,,,,,,,1.7,1.0,1.3*29

$BDGSA,A,3,,,,,,,,,,,,,1.7,1.0,1.3*26

$GPRMC,141430.3,A,5133.476018,N,00957.645821,E,0.7,70.8,260619,0.0,E,A*38

$GPGSV,4,1,13,07,08,292,20,08,45,296,35,10,59,127,23,11,05,271,22*71

$GPGSV,4,2,13,16,36,192,27,18,18,254,24,20,52,075,26,26,11,178,20*7E

$GPGSV,4,3,13,27,85,267,34,13,02,008,,15,11,037,,21,28,071,*77

$GPGSV,4,4,13,30,07,322,*4C

$GLGSV,3,1,10,86,55,306,30,77,26,320,23,76,30,257,31,75,05,213,22*6D

$GLGSV,3,2,10,85,52,070,21,70,47,098,,69,23,028,,84,01,091,*6F

$GLGSV,3,3,10,87,02,281,,71,20,154,*66

$BDGSV,3,1,11,202,01,101,,205,15,122,,206,22,054,,209,22,085,*6A

$BDGSV,3,2,11,211,18,102,,213,02,074,,214,40,068,,216,24,060,*68

$GPGSV,4,1,13,07,08,292,20,08,45,296,35,10,59,127,23,11,05,271,22*71

$GPGSV,4,2,13,16,36,192,27,18,18,254,24,20,52,075,26,26,11,178,20*7E

$GPGSV,4,3,13,27,85,267,34,13,02,008,,15,11,037,,21,28,071,*77

$GPGSV,4,4,13,30,07,322,*4C

$GLGSV,3,1,10,86,55,306,30,77,26,320,23,76,30,257,31,75,05,213,22*6D

$GLGSV,3,2,10,85,52,070,21,70,47,098,,69,23,028,,84,01,091,*6F

$GLGSV,3,3,10,87,02,281,,71,20,154,*66

$BDGSV,3,1,11,202,01,101,,205,15,122,,206,22,054,,209,22,085,*6A

$BDGSV,3,2,11,211,18,102,,213,02,074,,214,40,068,,216,24,060,*68

$BDGSV,3,3,11,221,07,030,,227,23,285,,228,77,299,*6E

$GPGGA,,,,,,0,,,,,,,,*66

$GNGNS,,,,,,NN,,,,,,*53

$GPVTG,,T,,M,,N,,K,N*2C

$GPRMC,,V,,,,,,,,,,N*53

$GPGSA,A,1,,,,,,,,,,,,,,,*1E

$GNGSA,A,1,,,,,,,,,,,,,,,*00

$BDGSA,A,1,,,,,,,,,,,,,,,*0F

$BDGSV,3,3,11,221,07,030,,227,23,285,,228,77,299,*6E

$GPGGA,,,,,,0,,,,,,,,*66

$GNGNS,,,,,,NN,,,,,,*53

$GPVTG,,T,,M,,N,,K,N*2C

$GPRMC,,V,,,,,,,,,,N*53

$GPGSA,A,1,,,,,,,,,,,,,,,*1E

$GNGSA,A,1,,,,,,,,,,,,,,,*00

$BDGSA,A,1,,,,,,,,,,,,,,,*0F

$GPGSV,4,1,13,07,08,292,25,08,45,296,36,10,59,127,23,16,36,192,27*7B

$GPGSV,4,2,13,18,18,254,26,20,52,075,25,27,85,267,33,11,05,271,*70

$GPGSV,4,3,13,13,02,008,,15,11,037,,21,28,071,,26,11,178,*71

$GPGSV,4,4,13,30,07,322,*4C

$GLGSV,3,1,10,86,55,306,29,76,30,257,31,75,05,213,22,70,47,098,*64

$GLGSV,3,2,10,77,26,320,,69,23,028,,84,01,091,,87,02,281,*67

$GPGSV,4,1,13,07,08,292,25,08,45,296,36,10,59,127,23,16,36,192,27*7B

$GPGSV,4,2,13,18,18,254,26,20,52,075,25,27,85,267,33,11,05,271,*70

$GPGSV,4,3,13,13,02,008,,15,11,037,,21,28,071,,26,11,178,*71

$GPGSV,4,4,13,30,07,322,*4C

$GLGSV,3,1,10,86,55,306,29,76,30,257,31,75,05,213,22,70,47,098,*64

$GLGSV,3,2,10,77,26,320,,69,23,028,,84,01,091,,87,02,281,*67

$GLGSV,3,3,10,85,52,070,,71,20,154,*6D

$BDGSV,3,1,11,202,01,101,,205,15,122,,206,22,054,,209,22,085,*6A

$BDGSV,3,2,11,211,18,102,,213,02,074,,214,40,068,,216,24,060,*68

$BDGSV,3,3,11,221,07,030,,227,23,285,,228,77,299,*6E

$GPGGA,,,,,,0,,,,,,,,*66

$GNGNS,,,,,,NN,,,,,,*53

$GPVTG,,T,,M,,N,,K,N*2C

$GPRMC,,V,,,,,,,,,,N*53

$GPGSA,A,1,,,,,,,,,,,,,,,*1E

$GNGSA,A,1,,,,,,,,,,,,,,,*00

$BDGSA,A,1,,,,,,,,,,,,,,,*0F

$GLGSV,3,3,10,85,52,070,,71,20,154,*6D

$BDGSV,3,1,11,202,01,101,,205,15,122,,206,22,054,,209,22,085,*6A

$BDGSV,3,2,11,211,18,102,,213,02,074,,214,40,068,,216,24,060,*68

$BDGSV,3,3,11,221,07,030,,227,23,285,,228,77,299,*6E

$GPGGA,,,,,,0,,,,,,,,*66

$GNGNS,,,,,,NN,,,,,,*53

$GPVTG,,T,,M,,N,,K,N*2C

$GPRMC,,V,,,,,,,,,,N*53

$GPGSA,A,1,,,,,,,,,,,,,,,*1E

$GNGSA,A,1,,,,,,,,,,,,,,,*00

$BDGSA,A,1,,,,,,,,,,,,,,,*0F

$GPGSV,4,1,13,07,08,292,25,08,45,296,36,10,59,127,23,16,36,192,27*7B

$GPGSV,4,2,13,18,18,254,26,20,52,075,25,27,85,267,33,11,05,271,*70

$GPGSV,4,3,13,13,02,008,,15,11,037,,21,28,071,,26,11,178,*71

$GPGSV,4,4,13,30,07,322,*4C

$GLGSV,3,1,10,86,55,306,29,76,30,257,31,75,05,213,22,70,47,098,*64

$GLGSV,3,2,10,77,26,320,,69,23,028,,84,01,091,,87,02,281,*67

$GLGSV,3,3,10,85,52,070,,71,20,154,*6D

$BDGSV,3,1,11,202,01,101,,205,15,122,,206,22,054,,209,22,085,*6A

$BDGSV,3,2,11,211,18,102,,213,02,074,,214,40,068,,216,24,060,*68

$BDGSV,3,3,11,221,07,030,,227,23,285,,228,77,299,*6E

$GPGGA,,,,,,0,,,,,,,,*66

$GNGNS,,,,,,NN,,,,,,*53

$GPVTG,,T,,M,,N,,K,N*2C

$GPRMC,,V,,,,,,,,,,N*53

$GPGSA,A,1,,,,,,,,,,,,,,,*1E

$GNGSA,A,1,,,,,,,,,,,,,,,*00

$BDGSA,A,1,,,,,,,,,,,,,,,*0F

$GPGSV,4,1,13,07,08,292,25,08,45,296,36,10,59,127,23,16,36,192,27*7B

$GPGSV,4,2,13,18,18,254,26,20,52,075,25,27,85,267,33,11,05,271,*70

$GPGSV,4,3,13,13,02,008,,15,11,037,,21,28,071,,26,11,178,*71

$GPGSV,4,4,13,30,07,322,*4C

$GLGSV,3,1,10,86,55,306,29,76,30,257,31,75,05,213,22,70,47,098,*64

$GLGSV,3,2,10,77,26,320,,69,23,028,,84,01,091,,87,02,281,*67

$GLGSV,3,3,10,85,52,070,,71,20,154,*6D

$BDGSV,3,1,11,202,01,101,,205,15,122,,206,22,054,,209,22,085,*6A

$BDGSV,3,2,11,211,18,102,,213,02,074,,214,40,068,,216,24,060,*68

$BDGSV,3,3,11,221,07,030,,227,23,285,,228,77,299,*6E

$GPGGA,,,,,,0,,,,,,,,*66

$GNGNS,,,,,,NN,,,,,,*53

$GPVTG,,T,,M,,N,,K,N*2C

$GPRMC,,V,,,,,,,,,,N*53

$GPGSA,A,1,,,,,,,,,,,,,,,*1E

$GNGSA,A,1,,,,,,,,,,,,,,,*00

$BDGSA,A,1,,,,,,,,,,,,,,,*0F

$GPGSV,4,1,13,07,08,292,26,08,45,296,37,10,59,127,23,16,36,192,28*76

$GPGSV,4,2,13,18,18,254,25,20,52,075,25,27,85,267,34,11,05,271,*74

$GPGSV,4,3,13,13,02,008,,15,11,037,,21,28,071,,26,11,178,*71

$GPGSV,4,4,13,30,07,322,*4C

$GLGSV,3,1,10,86,55,306,29,77,26,320,21,76,30,257,32,75,05,213,22*64

$GLGSV,3,2,10,85,52,070,22,70,47,098,,69,23,028,,84,01,091,*6C

$GLGSV,3,3,10,87,02,281,,71,20,154,*66

$BDGSV,3,1,11,202,01,101,,205,15,122,,206,22,054,,209,22,085,*6A

$BDGSV,3,2,11,211,18,102,,213,02,074,,214,40,068,,216,24,060,*68

$BDGSV,3,3,11,221,07,030,,227,23,285,,228,77,299,*6E

$GPGGA,141434.2,5133.478259,N,00957.612094,E,1,07,1.0,264.7,M,47.0,M,,*59

$GNGNS,141434.2,5133.478259,N,00957.612094,E,AA,12,1.0,264.7,47.0,,*69

$GPVTG,70.8,T,70.8,M,0.5,N,1.0,K,A*27

$GPGSA,A,3,07,08,10,16,18,20,27,,,,,,1.9,1.0,1.5*38

$GNGSA,A,3,07,08,10,16,18,20,27,,,,,,1.9,1.0,1.5*26

$GNGSA,A,3,86,77,76,75,85,,,,,,,,1.9,1.0,1.5*21

$BDGSA,A,3,,,,,,,,,,,,,1.9,1.0,1.5*2E

$GPRMC,141434.2,A,5133.478259,N,00957.612094,E,0.5,70.8,260619,0.0,E,A*32

$GPGSV,4,1,13,07,08,292,26,08,45,296,37,10,59,127,23,16,36,192,28*76

$GPGSV,4,2,13,18,18,254,25,20,52,075,25,27,85,267,34,11,05,271,*74

$GPGSV,4,3,13,13,02,008,,15,11,037,,21,28,071,,26,11,178,*71

$GPGSV,4,4,13,30,07,322,*4C

$GLGSV,3,1,10,86,55,306,29,77,26,320,21,76,30,257,32,75,05,213,22*64

$GLGSV,3,2,10,85,52,070,22,70,47,098,,69,23,028,,84,01,091,*6C

$GLGSV,3,3,10,87,02,281,,71,20,154,*66

$BDGSV,3,1,11,202,01,101,,205,15,122,,206,22,054,,209,22,085,*6A

$BDGSV,3,2,11,211,18,102,,213,02,074,,214,40,068,,216,24,060,*68

$BDGSV,3,3,11,221,07,030,,227,23,285,,228,77,299,*6E

$GPGGA,141434.2,5133.478259,N,00957.612094,E,1,07,1.0,264.7,M,47.0,M,,*59

$GNGNS,141434.2,5133.478259,N,00957.612094,E,AA,12,1.0,264.7,47.0,,*69

$GPVTG,70.8,T,70.8,M,0.5,N,1.0,K,A*27

$GPGSA,A,3,07,08,10,16,18,20,27,,,,,,1.9,1.0,1.5*38

$GNGSA,A,3,07,08,10,16,18,20,27,,,,,,1.9,1.0,1.5*26

$GNGSA,A,3,86,77,76,75,85,,,,,,,,1.9,1.0,1.5*21

$BDGSA,A,3,,,,,,,,,,,,,1.9,1.0,1.5*2E

$GPRMC,141434.2,A,5133.478259,N,00957.612094,E,0.5,70.8,260619,0.0,E,A*32

$GPGSV,4,1,13,07,08,292,26,08,45,296,37,10,59,127,23,16,36,192,28*76

$GPGSV,4,2,13,18,18,254,25,20,52,075,25,27,85,267,34,11,05,271,*74

$GPGSV,4,3,13,13,02,008,,15,11,037,,21,28,071,,26,11,178,*71

$GPGSV,4,4,13,30,07,322,*4C

$GLGSV,3,1,10,86,55,306,29,77,26,320,21,76,30,257,32,75,05,213,22*64

$GLGSV,3,2,10,85,52,070,22,70,47,098,,69,23,028,,84,01,091,*6C

$GLGSV,3,3,10,87,02,281,,71,20,154,*66

$BDGSV,3,1,11,202,01,101,,205,15,122,,206,22,054,,209,22,085,*6A

$BDGSV,3,2,11,211,18,102,,213,02,074,,214,40,068,,216,24,060,*68

$BDGSV,3,3,11,221,07,030,,227,23,285,,228,77,299,*6E

$GPGSV,4,1,13,07,08,292,26,08,45,296,37,10,59,127,23,16,36,192,28*76

$GPGSV,4,2,13,18,18,254,25,20,52,075,25,27,85,267,34,11,05,271,*74

$GPGSV,4,3,13,13,02,008,,15,11,037,,21,28,071,,26,11,178,*71

$GPGSV,4,4,13,30,07,322,*4C

$GLGSV,3,1,10,86,55,306,29,77,26,320,21,76,30,257,32,75,05,213,22*64

$GLGSV,3,2,10,85,52,070,22,70,47,098,,69,23,028,,84,01,091,*6C

$GLGSV,3,3,10,87,02,281,,71,20,154,*66

$BDGSV,3,1,11,202,01,101,,205,15,122,,206,22,054,,209,22,085,*6A

$BDGSV,3,2,11,211,18,102,,213,02,074,,214,40,068,,216,24,060,*68

$BDGSV,3,3,11,221,07,030,,227,23,285,,228,77,299,*6E

$GPGGA,,,,,,0,,,,,,,,*66

$GNGNS,,,,,,NN,,,,,,*53

$GPVTG,,T,,M,,N,,K,N*2C

$GPRMC,,V,,,,,,,,,,N*53

$GPGSA,A,1,,,,,,,,,,,,,,,*1E

$GNGSA,A,1,,,,,,,,,,,,,,,*00

$BDGSA,A,1,,,,,,,,,,,,,,,*0F

$GPGGA,,,,,,0,,,,,,,,*66

$GNGNS,,,,,,NN,,,,,,*53

$GPVTG,,T,,M,,N,,K,N*2C

$GPRMC,,V,,,,,,,,,,N*53

$GPGSA,A,1,,,,,,,,,,,,,,,*1E

$GNGSA,A,1,,,,,,,,,,,,,,,*00

$BDGSA,A,1,,,,,,,,,,,,,,,*0F

$GPGSV,4,1,13,07,08,292,27,08,45,296,37,16,36,192,27,27,85,265,33*79

$GPGSV,4,1,13,07,08,292,27,08,45,296,37,16,36,192,27,27,85,265,33*79

$GPGSV,4,2,13,10,59,127,,11,05,271,,13,02,008,,15,11,037,*7D

$GPGSV,4,3,13,18,18,254,,20,52,075,,21,27,071,,26,11,178,*72

$GPGSV,4,4,13,30,07,320,*4E

$GLGSV,3,1,10,86,55,306,29,76,30,257,34,85,52,070,23,70,47,098,*6A

$GLGSV,3,2,10,77,26,320,,75,05,213,,69,23,028,,84,01,091,*66

$GLGSV,3,3,10,87,02,281,,71,20,154,*66

$BDGSV,3,1,11,202,01,101,,205,15,122,,206,22,054,,209,22,085,*6A

$BDGSV,3,2,11,211,18,102,,213,01,074,,214,40,068,,216,24,060,*6B

$BDGSV,3,3,11,221,07,030,,227,23,285,,228,77,299,*6E

$GPGGA,,,,,,0,,,,,,,,*66

$GPGSV,4,2,13,10,59,127,,11,05,271,,13,02,008,,15,11,037,*7D

$GPGSV,4,3,13,18,18,254,,20,52,075,,21,27,071,,26,11,178,*72

$GPGSV,4,4,13,30,07,320,*4E

$GLGSV,3,1,10,86,55,306,29,76,30,257,34,85,52,070,23,70,47,098,*6A

$GLGSV,3,2,10,77,26,320,,75,05,213,,69,23,028,,84,01,091,*66

$GLGSV,3,3,10,87,02,281,,71,20,154,*66

$BDGSV,3,1,11,202,01,101,,205,15,122,,206,22,054,,209,22,085,*6A

$BDGSV,3,2,11,211,18,102,,213,01,074,,214,40,068,,216,24,060,*6B

$BDGSV,3,3,11,221,07,030,,227,23,285,,228,77,299,*6E

$GPGGA,,,,,,0,,,,,,,,*66

$GNGNS,,,,,,NN,,,,,,*53

$GPVTG,,T,,M,,N,,K,N*2C

$GPRMC,,V,,,,,,,,,,N*53

$GPGSA,A,1,,,,,,,,,,,,,,,*1E

$GNGSA,A,1,,,,,,,,,,,,,,,*00

$BDGSA,A,1,,,,,,,,,,,,,,,*0F

$GNGNS,,,,,,NN,,,,,,*53

$GPVTG,,T,,M,,N,,K,N*2C

$GPRMC,,V,,,,,,,,,,N*53

$GPGSA,A,1,,,,,,,,,,,,,,,*1E

$GNGSA,A,1,,,,,,,,,,,,,,,*00

$BDGSA,A,1,,,,,,,,,,,,,,,*0F

$GPGSV,4,1,13,07,08,292,27,08,45,296,37,16,36,192,27,27,85,265,33*79

$GPGSV,4,2,13,10,59,127,,11,05,271,,13,02,008,,15,11,037,*7D

$GPGSV,4,3,13,18,18,254,,20,52,075,,21,27,071,,26,11,178,*72

$GPGSV,4,4,13,30,07,320,*4E

$GLGSV,3,1,10,86,55,306,29,76,30,257,34,85,52,070,23,70,47,098,*6A

$GLGSV,3,2,10,77,26,320,,75,05,213,,69,23,028,,84,01,091,*66

$GLGSV,3,3,10,87,02,281,,71,20,154,*66

$BDGSV,3,1,11,202,01,101,,205,15,122,,206,22,054,,209,22,085,*6A

$BDGSV,3,2,11,211,18,102,,213,01,074,,214,40,068,,216,24,060,*6B

$BDGSV,3,3,11,221,07,030,,227,23,285,,228,77,299,*6E

$GPGGA,,,,,,0,,,,,,,,*66

$GNGNS,,,,,,NN,,,,,,*53

$GPVTG,,T,,M,,N,,K,N*2C

$GPRMC,,V,,,,,,,,,,N*53

$GPGSA,A,1,,,,,,,,,,,,,,,*1E

$GNGSA,A,1,,,,,,,,,,,,,,,*00

$BDGSA,A,1,,,,,,,,,,,,,,,*0F

$GPGSV,4,1,13,07,08,292,27,08,45,296,37,16,36,192,27,27,85,265,33*79

$GPGSV,4,2,13,10,59,127,,11,05,271,,13,02,008,,15,11,037,*7D

$GPGSV,4,3,13,18,18,254,,20,52,075,,21,27,071,,26,11,178,*72

$GPGSV,4,4,13,30,07,320,*4E

$GLGSV,3,1,10,86,55,306,29,76,30,257,34,85,52,070,23,70,47,098,*6A

$GLGSV,3,2,10,77,26,320,,75,05,213,,69,23,028,,84,01,091,*66

$GLGSV,3,3,10,87,02,281,,71,20,154,*66

$BDGSV,3,1,11,202,01,101,,205,15,122,,206,22,054,,209,22,085,*6A

$BDGSV,3,2,11,211,18,102,,213,01,074,,214,40,068,,216,24,060,*6B

$BDGSV,3,3,11,221,07,030,,227,23,285,,228,77,299,*6E

$GPGGA,,,,,,0,,,,,,,,*66

$GNGNS,,,,,,NN,,,,,,*53

$GPVTG,,T,,M,,N,,K,N*2C

$GPRMC,,V,,,,,,,,,,N*53

$GPGSA,A,1,,,,,,,,,,,,,,,*1E

$GNGSA,A,1,,,,,,,,,,,,,,,*00

$BDGSA,A,1,,,,,,,,,,,,,,,*0F

$GPGSV,4,1,13,07,08,292,29,08,45,296,36,10,59,127,22,11,05,271,20*78

$GPGSV,4,2,13,16,36,192,27,18,18,254,24,20,52,075,26,27,85,265,34*78

$GPGSV,4,3,13,13,02,008,,15,11,037,,21,27,071,,26,11,178,*7E

$GPGSV,4,4,13,30,07,320,*4E

$GLGSV,3,1,10,86,55,306,28,77,26,320,22,76,30,257,32,85,52,070,24*6A

$GLGSV,3,2,10,70,47,098,,75,05,213,,69,23,028,,84,01,091,*66

$GLGSV,3,3,10,87,02,281,,71,20,154,*66

$BDGSV,3,1,11,202,01,101,,205,15,122,,206,22,054,,209,22,085,*6A

$BDGSV,3,2,11,211,18,102,,213,01,074,,214,40,068,,216,24,060,*6B

$BDGSV,3,3,11,221,07,030,,227,23,285,,228,77,299,*6E

$GPGGA,141438.3,5133.481745,N,00957.636783,E,1,08,1.2,227.2,M,47.0,M,,*52

$GNGNS,141438.3,5133.481745,N,00957.636783,E,AA,12,1.2,227.2,47.0,,*6D

$GPVTG,9.1,T,9.1,M,2.2,N,4.1,K,A*26

$GPGSA,A,3,07,08,10,11,16,18,20,27,,,,,2.0,1.2,1.7*32

$GNGSA,A,3,07,08,10,11,16,18,20,27,,,,,2.0,1.2,1.7*2C

$GNGSA,A,3,86,77,76,85,,,,,,,,,2.0,1.2,1.7*29

$BDGSA,A,3,,,,,,,,,,,,,2.0,1.2,1.7*24

$GPRMC,141438.3,A,5133.481745,N,00957.636783,E,2.2,9.1,260619,0.0,E,A*04

$GPGSV,4,1,13,07,08,292,29,08,45,296,36,10,59,127,22,11,05,271,20*78

$GPGSV,4,2,13,16,36,192,27,18,18,254,24,20,52,075,26,27,85,265,34*78

$GPGSV,4,3,13,13,02,008,,15,11,037,,21,27,071,,26,11,178,*7E

$GPGSV,4,4,13,30,07,320,*4E

$GLGSV,3,1,10,86,55,306,28,77,26,320,22,76,30,257,32,85,52,070,24*6A

$GLGSV,3,2,10,70,47,098,,75,05,213,,69,23,028,,84,01,091,*66

$GLGSV,3,3,10,87,02,281,,71,20,154,*66

$BDGSV,3,1,11,202,01,101,,205,15,122,,206,22,054,,209,22,085,*6A

$BDGSV,3,2,11,211,18,102,,213,01,074,,214,40,068,,216,24,060,*6B

$BDGSV,3,3,11,221,07,030,,227,23,285,,228,77,299,*6E

$GPGGA,141438.3,5133.481745,N,00957.636783,E,1,08,1.2,227.2,M,47.0,M,,*52

$GNGNS,141438.3,5133.481745,N,00957.636783,E,AA,12,1.2,227.2,47.0,,*6D

$GPVTG,9.1,T,9.1,M,2.2,N,4.1,K,A*26

$GPGSA,A,3,07,08,10,11,16,18,20,27,,,,,2.0,1.2,1.7*32

$GNGSA,A,3,07,08,10,11,16,18,20,27,,,,,2.0,1.2,1.7*2C

$GNGSA,A,3,86,77,76,85,,,,,,,,,2.0,1.2,1.7*29

$BDGSA,A,3,,,,,,,,,,,,,2.0,1.2,1.7*24

$GPRMC,141438.3,A,5133.481745,N,00957.636783,E,2.2,9.1,260619,0.0,E,A*04

$GPGSV,4,1,13,07,08,292,29,08,45,296,36,10,59,127,22,11,05,271,20*78

$GPGSV,4,1,13,07,08,292,29,08,45,296,36,10,59,127,22,11,05,271,20*78

$GPGSV,4,2,13,16,36,192,27,18,18,254,24,20,52,075,26,27,85,265,34*78

$GPGSV,4,2,13,16,36,192,27,18,18,254,24,20,52,075,26,27,85,265,34*78

$GPGSV,4,3,13,13,02,008,,15,11,037,,21,27,071,,26,11,178,*7E

$GPGSV,4,4,13,30,07,320,*4E

$GLGSV,3,1,10,86,55,306,28,77,26,320,22,76,30,257,32,85,52,070,24*6A

$GPGSV,4,3,13,13,02,008,,15,11,037,,21,27,071,,26,11,178,*7E

$GPGSV,4,4,13,30,07,320,*4E

$GLGSV,3,1,10,86,55,306,28,77,26,320,22,76,30,257,32,85,52,070,24*6A

$GLGSV,3,2,10,70,47,098,,75,05,213,,69,23,028,,84,01,091,*66

$GLGSV,3,3,10,87,02,281,,71,20,154,*66

$BDGSV,3,1,11,202,01,101,,205,15,122,,206,22,054,,209,22,085,*6A

$BDGSV,3,2,11,211,18,102,,213,01,074,,214,40,068,,216,24,060,*6B

$BDGSV,3,3,11,221,07,030,,227,23,285,,228,77,299,*6E

$GPGGA,,,,,,0,,,,,,,,*66

$GNGNS,,,,,,NN,,,,,,*53

$GPVTG,,T,,M,,N,,K,N*2C

$GPRMC,,V,,,,,,,,,,N*53

$GPGSA,A,1,,,,,,,,,,,,,,,*1E

$GNGSA,A,1,,,,,,,,,,,,,,,*00

$BDGSA,A,1,,,,,,,,,,,,,,,*0F

$GLGSV,3,2,10,70,47,098,,75,05,213,,69,23,028,,84,01,091,*66

$GLGSV,3,3,10,87,02,281,,71,20,154,*66

$BDGSV,3,1,11,202,01,101,,205,15,122,,206,22,054,,209,22,085,*6A

$BDGSV,3,2,11,211,18,102,,213,01,074,,214,40,068,,216,24,060,*6B

$BDGSV,3,3,11,221,07,030,,227,23,285,,228,77,299,*6E

$GPGGA,,,,,,0,,,,,,,,*66

$GPGSA,A,1,,,,,,,,,,,,,,,*1E

$GNGSA,A,1,,,,,,,,,,,,,,,*00

$BDGSA,A,1,,,,,,,,,,,,,,,*0F

$GPGSV,4,1,13,07,08,292,28,08,45,296,37,16,36,192,28,18,18,254,26*77

$GPGSV,4,2,13,27,85,265,34,10,59,127,,11,05,271,,13,02,008,*73

$GPGSV,4,3,13,15,11,037,,20,52,075,,21,27,073,,26,11,178,*73

$GPGSV,4,1,13,07,08,292,28,08,45,296,37,16,36,192,28,18,18,254,26*77

$GPGSV,4,2,13,27,85,265,34,10,59,127,,11,05,271,,13,02,008,*73

$GPGSV,4,3,13,15,11,037,,20,52,075,,21,27,073,,26,11,178,*73

$GPGSV,4,4,13,30,07,320,*4E

$GLGSV,3,1,10,86,55,306,30,76,30,257,32,70,47,098,,77,26,320,*6D

$GLGSV,3,2,10,75,05,213,,69,23,028,,84,01,091,,87,02,281,*65

$GLGSV,3,3,10,85,52,070,,71,20,154,*6D

$BDGSV,3,1,11,227,23,285,29,202,01,101,,205,15,122,,206,22,054,*6E

$BDGSV,3,2,11,209,22,085,,211,18,102,,213,01,074,,214,40,068,*68

$BDGSV,3,3,11,216,24,060,,221,07,030,,228,77,299,*62

$GPGGA,,,,,,0,,,,,,,,*66

$GNGNS,,,,,,NN,,,,,,*53

$GPVTG,,T,,M,,N,,K,N*2C

$GPRMC,,V,,,,,,,,,,N*53

$GPGSA,A,1,,,,,,,,,,,,,,,*1E

$GNGSA,A,1,,,,,,,,,,,,,,,*00

$BDGSA,A,1,,,,,,,,,,,,,,,*0F

$GPGSV,4,4,13,30,07,320,*4E

$GLGSV,3,1,10,86,55,306,30,76,30,257,32,70,47,098,,77,26,320,*6D

$GLGSV,3,2,10,75,05,213,,69,23,028,,84,01,091,,87,02,281,*65

$GLGSV,3,3,10,85,52,070,,71,20,154,*6D

$BDGSV,3,1,11,227,23,285,29,202,01,101,,205,15,122,,206,22,054,*6E

$BDGSV,3,2,11,209,22,085,,211,18,102,,213,01,074,,214,40,068,*68

$BDGSV,3,3,11,216,24,060,,221,07,030,,228,77,299,*62

