$GNGNS,141449.1,,,,,NN,,,,,,*41

$GPVTG,,T,,M,,N,,K,N*2C

$GPGSA,A,1,,,,,,,,,,,,,,,*1E

$GNGSA,A,1,,,,,,,,,,,,,,,*00

$GPGGA,,,,,,0,,,,,,,,*66

$GPRMC,,V,,,,,,,,,,N*53

$GNGNS,141449.1,,,,,NN,,,,,,*41

$GPVTG,,T,,M,,N,,K,N*2C

$GPGSA,A,1,,,,,,,,,,,,,,,*1E

$GNGSA,A,1,,,,,,,,,,,,,,,*00

$GPGGA,,,,,,0,,,,,,,,*66

$GPRMC,,V,,,,,,,,,,N*53

$GLGSV,3,1,10,70,47,098,35,85,52,070,38,86,55,307,,77,26,320,*6C

$GLGSV,3,2,10,76,30,257,,75,05,213,,69,23,028,,84,01,091,*61

$GLGSV,3,3,10,87,02,281,,71,20,154,*66

$GPGSV,4,1,13,10,59,127,35,20,52,075,38,21,27,073,38,07,08,292,*72

$GPGSV,4,2,13,08,45,296,,11,05,271,,13,02,008,,15,11,037,*70

$GPGSV,4,3,13,16,36,192,,18,18,254,,26,11,178,,27,85,264,*75

$GPGSV,4,4,13,30,07,320,*4E

$GNGNS,141450.1,,,,,NN,,,,,,*49

$GPVTG,,T,,M,,N,,K,N*2C

$GPGSA,A,1,,,,,,,,,,,,,,,*1E

$GNGSA,A,1,,,,,,,,,,,,,,,*00

$GPGGA,,,,,,0,,,,,,,,*66

$GPRMC,,V,,,,,,,,,,N*53

$GLGSV,3,1,10,70,47,098,35,85,52,070,38,86,55,307,,77,26,320,*6C

$GLGSV,3,2,10,76,30,257,,75,05,213,,69,23,028,,84,01,091,*61

$GLGSV,3,3,10,87,02,281,,71,20,154,*66

$GPGSV,4,1,13,10,59,127,35,20,52,075,38,21,27,073,38,07,08,292,*72

$GPGSV,4,2,13,08,45,296,,11,05,271,,13,02,008,,15,11,037,*70

$GPGSV,4,3,13,16,36,192,,18,18,254,,26,11,178,,27,85,264,*75

$GPGSV,4,4,13,30,07,320,*4E

$GNGNS,141450.1,,,,,NN,,,,,,*49

$GPVTG,,T,,M,,N,,K,N*2C

$GPGSA,A,1,,,,,,,,,,,,,,,*1E

$GNGSA,A,1,,,,,,,,,,,,,,,*00

$GPGGA,,,,,,0,,,,,,,,*66

$GPRMC,,V,,,,,,,,,,N*53

$GLGSV,3,1,10,70,47,098,31,75,05,213,27,85,52,070,39,71,20,154,25*67

$GLGSV,3,2,10,86,55,307,,77,26,320,,76,30,257,,69,23,028,*6C

$GLGSV,3,3,10,84,01,091,,87,02,281,*67

$GPGSV,4,1,13,07,08,292,25,08,45,296,25,10,59,127,39,11,05,271,24*78

$GPGSV,4,2,13,16,36,192,31,18,18,254,25,20,52,075,38,21,27,073,39*77

$GPGSV,4,3,13,26,11,178,32,27,85,264,24,30,07,320,20,13,02,008,*76

$GPGSV,4,4,13,15,11,037,*4B

$GPGGA,141450.6,5133.475003,N,00957.647520,E,1,09,0.9,228.1,M,47.0,M,,*5D

$GNGNS,141450.6,5133.475003,N,00957.647520,E,AA,13,0.9,228.1,47.0,,*62

$GPVTG,287.1,T,287.2,M,0.0,N,0.0,K,A*20

$GPGSA,A,3,07,08,10,16,18,20,21,26,27,,,,1.6,0.9,1.3*3E

$GNGSA,A,3,07,08,10,16,18,20,21,26,27,,,,1.6,0.9,1.3*20

$GNGSA,A,3,70,75,85,71,,,,,,,,,1.6,0.9,1.3*2E

$GPRMC,141450.6,A,5133.475003,N,00957.647520,E,0.0,287.1,260619,0.1,W,A*1B

$PSTIS,*61

$GLGSV,3,1,10,70,47,098,31,75,05,213,27,85,52,070,39,71,20,154,25*67

$GLGSV,3,2,10,86,55,307,,77,26,320,,76,30,257,,69,23,028,*6C

$GLGSV,3,3,10,84,01,091,,87,02,281,*67

$GPGSV,4,1,13,07,08,292,25,08,45,296,25,10,59,127,39,11,05,271,24*78

$GPGSV,4,2,13,16,36,192,31,18,18,254,25,20,52,075,38,21,27,073,39*77

$GPGSV,4,3,13,26,11,178,32,27,85,264,24,30,07,320,20,13,02,008,*76

$GPGSV,4,4,13,15,11,037,*4B

$GPGGA,141451.1,5133.474992,N,00957.647463,E,1,09,0.9,228.0,M,47.0,M,,*5C

$GNGNS,141451.1,5133.474992,N,00957.647463,E,AA,13,0.9,228.0,47.0,,*63

$GPVTG,287.1,T,287.2,M,0.0,N,0.0,K,A*20

$GPGSA,A,3,07,08,10,16,18,20,21,26,27,,,,1.6,0.9,1.3*3E

$GNGSA,A,3,07,08,10,16,18,20,21,26,27,,,,1.6,0.9,1.3*20

$GNGSA,A,3,70,75,85,71,,,,,,,,,1.6,0.9,1.3*2E

$GPRMC,141451.1,A,5133.474992,N,00957.647463,E,0.0,287.1,260619,0.1,W,A*1B

$PSTIS,*61

$GLGSV,3,1,10,70,47,098,31,75,05,213,27,85,52,070,39,71,20,154,25*67

$GLGSV,3,2,10,86,55,307,,77,26,320,,76,30,257,,69,23,028,*6C

$GLGSV,3,3,10,84,01,091,,87,02,281,*67

$GPGSV,4,1,13,07,08,292,25,08,45,296,25,10,59,127,39,11,05,271,24*78

$GPGSV,4,2,13,16,36,192,31,18,18,254,25,20,52,075,38,21,27,073,39*77

$GPGSV,4,3,13,26,11,178,32,27,85,264,24,30,07,320,20,13,02,008,*76

$GPGSV,4,4,13,15,11,037,*4B

$GPGGA,141450.6,5133.475003,N,00957.647520,E,1,09,0.9,228.1,M,47.0,M,,*5D

$GNGNS,141450.6,5133.475003,N,00957.647520,E,AA,13,0.9,228.1,47.0,,*62

$GPVTG,287.1,T,287.2,M,0.0,N,0.0,K,A*20

$GPGSA,A,3,07,08,10,16,18,20,21,26,27,,,,1.6,0.9,1.3*3E

$GNGSA,A,3,07,08,10,16,18,20,21,26,27,,,,1.6,0.9,1.3*20

$GNGSA,A,3,70,75,85,71,,,,,,,,,1.6,0.9,1.3*2E

$GPRMC,141450.6,A,5133.475003,N,00957.647520,E,0.0,287.1,260619,0.1,W,A*1B

$PSTIS,*61

$GLGSV,3,1,10,70,47,098,31,75,05,213,27,85,52,070,39,71,20,154,25*67

$GLGSV,3,2,10,86,55,307,,77,26,320,,76,30,257,,69,23,028,*6C

$GLGSV,3,3,10,84,01,091,,87,02,281,*67

$GPGSV,4,1,13,07,08,292,25,08,45,296,25,10,59,127,39,11,05,271,24*78

$GPGSV,4,2,13,16,36,192,31,18,18,254,25,20,52,075,38,21,27,073,39*77

$GPGSV,4,3,13,26,11,178,32,27,85,264,24,30,07,320,20,13,02,008,*76

$GPGSV,4,4,13,15,11,037,*4B

$GPGGA,141451.1,5133.474992,N,00957.647463,E,1,09,0.9,228.0,M,47.0,M,,*5C

$GNGNS,141451.1,5133.474992,N,00957.647463,E,AA,13,0.9,228.0,47.0,,*63

$GPVTG,287.1,T,287.2,M,0.0,N,0.0,K,A*20

$GPGSA,A,3,07,08,10,16,18,20,21,26,27,,,,1.6,0.9,1.3*3E

$GNGSA,A,3,07,08,10,16,18,20,21,26,27,,,,1.6,0.9,1.3*20

$GNGSA,A,3,70,75,85,71,,,,,,,,,1.6,0.9,1.3*2E

$GPRMC,141451.1,A,5133.474992,N,00957.647463,E,0.0,287.1,260619,0.1,W,A*1B

$PSTIS,*61

$GLGSV,3,1,10,70,47,098,31,76,30,257,22,75,05,213,28,69,23,028,26*6E

$GLGSV,3,2,10,85,52,070,33,71,20,154,28,86,55,307,,77,26,320,*69

$GLGSV,3,3,10,84,01,091,,87,02,281,*67

$GPGSV,4,1,13,07,08,292,25,08,45,296,29,10,59,127,36,11,05,271,21*7E

$GPGSV,4,2,13,15,11,037,26,16,36,192,36,18,18,254,26,20,52,075,33*74

$GPGSV,4,3,13,21,27,073,36,26,11,178,33,27,85,267,25,30,07,320,23*79

$GPGSV,4,4,13,13,02,008,*43

$GPGGA,141452.1,5133.475793,N,00957.646169,E,1,10,0.7,230.5,M,47.0,M,,*55

$GLGSV,3,1,10,70,47,098,31,76,30,257,22,75,05,213,28,69,23,028,26*6E

$GLGSV,3,2,10,85,52,070,33,71,20,154,28,86,55,307,,77,26,320,*69

$GLGSV,3,3,10,84,01,091,,87,02,281,*67

$GPGSV,4,1,13,07,08,292,25,08,45,296,29,10,59,127,36,11,05,271,21*7E

$GPGSV,4,2,13,15,11,037,26,16,36,192,36,18,18,254,26,20,52,075,33*74

$GPGSV,4,3,13,21,27,073,36,26,11,178,33,27,85,267,25,30,07,320,23*79

$GPGSV,4,4,13,13,02,008,*43

$GPGGA,141452.1,5133.475793,N,00957.646169,E,1,10,0.7,230.5,M,47.0,M,,*55

$GNGNS,141452.1,5133.475793,N,00957.646169,E,AA,16,0.7,230.5,47.0,,*67

$GPVTG,287.1,T,287.2,M,0.3,N,0.6,K,A*25

$GPGSA,A,3,07,08,10,15,16,18,20,21,26,27,,,1.2,0.7,1.0*33

$GNGSA,A,3,07,08,10,15,16,18,20,21,26,27,,,1.2,0.7,1.0*2D

$GNGSA,A,3,70,76,75,69,85,71,,,,,,,1.2,0.7,1.0*29

$GPRMC,141452.1,A,5133.475793,N,00957.646169,E,0.3,287.1,260619,0.1,W,A*1B

$PSTIS,*61

$GNGNS,141452.1,5133.475793,N,00957.646169,E,AA,16,0.7,230.5,47.0,,*67

$GPVTG,287.1,T,287.2,M,0.3,N,0.6,K,A*25

$GPGSA,A,3,07,08,10,15,16,18,20,21,26,27,,,1.2,0.7,1.0*33

$GNGSA,A,3,07,08,10,15,16,18,20,21,26,27,,,1.2,0.7,1.0*2D

$GNGSA,A,3,70,76,75,69,85,71,,,,,,,1.2,0.7,1.0*29

$GPRMC,141452.1,A,5133.475793,N,00957.646169,E,0.3,287.1,260619,0.1,W,A*1B

$PSTIS,*61

$GLGSV,3,1,10,70,47,098,28,86,55,307,28,76,30,257,35,75,05,213,30*69

$GLGSV,3,2,10,69,23,028,24,85,52,070,39,71,20,154,28,77,26,320,*6B

$GLGSV,3,3,10,84,01,091,,87,02,281,*67

$GLGSV,3,1,10,70,47,098,28,86,55,307,28,76,30,257,35,75,05,213,30*69

$GLGSV,3,2,10,69,23,028,24,85,52,070,39,71,20,154,28,77,26,320,*6B

$GLGSV,3,3,10,84,01,091,,87,02,281,*67

$GPGSV,4,1,13,07,08,292,24,08,45,296,30,10,59,127,38,11,05,271,21*79

$GPGSV,4,2,13,15,11,037,29,16,36,192,30,18,18,254,27,20,52,075,41*79

$GPGSV,4,3,13,21,27,073,39,26,11,178,33,27,85,267,36,30,07,320,25*72

$GPGSV,4,4,13,13,02,008,*43

$GPGGA,141453.0,5133.479290,N,00957.642928,E,1,10,0.6,232.0,M,47.0,M,,*50

$GNGNS,141453.0,5133.479290,N,00957.642928,E,AA,17,0.6,232.0,47.0,,*63

$GPVTG,255.1,T,255.2,M,1.0,N,1.8,K,A*28

$GPGSA,A,2,07,08,10,15,16,18,20,21,26,27,,,0.9,0.6,0.7*3F

$GNGSA,A,2,07,08,10,15,16,18,20,21,26,27,,,0.9,0.6,0.7*21

$GNGSA,A,2,70,86,76,75,69,85,71,,,,,,0.9,0.6,0.7*2B

$GPRMC,141453.0,A,5133.479290,N,00957.642928,E,1.0,255.1,260619,0.1,W,A*15

$PSTIS,*61

$GPGSV,4,1,13,07,08,292,24,08,45,296,30,10,59,127,38,11,05,271,21*79

$GPGSV,4,2,13,15,11,037,29,16,36,192,30,18,18,254,27,20,52,075,41*79

$GPGSV,4,3,13,21,27,073,39,26,11,178,33,27,85,267,36,30,07,320,25*72

$GPGSV,4,4,13,13,02,008,*43

$GPGGA,141453.0,5133.479290,N,00957.642928,E,1,10,0.6,232.0,M,47.0,M,,*50

$GNGNS,141453.0,5133.479290,N,00957.642928,E,AA,17,0.6,232.0,47.0,,*63

$GPVTG,255.1,T,255.2,M,1.0,N,1.8,K,A*28

$GPGSA,A,2,07,08,10,15,16,18,20,21,26,27,,,0.9,0.6,0.7*3F

$GNGSA,A,2,07,08,10,15,16,18,20,21,26,27,,,0.9,0.6,0.7*21

$GNGSA,A,2,70,86,76,75,69,85,71,,,,,,0.9,0.6,0.7*2B

$GPRMC,141453.0,A,5133.479290,N,00957.642928,E,1.0,255.1,260619,0.1,W,A*15

$PSTIS,*61

$GLGSV,3,1,10,70,47,098,31,86,55,307,28,77,26,320,18,76,30,257,30*6C

$GLGSV,3,2,10,75,05,213,23,69,23,028,24,85,52,070,37,71,20,154,35*6A

$GLGSV,3,3,10,84,01,091,,87,02,281,*67

$GPGSV,4,1,13,07,08,292,32,08,45,296,34,10,59,127,38,11,05,271,25*7E

$GPGSV,4,2,13,15,11,037,23,16,36,192,33,18,18,254,30,20,52,075,39*79

$GPGSV,4,3,13,21,27,073,37,26,11,178,37,27,85,267,33,30,07,320,22*7A

$GPGSV,4,4,13,13,02,008,*43

$GPGGA,141454.0,5133.478071,N,00957.642484,E,1,10,0.6,228.2,M,47.0,M,,*59

$GNGNS,141454.0,5133.478071,N,00957.642484,E,AA,17,0.6,228.2,47.0,,*6A

$GPVTG,221.0,T,221.1,M,1.0,N,1.9,K,A*2B

$GPGSA,A,2,07,08,10,15,16,18,20,21,26,27,,,0.9,0.6,0.6*3E

$GNGSA,A,2,07,08,10,15,16,18,20,21,26,27,,,0.9,0.6,0.6*20

$GNGSA,A,2,70,86,76,75,69,85,71,,,,,,0.9,0.6,0.6*2A

$GPRMC,141454.0,A,5133.478071,N,00957.642484,E,1.0,221.0,260619,0.1,W,A*17

$PSTIS,*61

$GLGSV,3,1,10,70,47,098,31,86,55,307,28,77,26,320,18,76,30,257,30*6C

$GLGSV,3,2,10,75,05,213,23,69,23,028,24,85,52,070,37,71,20,154,35*6A

$GLGSV,3,3,10,84,01,091,,87,02,281,*67

$GPGSV,4,1,13,07,08,292,32,08,45,296,34,10,59,127,38,11,05,271,25*7E

$GPGSV,4,2,13,15,11,037,23,16,36,192,33,18,18,254,30,20,52,075,39*79

$GPGSV,4,3,13,21,27,073,37,26,11,178,37,27,85,267,33,30,07,320,22*7A

$GPGSV,4,4,13,13,02,008,*43

$GPGGA,141454.0,5133.478071,N,00957.642484,E,1,10,0.6,228.2,M,47.0,M,,*59

$GNGNS,141454.0,5133.478071,N,00957.642484,E,AA,17,0.6,228.2,47.0,,*6A

$GPVTG,221.0,T,221.1,M,1.0,N,1.9,K,A*2B

$GPGSA,A,2,07,08,10,15,16,18,20,21,26,27,,,0.9,0.6,0.6*3E

$GNGSA,A,2,07,08,10,15,16,18,20,21,26,27,,,0.9,0.6,0.6*20

$GNGSA,A,2,70,86,76,75,69,85,71,,,,,,0.9,0.6,0.6*2A

$GPRMC,141454.0,A,5133.478071,N,00957.642484,E,1.0,221.0,260619,0.1,W,A*17

$PSTIS,*61

$GLGSV,3,1,10,70,47,098,27,86,55,307,28,76,30,257,27,75,05,213,25*61

$GLGSV,3,2,10,69,23,028,21,85,52,070,35,71,20,154,34,77,26,320,*6F

$GLGSV,3,3,10,84,01,091,,87,02,281,*67

$GPGSV,4,1,13,07,08,292,30,08,45,296,34,10,59,127,35,11,05,271,25*71

$GPGSV,4,2,13,15,11,037,26,16,36,192,36,18,18,254,20,20,52,075,38*79

$GPGSV,4,3,13,21,27,073,35,26,11,178,31,27,85,267,35,30,07,320,24*7E

$GPGSV,4,4,13,13,02,008,*43

$GPGGA,141455.0,5133.477309,N,00957.642251,E,1,10,0.6,227.2,M,47.0,M,,*5A

$GNGNS,141455.0,5133.477309,N,00957.642251,E,AA,17,0.6,227.2,47.0,,*69

$GPVTG,221.0,T,221.1,M,0.0,N,0.0,K,A*22

$GPGSA,A,2,07,08,10,15,16,18,20,21,26,27,,,0.9,0.6,0.6*3E

$GNGSA,A,2,07,08,10,15,16,18,20,21,26,27,,,0.9,0.6,0.6*20

$GNGSA,A,2,70,86,76,75,69,85,71,,,,,,0.9,0.6,0.6*2A

$GPRMC,141455.0,A,5133.477309,N,00957.642251,E,0.0,221.0,260619,0.1,W,A*1A

$PSTIS,*61

$GLGSV,3,1,10,70,47,098,27,86,55,307,28,76,30,257,27,75,05,213,25*61

$GLGSV,3,2,10,69,23,028,21,85,52,070,35,71,20,154,34,77,26,320,*6F

$GLGSV,3,3,10,84,01,091,,87,02,281,*67

$GPGSV,4,1,13,07,08,292,30,08,45,296,34,10,59,127,35,11,05,271,25*71

$GPGSV,4,2,13,15,11,037,26,16,36,192,36,18,18,254,20,20,52,075,38*79

$GPGSV,4,3,13,21,27,073,35,26,11,178,31,27,85,267,35,30,07,320,24*7E

$GPGSV,4,4,13,13,02,008,*43

$GPGGA,141455.0,5133.477309,N,00957.642251,E,1,10,0.6,227.2,M,47.0,M,,*5A

$GNGNS,141455.0,5133.477309,N,00957.642251,E,AA,17,0.6,227.2,47.0,,*69

$GPVTG,221.0,T,221.1,M,0.0,N,0.0,K,A*22

$GPGSA,A,2,07,08,10,15,16,18,20,21,26,27,,,0.9,0.6,0.6*3E

$GNGSA,A,2,07,08,10,15,16,18,20,21,26,27,,,0.9,0.6,0.6*20

$GNGSA,A,2,70,86,76,75,69,85,71,,,,,,0.9,0.6,0.6*2A

$GPRMC,141455.0,A,5133.477309,N,00957.642251,E,0.0,221.0,260619,0.1,W,A*1A

$PSTIS,*61

$GLGSV,3,1,10,70,47,098,20,86,55,307,26,77,26,320,20,76,30,257,25*6D

$GLGSV,3,2,10,75,05,213,23,69,23,028,18,85,52,070,33,71,20,154,20*65

$GLGSV,3,3,10,84,01,091,,87,02,281,*67

$GPGSV,4,1,13,07,08,292,26,08,45,296,23,10,59,127,31,11,05,271,26*77

$GPGSV,4,2,13,15,11,037,19,16,36,192,33,18,18,254,20,20,52,075,34*7C

$GPGSV,4,3,13,21,27,073,25,26,11,178,24,27,85,267,33,30,07,320,18*72

$GPGSV,4,4,13,13,02,008,*43

$GLGSV,3,1,10,70,47,098,20,86,55,307,26,77,26,320,20,76,30,257,25*6D

$GLGSV,3,2,10,75,05,213,23,69,23,028,18,85,52,070,33,71,20,154,20*65

$GLGSV,3,3,10,84,01,091,,87,02,281,*67

$GPGSV,4,1,13,07,08,292,26,08,45,296,23,10,59,127,31,11,05,271,26*77

$GPGSV,4,2,13,15,11,037,19,16,36,192,33,18,18,254,20,20,52,075,34*7C

$GPGSV,4,3,13,21,27,073,25,26,11,178,24,27,85,267,33,30,07,320,18*72

$GPGSV,4,4,13,13,02,008,*43

$GPGGA,141456.0,5133.477366,N,00957.642334,E,1,08,0.7,228.1,M,47.0,M,,*56

$GNGNS,141456.0,5133.477366,N,00957.642334,E,AA,14,0.7,228.1,47.0,,*6F

$GPVTG,221.0,T,221.1,M,0.0,N,0.0,K,A*22

$GPGSA,A,2,07,08,10,16,20,21,26,27,,,,,1.0,0.7,0.7*3B

$GNGSA,A,2,07,08,10,16,20,21,26,27,,,,,1.0,0.7,0.7*25

$GNGSA,A,2,70,86,76,75,85,71,,,,,,,1.0,0.7,0.7*2D

$GPRMC,141456.0,A,5133.477366,N,00957.642334,E,0.0,221.0,260619,0.1,W,A*12

$PSTIS,*61

$GPGGA,141456.0,5133.477366,N,00957.642334,E,1,08,0.7,228.1,M,47.0,M,,*56

$GNGNS,141456.0,5133.477366,N,00957.642334,E,AA,14,0.7,228.1,47.0,,*6F

$GPVTG,221.0,T,221.1,M,0.0,N,0.0,K,A*22

$GPGSA,A,2,07,08,10,16,20,21,26,27,,,,,1.0,0.7,0.7*3B

$GNGSA,A,2,07,08,10,16,20,21,26,27,,,,,1.0,0.7,0.7*25

$GNGSA,A,2,70,86,76,75,85,71,,,,,,,1.0,0.7,0.7*2D

$GPRMC,141456.0,A,5133.477366,N,00957.642334,E,0.0,221.0,260619,0.1,W,A*12

$PSTIS,*61

$GLGSV,3,1,10,70,47,098,18,86,55,307,25,77,26,320,18,76,30,257,29*62

$GLGSV,3,2,10,75,05,213,24,69,23,028,18,85,52,070,31,71,20,154,20*60

$GLGSV,3,3,10,84,01,091,,87,02,281,*67

$GPGSV,4,1,13,07,08,292,18,08,45,296,17,10,59,127,25,11,05,271,19*74

$GPGSV,4,2,13,15,11,037,19,16,36,192,32,18,18,254,20,20,52,075,29*71

$GPGSV,4,3,13,21,27,073,23,26,11,178,21,27,85,267,25,30,07,320,18*76

$GPGSV,4,4,13,13,02,008,*43

$GPGGA,141457.0,5133.477490,N,00957.642215,E,1,08,0.8,228.2,M,47.0,M,,*57

$GNGNS,141457.0,5133.477490,N,00957.642215,E,AA,13,0.8,228.2,47.0,,*69

$GPVTG,221.0,T,221.1,M,0.0,N,0.0,K,A*22

$GPGSA,A,2,07,08,10,16,20,21,26,27,,,,,1.1,0.8,0.7*35

$GNGSA,A,2,07,08,10,16,20,21,26,27,,,,,1.1,0.8,0.7*2B

$GNGSA,A,2,70,86,76,75,85,,,,,,,,1.1,0.8,0.7*25

$GPRMC,141457.0,A,5133.477490,N,00957.642215,E,0.0,221.0,260619,0.1,W,A*1F

$PSTIS,*61

$GLGSV,3,1,10,70,47,098,18,86,55,307,25,77,26,320,18,76,30,257,29*62

$GLGSV,3,2,10,75,05,213,24,69,23,028,18,85,52,070,31,71,20,154,20*60

$GLGSV,3,3,10,84,01,091,,87,02,281,*67

$GPGSV,4,1,13,07,08,292,18,08,45,296,17,10,59,127,25,11,05,271,19*74

$GPGSV,4,2,13,15,11,037,19,16,36,192,32,18,18,254,20,20,52,075,29*71

$GPGSV,4,3,13,21,27,073,23,26,11,178,21,27,85,267,25,30,07,320,18*76

$GPGSV,4,4,13,13,02,008,*43

$GPGGA,141457.0,5133.477490,N,00957.642215,E,1,08,0.8,228.2,M,47.0,M,,*57

$GNGNS,141457.0,5133.477490,N,00957.642215,E,AA,13,0.8,228.2,47.0,,*69

$GPVTG,221.0,T,221.1,M,0.0,N,0.0,K,A*22

$GPGSA,A,2,07,08,10,16,20,21,26,27,,,,,1.1,0.8,0.7*35

$GNGSA,A,2,07,08,10,16,20,21,26,27,,,,,1.1,0.8,0.7*2B

$GNGSA,A,2,70,86,76,75,85,,,,,,,,1.1,0.8,0.7*25

$GPRMC,141457.0,A,5133.477490,N,00957.642215,E,0.0,221.0,260619,0.1,W,A*1F

$PSTIS,*61

$GLGSV,3,1,10,70,47,098,22,86,55,307,22,77,26,320,18,76,30,257,28*6D

$GLGSV,3,2,10,75,05,213,25,69,23,028,18,85,52,070,29,71,20,154,21*69

$GLGSV,3,3,10,84,01,091,,87,02,281,*67

$GPGSV,4,1,13,07,08,292,24,08,45,296,28,10,59,127,30,11,05,271,19*73

$GPGSV,4,2,13,15,11,037,19,16,36,192,34,18,18,254,15,20,52,075,29*71

$GPGSV,4,3,13,21,27,073,24,26,11,178,22,27,85,267,32,30,07,320,17*7B

$GLGSV,3,1,10,70,47,098,22,86,55,307,22,77,26,320,18,76,30,257,28*6D

$GLGSV,3,2,10,75,05,213,25,69,23,028,18,85,52,070,29,71,20,154,21*69

$GLGSV,3,3,10,84,01,091,,87,02,281,*67

$GPGSV,4,1,13,07,08,292,24,08,45,296,28,10,59,127,30,11,05,271,19*73

$GPGSV,4,2,13,15,11,037,19,16,36,192,34,18,18,254,15,20,52,075,29*71

$GPGSV,4,3,13,21,27,073,24,26,11,178,22,27,85,267,32,30,07,320,17*7B

$GPGSV,4,4,13,13,02,008,*43

$GPGGA,141458.0,5133.477498,N,00957.642026,E,1,09,0.7,229.4,M,47.0,M,,*5B

$GNGNS,141458.0,5133.477498,N,00957.642026,E,AA,15,0.7,229.4,47.0,,*62

$GPVTG,221.0,T,221.1,M,0.0,N,0.0,K,A*22

$GPGSA,A,2,07,08,10,16,18,20,21,26,27,,,,1.1,0.7,0.7*33

$GNGSA,A,2,07,08,10,16,18,20,21,26,27,,,,1.1,0.7,0.7*2D

$GNGSA,A,2,70,86,76,75,85,71,,,,,,,1.1,0.7,0.7*2C

$GPRMC,141458.0,A,5133.477498,N,00957.642026,E,0.0,221.0,260619,0.1,W,A*1A

$PSTIS,*61

$GPGSV,4,4,13,13,02,008,*43

$GPGGA,141458.0,5133.477498,N,00957.642026,E,1,09,0.7,229.4,M,47.0,M,,*5B

$GNGNS,141458.0,5133.477498,N,00957.642026,E,AA,15,0.7,229.4,47.0,,*62

$GPVTG,221.0,T,221.1,M,0.0,N,0.0,K,A*22

$GPGSA,A,2,07,08,10,16,18,20,21,26,27,,,,1.1,0.7,0.7*33

$GNGSA,A,2,07,08,10,16,18,20,21,26,27,,,,1.1,0.7,0.7*2D

$GNGSA,A,2,70,86,76,75,85,71,,,,,,,1.1,0.7,0.7*2C

$GPRMC,141458.0,A,5133.477498,N,00957.642026,E,0.0,221.0,260619,0.1,W,A*1A

$PSTIS,*61

$GLGSV,3,1,10,70,47,098,19,86,55,307,27,77,26,320,19,76,30,257,28*61

$GLGSV,3,2,10,75,05,213,25,69,23,028,18,85,52,070,29,71,20,154,25*6D

$GLGSV,3,3,10,84,01,091,,87,02,281,*67

$GPGSV,4,1,13,07,08,292,24,08,45,296,30,10,59,127,31,11,05,271,19*7B

$GPGSV,4,2,13,15,11,037,19,16,36,192,35,18,18,254,20,20,52,075,29*76

$GPGSV,4,3,13,21,27,073,20,26,11,178,18,27,85,267,31,30,07,320,18*7A

$GPGSV,4,4,13,13,02,008,*43

$GPGGA,141459.0,5133.477471,N,00957.642154,E,1,06,0.9,230.0,M,47.0,M,,*54

$GNGNS,141459.0,5133.477471,N,00957.642154,E,AA,11,0.9,230.0,47.0,,*66

$GPVTG,221.0,T,221.1,M,0.0,N,0.0,K,A*22

$GPGSA,A,2,07,08,10,16,20,27,,,,,,,1.2,0.9,0.8*3F

$GNGSA,A,2,07,08,10,16,20,27,,,,,,,1.2,0.9,0.8*21

$GNGSA,A,2,86,76,75,85,71,,,,,,,,1.2,0.9,0.8*29

$GPRMC,141459.0,A,5133.477471,N,00957.642154,E,0.0,221.0,260619,0.1,W,A*18

$PSTIS,*61

$GLGSV,3,1,10,70,47,098,19,86,55,307,27,77,26,320,19,76,30,257,28*61

$GLGSV,3,2,10,75,05,213,25,69,23,028,18,85,52,070,29,71,20,154,25*6D

$GLGSV,3,3,10,84,01,091,,87,02,281,*67

$GPGSV,4,1,13,07,08,292,24,08,45,296,30,10,59,127,31,11,05,271,19*7B

$GPGSV,4,2,13,15,11,037,19,16,36,192,35,18,18,254,20,20,52,075,29*76

$GPGSV,4,3,13,21,27,073,20,26,11,178,18,27,85,267,31,30,07,320,18*7A

$GPGSV,4,4,13,13,02,008,*43

$GPGGA,141459.0,5133.477471,N,00957.642154,E,1,06,0.9,230.0,M,47.0,M,,*54

$GNGNS,141459.0,5133.477471,N,00957.642154,E,AA,11,0.9,230.0,47.0,,*66

$GPVTG,221.0,T,221.1,M,0.0,N,0.0,K,A*22

$GPGSA,A,2,07,08,10,16,20,27,,,,,,,1.2,0.9,0.8*3F

$GNGSA,A,2,07,08,10,16,20,27,,,,,,,1.2,0.9,0.8*21

$GNGSA,A,2,86,76,75,85,71,,,,,,,,1.2,0.9,0.8*29

$GPRMC,141459.0,A,5133.477471,N,00957.642154,E,0.0,221.0,260619,0.1,W,A*18

$PSTIS,*61

$GLGSV,3,1,10,70,47,098,18,86,55,307,29,76,30,257,28,75,05,213,25*63

$GLGSV,3,2,10,69,23,028,14,85,52,070,27,71,20,154,24,77,26,320,*6B

$GLGSV,3,3,10,84,01,091,,87,02,281,*67

$GPGSV,4,1,13,07,08,292,24,08,45,296,30,10,59,127,31,11,05,271,19*7B

$GPGSV,4,2,13,16,36,192,35,18,18,254,17,20,52,075,27,21,27,073,19*7E

$GPGSV,4,3,13,26,11,178,20,27,85,267,31,30,07,320,19,13,02,008,*78

$GPGSV,4,4,13,15,11,037,*4B

$GPGGA,141500.0,5133.477552,N,00957.642255,E,1,06,0.9,230.2,M,47.0,M,,*59

$GNGNS,141500.0,5133.477552,N,00957.642255,E,AA,11,0.9,230.2,47.0,,*6B

$GPVTG,221.0,T,221.1,M,0.0,N,0.0,K,A*22

$GPGSA,A,2,08,10,16,20,26,27,,,,,,,1.3,0.9,0.9*3C

$GNGSA,A,2,08,10,16,20,26,27,,,,,,,1.3,0.9,0.9*22

$GNGSA,A,2,86,76,75,85,71,,,,,,,,1.3,0.9,0.9*29

$GPRMC,141500.0,A,5133.477552,N,00957.642255,E,0.0,221.0,260619,0.1,W,A*17

$PSTIS,*61

$GLGSV,3,1,10,70,47,098,18,86,55,307,29,76,30,257,28,75,05,213,25*63

$GLGSV,3,2,10,69,23,028,14,85,52,070,27,71,20,154,24,77,26,320,*6B

$GLGSV,3,3,10,84,01,091,,87,02,281,*67

$GPGSV,4,1,13,07,08,292,24,08,45,296,30,10,59,127,31,11,05,271,19*7B

$GPGSV,4,2,13,16,36,192,35,18,18,254,17,20,52,075,27,21,27,073,19*7E

$GPGSV,4,3,13,26,11,178,20,27,85,267,31,30,07,320,19,13,02,008,*78

$GPGSV,4,4,13,15,11,037,*4B

$GPGGA,141500.0,5133.477552,N,00957.642255,E,1,06,0.9,230.2,M,47.0,M,,*59

$GNGNS,141500.0,5133.477552,N,00957.642255,E,AA,11,0.9,230.2,47.0,,*6B

$GPVTG,221.0,T,221.1,M,0.0,N,0.0,K,A*22

$GPGSA,A,2,08,10,16,20,26,27,,,,,,,1.3,0.9,0.9*3C

$GNGSA,A,2,08,10,16,20,26,27,,,,,,,1.3,0.9,0.9*22

$GNGSA,A,2,86,76,75,85,71,,,,,,,,1.3,0.9,0.9*29

$GPRMC,141500.0,A,5133.477552,N,00957.642255,E,0.0,221.0,260619,0.1,W,A*17

$PSTIS,*61

$GLGSV,3,1,10,70,47,098,19,86,55,307,29,77,26,320,24,76,30,257,29*60

$GLGSV,3,2,10,75,05,213,25,85,52,070,28,71,20,154,25,69,23,028,*65

$GLGSV,3,3,10,84,01,091,,87,02,281,*67

$GPGSV,4,1,13,07,08,292,15,08,45,296,30,10,59,127,30,11,05,271,19*78

$GPGSV,4,2,13,16,36,192,35,18,18,254,19,20,52,075,26,21,27,073,19*71

$GPGSV,4,3,13,26,11,178,20,27,85,267,32,30,07,320,18,13,02,008,*7A

$GPGSV,4,4,13,15,11,037,*4B

$GPGGA,141501.0,5133.477495,N,00957.642059,E,1,09,0.7,230.4,M,47.0,M,,*5B

$GNGNS,141501.0,5133.477495,N,00957.642059,E,AA,15,0.7,230.4,47.0,,*62

$GPVTG,221.0,T,221.1,M,0.0,N,0.0,K,A*22

$GPGSA,A,2,07,08,10,16,18,20,21,26,27,,,,1.0,0.7,0.7*32

$GNGSA,A,2,07,08,10,16,18,20,21,26,27,,,,1.0,0.7,0.7*2C

$GNGSA,A,2,70,86,76,75,85,71,,,,,,,1.0,0.7,0.7*2D

$GPRMC,141501.0,A,5133.477495,N,00957.642059,E,0.0,221.0,260619,0.1,W,A*12

$PSTIS,*61

$GLGSV,3,1,10,70,47,098,19,86,55,307,29,77,26,320,24,76,30,257,29*60

$GLGSV,3,2,10,75,05,213,25,85,52,070,28,71,20,154,25,69,23,028,*65

$GLGSV,3,3,10,84,01,091,,87,02,281,*67

$GPGSV,4,1,13,07,08,292,15,08,45,296,30,10,59,127,30,11,05,271,19*78

$GPGSV,4,2,13,16,36,192,35,18,18,254,19,20,52,075,26,21,27,073,19*71

$GPGSV,4,3,13,26,11,178,20,27,85,267,32,30,07,320,18,13,02,008,*7A

$GPGSV,4,4,13,15,11,037,*4B

$GPGGA,141501.0,5133.477495,N,00957.642059,E,1,09,0.7,230.4,M,47.0,M,,*5B

$GNGNS,141501.0,5133.477495,N,00957.642059,E,AA,15,0.7,230.4,47.0,,*62

$GPVTG,221.0,T,221.1,M,0.0,N,0.0,K,A*22

$GPGSA,A,2,07,08,10,16,18,20,21,26,27,,,,1.0,0.7,0.7*32

$GNGSA,A,2,07,08,10,16,18,20,21,26,27,,,,1.0,0.7,0.7*2C

$GNGSA,A,2,70,86,76,75,85,71,,,,,,,1.0,0.7,0.7*2D

$GPRMC,141501.0,A,5133.477495,N,00957.642059,E,0.0,221.0,260619,0.1,W,A*12

$PSTIS,*61

$GLGSV,3,1,10,70,47,098,19,86,55,307,29,77,26,320,25,76,30,257,28*60

$GLGSV,3,2,10,75,05,213,26,85,52,070,28,71,20,154,24,69,23,028,*67

$GLGSV,3,3,10,84,01,091,,87,02,281,*67

$GPGSV,4,1,13,07,08,292,20,08,45,296,31,10,59,127,30,11,05,271,19*7F

$GPGSV,4,2,13,16,36,192,35,18,18,254,20,20,52,075,26,21,27,073,21*70

$GPGSV,4,3,13,26,11,178,21,27,85,267,31,30,07,320,18,13,02,008,*78

$GPGSV,4,4,13,15,11,037,*4B

$GPGGA,141502.0,5133.477543,N,00957.642246,E,1,09,0.7,230.9,M,47.0,M,,*53

$GNGNS,141502.0,5133.477543,N,00957.642246,E,AA,15,0.7,230.9,47.0,,*6A

$GPVTG,221.0,T,221.1,M,0.0,N,0.0,K,A*22

$GPGSA,A,2,07,08,10,16,18,20,21,26,27,,,,1.1,0.7,0.7*33

$GNGSA,A,2,07,08,10,16,18,20,21,26,27,,,,1.1,0.7,0.7*2D

$GNGSA,A,2,70,86,76,75,85,71,,,,,,,1.1,0.7,0.7*2C

$GPRMC,141502.0,A,5133.477543,N,00957.642246,E,0.0,221.0,260619,0.1,W,A*17

$PSTIS,*61

$GLGSV,3,1,10,70,47,098,19,86,55,307,29,77,26,320,25,76,30,257,28*60

$GLGSV,3,2,10,75,05,213,26,85,52,070,28,71,20,154,24,69,23,028,*67

$GLGSV,3,3,10,84,01,091,,87,02,281,*67

$GPGSV,4,1,13,07,08,292,20,08,45,296,31,10,59,127,30,11,05,271,19*7F

$GPGSV,4,2,13,16,36,192,35,18,18,254,20,20,52,075,26,21,27,073,21*70

$GPGSV,4,3,13,26,11,178,21,27,85,267,31,30,07,320,18,13,02,008,*78

$GPGSV,4,4,13,15,11,037,*4B

$GPGGA,141502.0,5133.477543,N,00957.642246,E,1,09,0.7,230.9,M,47.0,M,,*53

$GNGNS,141502.0,5133.477543,N,00957.642246,E,AA,15,0.7,230.9,47.0,,*6A

$GPVTG,221.0,T,221.1,M,0.0,N,0.0,K,A*22

$GPGSA,A,2,07,08,10,16,18,20,21,26,27,,,,1.1,0.7,0.7*33

$GNGSA,A,2,07,08,10,16,18,20,21,26,27,,,,1.1,0.7,0.7*2D

$GNGSA,A,2,70,86,76,75,85,71,,,,,,,1.1,0.7,0.7*2C

$GPRMC,141502.0,A,5133.477543,N,00957.642246,E,0.0,221.0,260619,0.1,W,A*17

$PSTIS,*61

$GLGSV,3,1,10,70,47,098,20,86,55,307,29,77,26,320,24,76,30,257,28*6B

$GLGSV,3,2,10,75,05,213,25,85,52,070,29,71,20,154,23,69,23,028,*62

$GLGSV,3,3,10,84,01,091,,87,02,281,*67

$GPGSV,4,1,13,07,08,292,25,08,45,296,31,10,59,127,30,11,05,271,19*7A

$GPGSV,4,2,13,15,11,037,18,16,36,192,35,18,18,254,20,20,52,075,25*7B

$GPGSV,4,3,13,21,27,073,20,26,11,178,19,27,85,267,31,30,07,320,18*7B

$GPGSV,4,4,13,13,02,008,*43

$GPGGA,141503.0,5133.477687,N,00957.642278,E,1,10,0.6,230.9,M,47.0,M,,*5D

$GNGNS,141503.0,5133.477687,N,00957.642278,E,AA,16,0.6,230.9,47.0,,*6F

$GPVTG,221.0,T,221.1,M,0.0,N,0.0,K,A*22

$GPGSA,A,2,07,08,10,15,16,18,20,21,26,27,,,0.9,0.6,0.7*3F

$GNGSA,A,2,07,08,10,15,16,18,20,21,26,27,,,0.9,0.6,0.7*21

$GNGSA,A,2,70,86,76,75,85,71,,,,,,,0.9,0.6,0.7*24

$GPRMC,141503.0,A,5133.477687,N,00957.642278,E,0.0,221.0,260619,0.1,W,A*10

$PSTIS,*61

$GLGSV,3,1,10,70,47,098,20,86,55,307,29,77,26,320,24,76,30,257,28*6B

$GLGSV,3,2,10,75,05,213,25,85,52,070,29,71,20,154,23,69,23,028,*62

$GLGSV,3,3,10,84,01,091,,87,02,281,*67

$GPGSV,4,1,13,07,08,292,25,08,45,296,31,10,59,127,30,11,05,271,19*7A

$GPGSV,4,2,13,15,11,037,18,16,36,192,35,18,18,254,20,20,52,075,25*7B

$GPGSV,4,3,13,21,27,073,20,26,11,178,19,27,85,267,31,30,07,320,18*7B

$GPGSV,4,4,13,13,02,008,*43

$GPGGA,141503.0,5133.477687,N,00957.642278,E,1,10,0.6,230.9,M,47.0,M,,*5D

$GNGNS,141503.0,5133.477687,N,00957.642278,E,AA,16,0.6,230.9,47.0,,*6F

$GPVTG,221.0,T,221.1,M,0.0,N,0.0,K,A*22

$GPGSA,A,2,07,08,10,15,16,18,20,21,26,27,,,0.9,0.6,0.7*3F

$GNGSA,A,2,07,08,10,15,16,18,20,21,26,27,,,0.9,0.6,0.7*21

$GNGSA,A,2,70,86,76,75,85,71,,,,,,,0.9,0.6,0.7*24

$GPRMC,141503.0,A,5133.477687,N,00957.642278,E,0.0,221.0,260619,0.1,W,A*10

$PSTIS,*61

$GLGSV,3,1,10,70,47,098,18,86,55,307,29,77,26,320,24,76,30,257,29*61

$GLGSV,3,2,10,75,05,213,25,85,52,070,28,71,20,154,23,69,23,028,*63

$GLGSV,3,3,10,84,01,091,,87,02,281,*67

$GPGSV,4,1,13,07,08,292,25,08,45,296,31,10,59,127,30,11,05,271,19*7A

$GPGSV,4,2,13,15,11,037,18,16,36,192,35,18,18,254,21,20,52,075,28*77

$GPGSV,4,3,13,21,27,073,21,26,11,178,17,27,85,267,31,30,07,320,19*75

$GPGSV,4,4,13,13,02,008,*43

$GPGGA,141504.0,5133.477946,N,00957.642384,E,1,10,0.6,229.9,M,47.0,M,,*52

$GNGNS,141504.0,5133.477946,N,00957.642384,E,AA,16,0.6,229.9,47.0,,*60

$GPVTG,221.0,T,221.1,M,0.0,N,0.0,K,A*22

$GPGSA,A,2,07,08,10,15,16,18,20,21,26,27,,,0.9,0.6,0.7*3F

$GNGSA,A,2,07,08,10,15,16,18,20,21,26,27,,,0.9,0.6,0.7*21

$GNGSA,A,2,70,86,76,75,85,71,,,,,,,0.9,0.6,0.7*24

$GPRMC,141504.0,A,5133.477946,N,00957.642384,E,0.0,221.0,260619,0.1,W,A*17

$PSTIS,*61

$GLGSV,3,1,10,70,47,098,18,86,55,307,29,77,26,320,24,76,30,257,29*61

$GLGSV,3,2,10,75,05,213,25,85,52,070,28,71,20,154,23,69,23,028,*63

$GLGSV,3,3,10,84,01,091,,87,02,281,*67

$GPGSV,4,1,13,07,08,292,25,08,45,296,31,10,59,127,30,11,05,271,19*7A

$GPGSV,4,2,13,15,11,037,18,16,36,192,35,18,18,254,21,20,52,075,28*77

$GPGSV,4,3,13,21,27,073,21,26,11,178,17,27,85,267,31,30,07,320,19*75

$GPGSV,4,4,13,13,02,008,*43

$GPGGA,141504.0,5133.477946,N,00957.642384,E,1,10,0.6,229.9,M,47.0,M,,*52

$GNGNS,141504.0,5133.477946,N,00957.642384,E,AA,16,0.6,229.9,47.0,,*60

$GPVTG,221.0,T,221.1,M,0.0,N,0.0,K,A*22

$GPGSA,A,2,07,08,10,15,16,18,20,21,26,27,,,0.9,0.6,0.7*3F

$GNGSA,A,2,07,08,10,15,16,18,20,21,26,27,,,0.9,0.6,0.7*21

$GNGSA,A,2,70,86,76,75,85,71,,,,,,,0.9,0.6,0.7*24

$GPRMC,141504.0,A,5133.477946,N,00957.642384,E,0.0,221.0,260619,0.1,W,A*17

$PSTIS,*61

$GLGSV,3,1,10,70,47,098,19,86,55,307,29,77,26,320,23,76,30,257,28*66

$GLGSV,3,2,10,75,05,213,24,85,52,070,28,71,20,154,23,69,23,028,*62

$GLGSV,3,3,10,84,01,091,,87,02,281,*67

$GPGSV,4,1,13,07,08,292,20,08,45,296,30,10,59,127,30,11,05,271,19*7E

$GPGSV,4,2,13,15,11,037,18,16,36,192,35,18,18,254,21,20,52,075,27*78

$GPGSV,4,3,13,21,27,073,22,26,11,178,19,27,85,267,31,30,07,320,19*78

$GPGSV,4,4,13,13,02,008,*43

$GLGSV,3,1,10,70,47,098,19,86,55,307,29,77,26,320,23,76,30,257,28*66

$GLGSV,3,2,10,75,05,213,24,85,52,070,28,71,20,154,23,69,23,028,*62

$GLGSV,3,3,10,84,01,091,,87,02,281,*67

$GPGSV,4,1,13,07,08,292,20,08,45,296,30,10,59,127,30,11,05,271,19*7E

$GPGSV,4,2,13,15,11,037,18,16,36,192,35,18,18,254,21,20,52,075,27*78

$GPGSV,4,3,13,21,27,073,22,26,11,178,19,27,85,267,31,30,07,320,19*78

$GPGSV,4,4,13,13,02,008,*43

$GPGGA,141505.0,5133.477904,N,00957.642318,E,1,10,0.6,229.8,M,47.0,M,,*51

$GNGNS,141505.0,5133.477904,N,00957.642318,E,AA,16,0.6,229.8,47.0,,*63

$GPVTG,221.0,T,221.1,M,0.0,N,0.0,K,A*22

$GPGSA,A,2,07,08,10,15,16,18,20,21,26,27,,,0.9,0.6,0.7*3F

$GNGSA,A,2,07,08,10,15,16,18,20,21,26,27,,,0.9,0.6,0.7*21

$GNGSA,A,2,70,86,76,75,85,71,,,,,,,0.9,0.6,0.7*24

$GPRMC,141505.0,A,5133.477904,N,00957.642318,E,0.0,221.0,260619,0.1,W,A*15

$PSTIS,*61

$GPGGA,141505.0,5133.477904,N,00957.642318,E,1,10,0.6,229.8,M,47.0,M,,*51

$GNGNS,141505.0,5133.477904,N,00957.642318,E,AA,16,0.6,229.8,47.0,,*63

$GPVTG,221.0,T,221.1,M,0.0,N,0.0,K,A*22

$GPGSA,A,2,07,08,10,15,16,18,20,21,26,27,,,0.9,0.6,0.7*3F

$GNGSA,A,2,07,08,10,15,16,18,20,21,26,27,,,0.9,0.6,0.7*21

$GNGSA,A,2,70,86,76,75,85,71,,,,,,,0.9,0.6,0.7*24

$GPRMC,141505.0,A,5133.477904,N,00957.642318,E,0.0,221.0,260619,0.1,W,A*15

$PSTIS,*61

$GLGSV,3,1,10,70,47,098,20,86,55,307,28,77,26,320,23,76,30,257,28*6D

$GLGSV,3,2,10,75,05,213,25,85,52,070,29,71,20,154,23,69,23,028,*62

$GLGSV,3,3,10,84,01,091,,87,02,281,*67

$GPGSV,4,1,13,07,08,292,21,08,45,296,31,10,59,127,30,11,05,271,11*76

$GPGSV,4,2,13,15,11,037,18,16,36,192,35,18,18,254,19,20,52,075,27*73

$GPGSV,4,3,13,21,27,073,21,26,11,178,22,27,85,267,31,30,07,320,19*73

$GPGSV,4,4,13,13,02,008,*43

$GPGGA,141506.0,5133.477873,N,00957.642267,E,1,10,0.6,230.1,M,47.0,M,,*5B

$GNGNS,141506.0,5133.477873,N,00957.642267,E,AA,16,0.6,230.1,47.0,,*69

$GPVTG,221.0,T,221.1,M,0.0,N,0.0,K,A*22

$GPGSA,A,2,07,08,10,15,16,18,20,21,26,27,,,0.9,0.6,0.7*3F

$GLGSV,3,1,10,70,47,098,20,86,55,307,28,77,26,320,23,76,30,257,28*6D

$GLGSV,3,2,10,75,05,213,25,85,52,070,29,71,20,154,23,69,23,028,*62

$GLGSV,3,3,10,84,01,091,,87,02,281,*67

$GPGSV,4,1,13,07,08,292,21,08,45,296,31,10,59,127,30,11,05,271,11*76

$GPGSV,4,2,13,15,11,037,18,16,36,192,35,18,18,254,19,20,52,075,27*73

$GPGSV,4,3,13,21,27,073,21,26,11,178,22,27,85,267,31,30,07,320,19*73

$GPGSV,4,4,13,13,02,008,*43

$GPGGA,141506.0,5133.477873,N,00957.642267,E,1,10,0.6,230.1,M,47.0,M,,*5B

$GNGNS,141506.0,5133.477873,N,00957.642267,E,AA,16,0.6,230.1,47.0,,*69

$GPVTG,221.0,T,221.1,M,0.0,N,0.0,K,A*22

$GPGSA,A,2,07,08,10,15,16,18,20,21,26,27,,,0.9,0.6,0.7*3F

$GNGSA,A,2,07,08,10,15,16,18,20,21,26,27,,,0.9,0.6,0.7*21

$GNGSA,A,2,70,86,76,75,85,71,,,,,,,0.9,0.6,0.7*24

$GPRMC,141506.0,A,5133.477873,N,00957.642267,E,0.0,221.0,260619,0.1,W,A*1E

$PSTIS,*61

$GNGSA,A,2,07,08,10,15,16,18,20,21,26,27,,,0.9,0.6,0.7*21

$GNGSA,A,2,70,86,76,75,85,71,,,,,,,0.9,0.6,0.7*24

$GPRMC,141506.0,A,5133.477873,N,00957.642267,E,0.0,221.0,260619,0.1,W,A*1E

$PSTIS,*61

$GLGSV,3,1,10,70,47,098,19,86,55,307,29,77,26,320,23,76,30,257,28*66

$GLGSV,3,2,10,75,05,213,26,85,52,070,29,71,20,154,23,69,23,028,*61

$GLGSV,3,3,10,84,01,091,,87,02,281,*67

$GPGSV,4,1,13,07,08,292,24,08,45,296,31,10,59,127,30,11,05,271,11*73

$GPGSV,4,2,13,15,11,037,17,16,36,192,34,18,18,254,19,20,52,075,27*7D

$GPGSV,4,3,13,21,27,073,20,26,11,178,21,27,85,267,31,30,07,320,19*71

$GPGSV,4,4,13,13,02,008,*43

$GPGGA,141507.0,5133.477864,N,00957.642271,E,1,10,0.7,230.2,M,47.0,M,,*59

$GNGNS,141507.0,5133.477864,N,00957.642271,E,AA,16,0.7,230.2,47.0,,*6B

$GPVTG,221.0,T,221.1,M,0.0,N,0.0,K,A*22

$GPGSA,A,2,07,08,10,15,16,18,20,21,26,27,,,0.9,0.7,0.7*3E

$GNGSA,A,2,07,08,10,15,16,18,20,21,26,27,,,0.9,0.7,0.7*20

$GNGSA,A,2,70,86,76,75,85,71,,,,,,,0.9,0.7,0.7*25

$GPRMC,141507.0,A,5133.477864,N,00957.642271,E,0.0,221.0,260619,0.1,W,A*1E

$PSTIS,*61

$GLGSV,3,1,10,70,47,098,19,86,55,307,29,77,26,320,23,76,30,257,28*66

$GLGSV,3,2,10,75,05,213,26,85,52,070,29,71,20,154,23,69,23,028,*61

$GLGSV,3,3,10,84,01,091,,87,02,281,*67

$GPGSV,4,1,13,07,08,292,24,08,45,296,31,10,59,127,30,11,05,271,11*73

$GPGSV,4,2,13,15,11,037,17,16,36,192,34,18,18,254,19,20,52,075,27*7D

$GPGSV,4,3,13,21,27,073,20,26,11,178,21,27,85,267,31,30,07,320,19*71

$GPGSV,4,4,13,13,02,008,*43

$GPGGA,141507.0,5133.477864,N,00957.642271,E,1,10,0.7,230.2,M,47.0,M,,*59

$GNGNS,141507.0,5133.477864,N,00957.642271,E,AA,16,0.7,230.2,47.0,,*6B

$GPVTG,221.0,T,221.1,M,0.0,N,0.0,K,A*22

$GPGSA,A,2,07,08,10,15,16,18,20,21,26,27,,,0.9,0.7,0.7*3E

$GNGSA,A,2,07,08,10,15,16,18,20,21,26,27,,,0.9,0.7,0.7*20

$GNGSA,A,2,70,86,76,75,85,71,,,,,,,0.9,0.7,0.7*25

$GPRMC,141507.0,A,5133.477864,N,00957.642271,E,0.0,221.0,260619,0.1,W,A*1E

$PSTIS,*61

$GLGSV,3,1,10,70,47,098,21,86,55,307,29,77,26,320,24,76,30,257,27*65

$GLGSV,3,2,10,75,05,213,25,85,52,070,30,71,20,154,23,69,23,028,*6A

$GLGSV,3,3,10,84,01,091,,87,02,281,*67

$GPGSV,4,1,13,07,08,292,21,08,45,296,31,10,59,127,30,11,05,271,11*76

$GPGSV,4,2,13,15,11,037,17,16,36,192,34,18,18,254,20,20,52,075,27*77

$GPGSV,4,3,13,21,27,073,19,26,11,178,22,27,85,267,32,30,07,320,19*7B

$GPGSV,4,4,13,13,02,008,*43

$GPGGA,141508.0,5133.477856,N,00957.642266,E,1,10,0.6,230.3,M,47.0,M,,*51

$GNGNS,141508.0,5133.477856,N,00957.642266,E,AA,16,0.6,230.3,47.0,,*63

$GPVTG,221.0,T,221.1,M,0.0,N,0.0,K,A*22

$GPGSA,A,2,07,08,10,15,16,18,20,21,26,27,,,0.9,0.6,0.7*3F

$GNGSA,A,2,07,08,10,15,16,18,20,21,26,27,,,0.9,0.6,0.7*21

$GNGSA,A,2,70,86,76,75,85,71,,,,,,,0.9,0.6,0.7*24

$GPRMC,141508.0,A,5133.477856,N,00957.642266,E,0.0,221.0,260619,0.1,W,A*16

$PSTIS,*61

$GLGSV,3,1,10,70,47,098,21,86,55,307,29,77,26,320,24,76,30,257,27*65

$GLGSV,3,2,10,75,05,213,25,85,52,070,30,71,20,154,23,69,23,028,*6A

$GLGSV,3,3,10,84,01,091,,87,02,281,*67

$GPGSV,4,1,13,07,08,292,21,08,45,296,31,10,59,127,30,11,05,271,11*76

$GPGSV,4,2,13,15,11,037,17,16,36,192,34,18,18,254,20,20,52,075,27*77

$GPGSV,4,3,13,21,27,073,19,26,11,178,22,27,85,267,32,30,07,320,19*7B

$GPGSV,4,4,13,13,02,008,*43

$GPGGA,141508.0,5133.477856,N,00957.642266,E,1,10,0.6,230.3,M,47.0,M,,*51

$GNGNS,141508.0,5133.477856,N,00957.642266,E,AA,16,0.6,230.3,47.0,,*63

$GPVTG,221.0,T,221.1,M,0.0,N,0.0,K,A*22

$GPGSA,A,2,07,08,10,15,16,18,20,21,26,27,,,0.9,0.6,0.7*3F

$GNGSA,A,2,07,08,10,15,16,18,20,21,26,27,,,0.9,0.6,0.7*21

$GNGSA,A,2,70,86,76,75,85,71,,,,,,,0.9,0.6,0.7*24

$GPRMC,141508.0,A,5133.477856,N,00957.642266,E,0.0,221.0,260619,0.1,W,A*16

$PSTIS,*61

$GLGSV,3,1,10,70,47,098,21,86,55,307,28,77,26,320,24,76,30,257,28*6B

$GLGSV,3,2,10,75,05,213,24,85,52,070,30,71,20,154,23,69,23,028,*6B

$GLGSV,3,3,10,84,01,091,,87,02,281,*67

$GPGSV,4,1,13,07,08,292,24,08,45,296,30,10,59,127,29,11,05,271,11*7A

$GPGSV,4,2,13,15,11,037,17,16,36,192,34,18,18,254,20,20,52,075,27*77

$GPGSV,4,3,13,21,27,073,21,26,11,178,21,27,85,267,32,30,07,320,16*7C

$GPGSV,4,4,13,13,02,008,*43

$GPGGA,141509.0,5133.477849,N,00957.642247,E,1,10,0.6,230.3,M,47.0,M,,*5D

$GNGNS,141509.0,5133.477849,N,00957.642247,E,AA,16,0.6,230.3,47.0,,*6F

$GPVTG,221.0,T,221.1,M,0.0,N,0.0,K,A*22

$GPGSA,A,2,07,08,10,15,16,18,20,21,26,27,,,0.9,0.6,0.7*3F

$GNGSA,A,2,07,08,10,15,16,18,20,21,26,27,,,0.9,0.6,0.7*21

$GNGSA,A,2,70,86,76,75,85,71,,,,,,,0.9,0.6,0.7*24

$GPRMC,141509.0,A,5133.477849,N,00957.642247,E,0.0,221.0,260619,0.1,W,A*1A

$PSTIS,*61

$GLGSV,3,1,10,70,47,098,21,86,55,307,28,77,26,320,24,76,30,257,28*6B

$GLGSV,3,2,10,75,05,213,24,85,52,070,30,71,20,154,23,69,23,028,*6B

$GLGSV,3,3,10,84,01,091,,87,02,281,*67

$GPGSV,4,1,13,07,08,292,24,08,45,296,30,10,59,127,29,11,05,271,11*7A

$GPGSV,4,2,13,15,11,037,17,16,36,192,34,18,18,254,20,20,52,075,27*77

$GPGSV,4,3,13,21,27,073,21,26,11,178,21,27,85,267,32,30,07,320,16*7C

$GPGSV,4,4,13,13,02,008,*43

$GPGGA,141509.0,5133.477849,N,00957.642247,E,1,10,0.6,230.3,M,47.0,M,,*5D

$GNGNS,141509.0,5133.477849,N,00957.642247,E,AA,16,0.6,230.3,47.0,,*6F

$GPVTG,221.0,T,221.1,M,0.0,N,0.0,K,A*22

$GPGSA,A,2,07,08,10,15,16,18,20,21,26,27,,,0.9,0.6,0.7*3F

$GNGSA,A,2,07,08,10,15,16,18,20,21,26,27,,,0.9,0.6,0.7*21

$GNGSA,A,2,70,86,76,75,85,71,,,,,,,0.9,0.6,0.7*24

$GPRMC,141509.0,A,5133.477849,N,00957.642247,E,0.0,221.0,260619,0.1,W,A*1A

$PSTIS,*61

$GLGSV,3,1,10,70,47,098,21,86,55,307,28,77,26,320,23,76,30,257,28*6C

$GLGSV,3,2,10,75,05,213,22,85,52,070,30,71,20,154,24,69,23,028,*6A

$GLGSV,3,3,10,84,01,091,,87,02,281,*67

$GPGSV,4,1,13,07,08,292,24,08,45,296,30,10,59,127,30,11,05,271,11*72

$GPGSV,4,2,13,15,11,037,16,16,36,192,35,18,18,254,20,20,52,075,28*78

$GPGSV,4,3,13,21,27,073,21,26,11,178,20,27,85,267,32,30,07,320,18*73

$GPGSV,4,4,13,13,02,008,*43

$GPGGA,141510.0,5133.477850,N,00957.642250,E,1,10,0.6,230.3,M,47.0,M,,*5B

$GNGNS,141510.0,5133.477850,N,00957.642250,E,AA,16,0.6,230.3,47.0,,*69

$GPVTG,221.0,T,221.1,M,0.0,N,0.0,K,A*22

$GPGSA,A,2,07,08,10,15,16,18,20,21,26,27,,,0.9,0.6,0.7*3F

$GNGSA,A,2,07,08,10,15,16,18,20,21,26,27,,,0.9,0.6,0.7*21

$GNGSA,A,2,70,86,76,75,85,71,,,,,,,0.9,0.6,0.7*24

$GPRMC,141510.0,A,5133.477850,N,00957.642250,E,0.0,221.0,260619,0.1,W,A*1C

$PSTIS,*61

$GLGSV,3,1,10,70,47,098,21,86,55,307,28,77,26,320,23,76,30,257,28*6C

$GLGSV,3,2,10,75,05,213,22,85,52,070,30,71,20,154,24,69,23,028,*6A

$GLGSV,3,3,10,84,01,091,,87,02,281,*67

$GPGSV,4,1,13,07,08,292,24,08,45,296,30,10,59,127,30,11,05,271,11*72

$GPGSV,4,2,13,15,11,037,16,16,36,192,35,18,18,254,20,20,52,075,28*78

$GPGSV,4,3,13,21,27,073,21,26,11,178,20,27,85,267,32,30,07,320,18*73

$GPGSV,4,4,13,13,02,008,*43

$GPGGA,141510.0,5133.477850,N,00957.642250,E,1,10,0.6,230.3,M,47.0,M,,*5B

$GNGNS,141510.0,5133.477850,N,00957.642250,E,AA,16,0.6,230.3,47.0,,*69

$GPVTG,221.0,T,221.1,M,0.0,N,0.0,K,A*22

$GPGSA,A,2,07,08,10,15,16,18,20,21,26,27,,,0.9,0.6,0.7*3F

$GNGSA,A,2,07,08,10,15,16,18,20,21,26,27,,,0.9,0.6,0.7*21

$GNGSA,A,2,70,86,76,75,85,71,,,,,,,0.9,0.6,0.7*24

$GPRMC,141510.0,A,5133.477850,N,00957.642250,E,0.0,221.0,260619,0.1,W,A*1C

$PSTIS,*61

$GLGSV,3,1,10,70,47,098,21,86,55,307,28,77,26,320,23,76,30,257,28*6C

$GLGSV,3,2,10,75,05,213,25,85,52,070,30,71,20,154,23,69,23,028,*6A

$GLGSV,3,3,10,84,01,091,,87,02,281,*67

$GPGSV,4,1,13,07,08,292,22,08,45,296,30,10,59,127,30,11,05,271,11*74

$GPGSV,4,2,13,15,11,037,16,16,36,192,35,18,18,254,21,20,52,075,27*76

$GPGSV,4,3,13,21,27,073,21,26,11,178,20,27,85,267,32,30,07,320,17*7C

$GLGSV,3,1,10,70,47,098,21,86,55,307,28,77,26,320,23,76,30,257,28*6C

$GLGSV,3,2,10,75,05,213,25,85,52,070,30,71,20,154,23,69,23,028,*6A

$GLGSV,3,3,10,84,01,091,,87,02,281,*67

$GPGSV,4,1,13,07,08,292,22,08,45,296,30,10,59,127,30,11,05,271,11*74

$GPGSV,4,2,13,15,11,037,16,16,36,192,35,18,18,254,21,20,52,075,27*76

$GPGSV,4,3,13,21,27,073,21,26,11,178,20,27,85,267,32,30,07,320,17*7C

$GPGSV,4,4,13,13,02,008,*43

$GPGGA,141511.0,5133.477852,N,00957.642250,E,1,10,0.6,230.3,M,47.0,M,,*58

$GNGNS,141511.0,5133.477852,N,00957.642250,E,AA,16,0.6,230.3,47.0,,*6A

$GPVTG,221.0,T,221.1,M,0.0,N,0.0,K,A*22

$GPGSA,A,2,07,08,10,15,16,18,20,21,26,27,,,0.9,0.6,0.7*3F

$GNGSA,A,2,07,08,10,15,16,18,20,21,26,27,,,0.9,0.6,0.7*21

$GNGSA,A,2,70,86,76,75,85,71,,,,,,,0.9,0.6,0.7*24

$GPRMC,141511.0,A,5133.477852,N,00957.642250,E,0.0,221.0,260619,0.1,W,A*1F

$PSTIS,*61

$GPGSV,4,4,13,13,02,008,*43

$GPGGA,141511.0,5133.477852,N,00957.642250,E,1,10,0.6,230.3,M,47.0,M,,*58

$GNGNS,141511.0,5133.477852,N,00957.642250,E,AA,16,0.6,230.3,47.0,,*6A

$GPVTG,221.0,T,221.1,M,0.0,N,0.0,K,A*22

$GPGSA,A,2,07,08,10,15,16,18,20,21,26,27,,,0.9,0.6,0.7*3F

$GNGSA,A,2,07,08,10,15,16,18,20,21,26,27,,,0.9,0.6,0.7*21

$GNGSA,A,2,70,86,76,75,85,71,,,,,,,0.9,0.6,0.7*24

$GPRMC,141511.0,A,5133.477852,N,00957.642250,E,0.0,221.0,260619,0.1,W,A*1F

$PSTIS,*61

$GLGSV,3,1,10,70,47,098,21,86,55,307,27,77,26,320,23,76,30,257,28*63

$GLGSV,3,2,10,75,05,213,24,85,52,070,30,71,20,154,22,69,23,028,*6A

$GLGSV,3,3,10,84,01,091,,87,02,281,*67

$GPGSV,4,1,13,07,08,292,22,08,45,296,30,10,59,127,29,11,05,271,11*7C

$GPGSV,4,2,13,15,11,037,16,16,36,192,34,18,18,254,21,20,52,075,27*77

$GPGSV,4,3,13,21,27,073,20,26,11,178,21,27,85,267,31,30,07,320,17*7F

$GLGSV,3,1,10,70,47,098,21,86,55,307,27,77,26,320,23,76,30,257,28*63

$GLGSV,3,2,10,75,05,213,24,85,52,070,30,71,20,154,22,69,23,028,*6A

$GLGSV,3,3,10,84,01,091,,87,02,281,*67

$GPGSV,4,1,13,07,08,292,22,08,45,296,30,10,59,127,29,11,05,271,11*7C

$GPGSV,4,2,13,15,11,037,16,16,36,192,34,18,18,254,21,20,52,075,27*77

$GPGSV,4,3,13,21,27,073,20,26,11,178,21,27,85,267,31,30,07,320,17*7F

$GPGSV,4,4,13,13,02,008,*43

$GPGGA,141512.0,5133.477852,N,00957.642249,E,1,10,0.6,230.3,M,47.0,M,,*53

$GNGNS,141512.0,5133.477852,N,00957.642249,E,AA,16,0.6,230.3,47.0,,*61

$GPVTG,221.0,T,221.1,M,0.0,N,0.0,K,A*22

$GPGSA,A,2,07,08,10,15,16,18,20,21,26,27,,,0.9,0.6,0.7*3F

$GNGSA,A,2,07,08,10,15,16,18,20,21,26,27,,,0.9,0.6,0.7*21

$GNGSA,A,2,70,86,76,75,85,71,,,,,,,0.9,0.6,0.7*24

$GPRMC,141512.0,A,5133.477852,N,00957.642249,E,0.0,221.0,260619,0.1,W,A*14

$PSTIS,*61

$GPGSV,4,4,13,13,02,008,*43

$GPGGA,141512.0,5133.477852,N,00957.642249,E,1,10,0.6,230.3,M,47.0,M,,*53

$GNGNS,141512.0,5133.477852,N,00957.642249,E,AA,16,0.6,230.3,47.0,,*61

$GPVTG,221.0,T,221.1,M,0.0,N,0.0,K,A*22

$GPGSA,A,2,07,08,10,15,16,18,20,21,26,27,,,0.9,0.6,0.7*3F

$GNGSA,A,2,07,08,10,15,16,18,20,21,26,27,,,0.9,0.6,0.7*21

$GNGSA,A,2,70,86,76,75,85,71,,,,,,,0.9,0.6,0.7*24

$GPRMC,141512.0,A,5133.477852,N,00957.642249,E,0.0,221.0,260619,0.1,W,A*14

$PSTIS,*61

$GLGSV,3,1,10,70,47,098,21,86,55,307,28,77,26,320,22,76,30,257,28*6D

$GLGSV,3,2,10,75,05,213,25,85,52,070,29,71,20,154,24,69,23,028,*65

$GLGSV,3,3,10,84,01,091,,87,02,281,*67

$GPGSV,4,1,13,07,08,292,24,08,45,296,29,10,59,127,29,15,11,037,16*74

$GPGSV,4,2,13,16,36,192,34,18,18,254,21,20,52,075,27,21,27,073,20*70

$GPGSV,4,3,13,26,11,178,20,27,85,267,31,30,07,320,18,11,05,271,*70

$GPGSV,4,4,13,13,02,008,*43

$GPGGA,141513.0,5133.477854,N,00957.642245,E,1,10,0.6,230.3,M,47.0,M,,*58

$GNGNS,141513.0,5133.477854,N,00957.642245,E,AA,16,0.6,230.3,47.0,,*6A

$GPVTG,221.0,T,221.1,M,0.0,N,0.0,K,A*22

$GPGSA,A,2,07,08,10,15,16,18,20,21,26,27,,,0.9,0.6,0.7*3F

$GLGSV,3,1,10,70,47,098,21,86,55,307,28,77,26,320,22,76,30,257,28*6D

$GLGSV,3,2,10,75,05,213,25,85,52,070,29,71,20,154,24,69,23,028,*65

$GLGSV,3,3,10,84,01,091,,87,02,281,*67

$GPGSV,4,1,13,07,08,292,24,08,45,296,29,10,59,127,29,15,11,037,16*74

$GPGSV,4,2,13,16,36,192,34,18,18,254,21,20,52,075,27,21,27,073,20*70

$GPGSV,4,3,13,26,11,178,20,27,85,267,31,30,07,320,18,11,05,271,*70

$GPGSV,4,4,13,13,02,008,*43

$GPGGA,141513.0,5133.477854,N,00957.642245,E,1,10,0.6,230.3,M,47.0,M,,*58

$GNGNS,141513.0,5133.477854,N,00957.642245,E,AA,16,0.6,230.3,47.0,,*6A

$GPVTG,221.0,T,221.1,M,0.0,N,0.0,K,A*22

$GPGSA,A,2,07,08,10,15,16,18,20,21,26,27,,,0.9,0.6,0.7*3F

$GNGSA,A,2,07,08,10,15,16,18,20,21,26,27,,,0.9,0.6,0.7*21

$GNGSA,A,2,70,86,76,75,85,71,,,,,,,0.9,0.6,0.7*24

$GPRMC,141513.0,A,5133.477854,N,00957.642245,E,0.0,221.0,260619,0.1,W,A*1F

$PSTIS,*61

$GNGSA,A,2,07,08,10,15,16,18,20,21,26,27,,,0.9,0.6,0.7*21

$GNGSA,A,2,70,86,76,75,85,71,,,,,,,0.9,0.6,0.7*24

$GPRMC,141513.0,A,5133.477854,N,00957.642245,E,0.0,221.0,260619,0.1,W,A*1F

$PSTIS,*61

$GLGSV,3,1,10,70,47,098,23,86,55,307,28,77,26,320,22,76,30,257,28*6F

$GLGSV,3,2,10,75,05,213,26,85,52,070,30,71,20,154,22,69,23,028,*68

$GLGSV,3,3,10,84,01,091,,87,02,281,*67

$GPGSV,4,1,13,07,08,292,23,08,45,296,30,10,59,127,29,15,11,037,16*7B

$GPGSV,4,2,13,16,36,192,34,18,18,254,22,20,52,075,27,21,27,073,22*71

$GPGSV,4,3,13,26,11,178,21,27,85,267,32,30,07,320,18,11,05,271,*72

$GPGSV,4,4,13,13,02,008,*43

$GPGGA,141514.0,5133.477854,N,00957.642240,E,1,09,0.7,230.3,M,47.0,M,,*53

$GNGNS,141514.0,5133.477854,N,00957.642240,E,AA,15,0.7,230.3,47.0,,*6A

$GLGSV,3,1,10,70,47,098,23,86,55,307,28,77,26,320,22,76,30,257,28*6F

$GLGSV,3,2,10,75,05,213,26,85,52,070,30,71,20,154,22,69,23,028,*68

$GLGSV,3,3,10,84,01,091,,87,02,281,*67

$GPGSV,4,1,13,07,08,292,23,08,45,296,30,10,59,127,29,15,11,037,16*7B

$GPGSV,4,2,13,16,36,192,34,18,18,254,22,20,52,075,27,21,27,073,22*71

$GPGSV,4,3,13,26,11,178,21,27,85,267,32,30,07,320,18,11,05,271,*72

$GPGSV,4,4,13,13,02,008,*43

$GPGGA,141514.0,5133.477854,N,00957.642240,E,1,09,0.7,230.3,M,47.0,M,,*53

$GNGNS,141514.0,5133.477854,N,00957.642240,E,AA,15,0.7,230.3,47.0,,*6A

$GPVTG,221.0,T,221.1,M,0.0,N,0.0,K,A*22

$GPGSA,A,2,07,08,10,16,18,20,21,26,27,,,,1.0,0.7,0.7*32

$GNGSA,A,2,07,08,10,16,18,20,21,26,27,,,,1.0,0.7,0.7*2C

$GNGSA,A,2,70,86,76,75,85,71,,,,,,,1.0,0.7,0.7*2D

$GPRMC,141514.0,A,5133.477854,N,00957.642240,E,0.0,221.0,260619,0.1,W,A*1D

$PSTIS,*61

$GPVTG,221.0,T,221.1,M,0.0,N,0.0,K,A*22

$GPGSA,A,2,07,08,10,16,18,20,21,26,27,,,,1.0,0.7,0.7*32

$GNGSA,A,2,07,08,10,16,18,20,21,26,27,,,,1.0,0.7,0.7*2C

$GNGSA,A,2,70,86,76,75,85,71,,,,,,,1.0,0.7,0.7*2D

$GPRMC,141514.0,A,5133.477854,N,00957.642240,E,0.0,221.0,260619,0.1,W,A*1D

$PSTIS,*61

$GLGSV,3,1,10,70,47,098,21,86,55,307,28,77,26,320,21,76,30,257,28*6E

$GLGSV,3,2,10,75,05,213,26,85,52,070,30,71,20,154,21,69,23,028,*6B

$GLGSV,3,1,10,70,47,098,21,86,55,307,28,77,26,320,21,76,30,257,28*6E

$GLGSV,3,2,10,75,05,213,26,85,52,070,30,71,20,154,21,69,23,028,*6B

$GLGSV,3,3,10,84,01,091,,87,02,281,*67

$GPGSV,4,1,13,07,08,292,22,08,45,296,30,10,59,127,28,15,11,037,16*7B

$GPGSV,4,2,13,16,36,192,34,18,18,254,23,20,52,075,28,21,27,073,20*7D

$GPGSV,4,3,13,26,11,178,20,27,85,267,31,30,07,320,18,11,05,271,*70

$GPGSV,4,4,13,13,02,008,*43

$GPGGA,141515.0,5133.477852,N,00957.642237,E,1,09,0.7,230.3,M,47.0,M,,*54

$GNGNS,141515.0,5133.477852,N,00957.642237,E,AA,15,0.7,230.3,47.0,,*6D

$GPVTG,221.0,T,221.1,M,0.0,N,0.0,K,A*22

$GPGSA,A,2,07,08,10,16,18,20,21,26,27,,,,1.0,0.7,0.7*32

$GNGSA,A,2,07,08,10,16,18,20,21,26,27,,,,1.0,0.7,0.7*2C

$GNGSA,A,2,70,86,76,75,85,71,,,,,,,1.0,0.7,0.7*2D

$GPRMC,141515.0,A,5133.477852,N,00957.642237,E,0.0,221.0,260619,0.1,W,A*1A

$PSTIS,*61

$GLGSV,3,3,10,84,01,091,,87,02,281,*67

$GPGSV,4,1,13,07,08,292,22,08,45,296,30,10,59,127,28,15,11,037,16*7B

$GPGSV,4,2,13,16,36,192,34,18,18,254,23,20,52,075,28,21,27,073,20*7D

$GPGSV,4,3,13,26,11,178,20,27,85,267,31,30,07,320,18,11,05,271,*70

$GPGSV,4,4,13,13,02,008,*43

$GPGGA,141515.0,5133.477852,N,00957.642237,E,1,09,0.7,230.3,M,47.0,M,,*54

$GNGNS,141515.0,5133.477852,N,00957.642237,E,AA,15,0.7,230.3,47.0,,*6D

$GPVTG,221.0,T,221.1,M,0.0,N,0.0,K,A*22

$GPGSA,A,2,07,08,10,16,18,20,21,26,27,,,,1.0,0.7,0.7*32

$GNGSA,A,2,07,08,10,16,18,20,21,26,27,,,,1.0,0.7,0.7*2C

$GNGSA,A,2,70,86,76,75,85,71,,,,,,,1.0,0.7,0.7*2D

$GPRMC,141515.0,A,5133.477852,N,00957.642237,E,0.0,221.0,260619,0.1,W,A*1A

$PSTIS,*61

$GLGSV,3,1,10,70,47,098,21,86,55,307,27,77,26,320,22,76,30,257,27*6D

$GLGSV,3,2,10,75,05,213,26,85,52,070,30,71,20,154,22,69,23,028,*68

$GLGSV,3,3,10,84,01,091,,87,02,281,*67

$GPGSV,4,1,13,07,08,292,22,08,45,296,29,10,59,127,29,15,11,037,16*72

$GPGSV,4,2,13,16,36,192,34,18,18,254,21,20,52,075,27,21,27,073,22*72

$GPGSV,4,3,13,26,11,178,19,27,85,267,31,30,07,320,19,11,05,271,*7B

$GPGSV,4,4,13,13,02,008,*43

$GPGGA,141516.0,5133.477851,N,00957.642235,E,1,09,0.7,230.3,M,47.0,M,,*56

$GNGNS,141516.0,5133.477851,N,00957.642235,E,AA,15,0.7,230.3,47.0,,*6F

$GPVTG,221.0,T,221.1,M,0.0,N,0.0,K,A*22

$GPGSA,A,2,07,08,10,16,18,20,21,26,27,,,,1.1,0.7,0.7*33

$GNGSA,A,2,07,08,10,16,18,20,21,26,27,,,,1.1,0.7,0.7*2D

$GNGSA,A,2,70,86,76,75,85,71,,,,,,,1.1,0.7,0.7*2C

$GPRMC,141516.0,A,5133.477851,N,00957.642235,E,0.0,221.0,260619,0.1,W,A*18

$PSTIS,*61

$GLGSV,3,1,10,70,47,098,21,86,55,307,27,77,26,320,22,76,30,257,27*6D

$GLGSV,3,2,10,75,05,213,26,85,52,070,30,71,20,154,22,69,23,028,*68

$GLGSV,3,3,10,84,01,091,,87,02,281,*67

$GPGSV,4,1,13,07,08,292,22,08,45,296,29,10,59,127,29,15,11,037,16*72

$GPGSV,4,2,13,16,36,192,34,18,18,254,21,20,52,075,27,21,27,073,22*72

$GPGSV,4,3,13,26,11,178,19,27,85,267,31,30,07,320,19,11,05,271,*7B

$GPGSV,4,4,13,13,02,008,*43

$GPGGA,141516.0,5133.477851,N,00957.642235,E,1,09,0.7,230.3,M,47.0,M,,*56

$GNGNS,141516.0,5133.477851,N,00957.642235,E,AA,15,0.7,230.3,47.0,,*6F

$GPVTG,221.0,T,221.1,M,0.0,N,0.0,K,A*22

$GPGSA,A,2,07,08,10,16,18,20,21,26,27,,,,1.1,0.7,0.7*33

$GNGSA,A,2,07,08,10,16,18,20,21,26,27,,,,1.1,0.7,0.7*2D

$GNGSA,A,2,70,86,76,75,85,71,,,,,,,1.1,0.7,0.7*2C

$GPRMC,141516.0,A,5133.477851,N,00957.642235,E,0.0,221.0,260619,0.1,W,A*18

$PSTIS,*61

$GLGSV,3,1,10,70,47,098,21,86,55,307,28,77,26,320,22,76,30,257,27*62

$GLGSV,3,2,10,75,05,213,26,85,52,070,30,71,20,154,23,69,23,028,*69

$GLGSV,3,3,10,84,01,091,,87,02,281,*67

$GPGSV,4,1,13,07,08,292,22,08,45,296,29,10,59,127,29,15,11,037,16*72

$GPGSV,4,2,13,16,36,192,34,18,18,254,23,20,52,075,27,21,27,073,22*70

$GPGSV,4,3,13,26,11,178,20,27,85,267,31,30,07,320,19,11,05,271,*71

$GPGSV,4,4,13,13,02,008,*43

$GPGGA,141517.0,5133.477851,N,00957.642233,E,1,09,0.7,230.3,M,47.0,M,,*51

$GNGNS,141517.0,5133.477851,N,00957.642233,E,AA,15,0.7,230.3,47.0,,*68

$GPVTG,221.0,T,221.1,M,0.0,N,0.0,K,A*22

$GPGSA,A,2,07,08,10,16,18,20,21,26,27,,,,1.0,0.7,0.7*32

$GNGSA,A,2,07,08,10,16,18,20,21,26,27,,,,1.0,0.7,0.7*2C

$GNGSA,A,2,70,86,76,75,85,71,,,,,,,1.0,0.7,0.7*2D

$GPRMC,141517.0,A,5133.477851,N,00957.642233,E,0.0,221.0,260619,0.1,W,A*1F

$PSTIS,*61

$GLGSV,3,1,10,70,47,098,21,86,55,307,28,77,26,320,22,76,30,257,27*62

$GLGSV,3,2,10,75,05,213,26,85,52,070,30,71,20,154,23,69,23,028,*69

$GLGSV,3,3,10,84,01,091,,87,02,281,*67

$GPGSV,4,1,13,07,08,292,22,08,45,296,29,10,59,127,29,15,11,037,16*72

$GPGSV,4,2,13,16,36,192,34,18,18,254,23,20,52,075,27,21,27,073,22*70

$GPGSV,4,3,13,26,11,178,20,27,85,267,31,30,07,320,19,11,05,271,*71

$GPGSV,4,4,13,13,02,008,*43

$GPGGA,141517.0,5133.477851,N,00957.642233,E,1,09,0.7,230.3,M,47.0,M,,*51

$GNGNS,141517.0,5133.477851,N,00957.642233,E,AA,15,0.7,230.3,47.0,,*68

$GPVTG,221.0,T,221.1,M,0.0,N,0.0,K,A*22

$GPGSA,A,2,07,08,10,16,18,20,21,26,27,,,,1.0,0.7,0.7*32

$GNGSA,A,2,07,08,10,16,18,20,21,26,27,,,,1.0,0.7,0.7*2C

$GNGSA,A,2,70,86,76,75,85,71,,,,,,,1.0,0.7,0.7*2D

$GPRMC,141517.0,A,5133.477851,N,00957.642233,E,0.0,221.0,260619,0.1,W,A*1F

$PSTIS,*61

$GLGSV,3,1,10,70,47,098,21,86,55,307,28,77,26,320,22,76,30,257,28*6D

$GLGSV,3,2,10,75,05,213,26,85,52,070,30,71,20,154,23,69,23,028,*69

$GLGSV,3,3,10,84,01,091,,87,02,281,*67

$GPGSV,4,1,13,07,08,292,23,08,45,296,29,10,59,127,28,15,11,037,16*72

$GPGSV,4,2,13,16,36,192,35,18,18,254,22,20,52,075,27,21,27,073,21*73

$GPGSV,4,3,13,26,11,178,20,27,85,267,31,30,07,320,18,11,05,271,*70

$GPGSV,4,4,13,13,02,008,*43

$GPGGA,141518.0,5133.477850,N,00957.642230,E,1,09,0.7,230.3,M,47.0,M,,*5C

$GNGNS,141518.0,5133.477850,N,00957.642230,E,AA,15,0.7,230.3,47.0,,*65

$GPVTG,221.0,T,221.1,M,0.0,N,0.0,K,A*22

$GPGSA,A,2,07,08,10,16,18,20,21,26,27,,,,1.0,0.7,0.7*32

$GNGSA,A,2,07,08,10,16,18,20,21,26,27,,,,1.0,0.7,0.7*2C

$GNGSA,A,2,70,86,76,75,85,71,,,,,,,1.0,0.7,0.7*2D

$GPRMC,141518.0,A,5133.477850,N,00957.642230,E,0.0,221.0,260619,0.1,W,A*12

$PSTIS,*61

$GLGSV,3,1,10,70,47,098,21,86,55,307,28,77,26,320,22,76,30,257,28*6D

$GLGSV,3,2,10,75,05,213,26,85,52,070,30,71,20,154,23,69,23,028,*69

$GLGSV,3,3,10,84,01,091,,87,02,281,*67

$GPGSV,4,1,13,07,08,292,23,08,45,296,29,10,59,127,28,15,11,037,16*72

$GPGSV,4,2,13,16,36,192,35,18,18,254,22,20,52,075,27,21,27,073,21*73

$GPGSV,4,3,13,26,11,178,20,27,85,267,31,30,07,320,18,11,05,271,*70

$GPGSV,4,4,13,13,02,008,*43

$GPGGA,141518.0,5133.477850,N,00957.642230,E,1,09,0.7,230.3,M,47.0,M,,*5C

$GNGNS,141518.0,5133.477850,N,00957.642230,E,AA,15,0.7,230.3,47.0,,*65

$GPVTG,221.0,T,221.1,M,0.0,N,0.0,K,A*22

$GPGSA,A,2,07,08,10,16,18,20,21,26,27,,,,1.0,0.7,0.7*32

$GNGSA,A,2,07,08,10,16,18,20,21,26,27,,,,1.0,0.7,0.7*2C

$GNGSA,A,2,70,86,76,75,85,71,,,,,,,1.0,0.7,0.7*2D

$GPRMC,141518.0,A,5133.477850,N,00957.642230,E,0.0,221.0,260619,0.1,W,A*12

$PSTIS,*61

$GLGSV,3,1,10,70,47,098,20,86,55,307,28,77,26,320,21,76,30,257,27*60

$GLGSV,3,2,10,75,05,213,25,85,52,070,30,71,20,154,23,69,23,028,*6A

$GLGSV,3,3,10,84,01,091,,87,02,281,*67

$GPGSV,4,1,13,07,08,292,22,08,45,296,29,10,59,127,28,15,11,037,16*73

$GPGSV,4,2,13,16,36,192,34,18,18,254,23,20,52,075,27,21,27,073,18*79

$GPGSV,4,3,13,26,11,178,20,27,85,267,31,30,07,320,17,11,05,271,*7F

$GPGSV,4,4,13,13,02,008,*43

$GPGGA,141519.0,5133.477851,N,00957.642229,E,1,09,0.7,230.3,M,47.0,M,,*54

$GNGNS,141519.0,5133.477851,N,00957.642229,E,AA,15,0.7,230.3,47.0,,*6D

$GPVTG,221.0,T,221.1,M,0.0,N,0.0,K,A*22

$GPGSA,A,2,07,08,10,16,18,20,21,26,27,,,,1.0,0.7,0.7*32

$GNGSA,A,2,07,08,10,16,18,20,21,26,27,,,,1.0,0.7,0.7*2C

$GNGSA,A,2,70,86,76,75,85,71,,,,,,,1.0,0.7,0.7*2D

$GPRMC,141519.0,A,5133.477851,N,00957.642229,E,0.0,221.0,260619,0.1,W,A*1A

$PSTIS,*61

$GLGSV,3,1,10,70,47,098,20,86,55,307,28,77,26,320,21,76,30,257,27*60

$GLGSV,3,2,10,75,05,213,25,85,52,070,30,71,20,154,23,69,23,028,*6A

$GLGSV,3,3,10,84,01,091,,87,02,281,*67

$GPGSV,4,1,13,07,08,292,22,08,45,296,29,10,59,127,28,15,11,037,16*73

$GPGSV,4,2,13,16,36,192,34,18,18,254,23,20,52,075,27,21,27,073,18*79

$GPGSV,4,3,13,26,11,178,20,27,85,267,31,30,07,320,17,11,05,271,*7F

$GPGSV,4,4,13,13,02,008,*43

$GPGGA,141519.0,5133.477851,N,00957.642229,E,1,09,0.7,230.3,M,47.0,M,,*54

$GNGNS,141519.0,5133.477851,N,00957.642229,E,AA,15,0.7,230.3,47.0,,*6D

$GPVTG,221.0,T,221.1,M,0.0,N,0.0,K,A*22

$GPGSA,A,2,07,08,10,16,18,20,21,26,27,,,,1.0,0.7,0.7*32

$GNGSA,A,2,07,08,10,16,18,20,21,26,27,,,,1.0,0.7,0.7*2C

$GNGSA,A,2,70,86,76,75,85,71,,,,,,,1.0,0.7,0.7*2D

$GPRMC,141519.0,A,5133.477851,N,00957.642229,E,0.0,221.0,260619,0.1,W,A*1A

$PSTIS,*61

$GLGSV,3,1,10,70,47,098,22,86,55,307,29,77,26,320,23,76,30,257,28*6E

$GLGSV,3,2,10,75,05,213,24,85,52,070,30,71,20,154,24,69,23,028,*6C

$GLGSV,3,3,10,84,01,091,,87,02,281,*67

$GPGSV,4,1,13,07,08,292,23,08,45,296,28,10,59,127,28,15,11,037,14*71

$GPGSV,4,2,13,16,36,192,34,18,18,254,23,20,52,075,27,21,27,073,18*79

$GPGSV,4,3,13,26,11,178,20,27,85,267,31,30,07,320,18,11,05,271,*70

$GPGSV,4,4,13,13,02,008,*43

$GPGGA,141520.0,5133.477850,N,00957.642225,E,1,10,0.6,230.3,M,47.0,M,,*5A

$GNGNS,141520.0,5133.477850,N,00957.642225,E,AA,16,0.6,230.3,47.0,,*68

$GPVTG,221.0,T,221.1,M,0.0,N,0.0,K,A*22

$GPGSA,A,2,07,08,10,15,16,18,20,21,26,27,,,0.9,0.6,0.7*3F

$GNGSA,A,2,07,08,10,15,16,18,20,21,26,27,,,0.9,0.6,0.7*21

$GNGSA,A,2,70,86,76,75,85,71,,,,,,,0.9,0.6,0.7*24

$GPRMC,141520.0,A,5133.477850,N,00957.642225,E,0.0,221.0,260619,0.1,W,A*1D

$PSTIS,*61

$GLGSV,3,1,10,70,47,098,22,86,55,307,29,77,26,320,23,76,30,257,28*6E

$GLGSV,3,2,10,75,05,213,24,85,52,070,30,71,20,154,24,69,23,028,*6C

$GLGSV,3,3,10,84,01,091,,87,02,281,*67

$GPGSV,4,1,13,07,08,292,23,08,45,296,28,10,59,127,28,15,11,037,14*71

$GPGSV,4,2,13,16,36,192,34,18,18,254,23,20,52,075,27,21,27,073,18*79

$GPGSV,4,3,13,26,11,178,20,27,85,267,31,30,07,320,18,11,05,271,*70

$GPGSV,4,4,13,13,02,008,*43

$GPGGA,141520.0,5133.477850,N,00957.642225,E,1,10,0.6,230.3,M,47.0,M,,*5A

$GNGNS,141520.0,5133.477850,N,00957.642225,E,AA,16,0.6,230.3,47.0,,*68

$GPVTG,221.0,T,221.1,M,0.0,N,0.0,K,A*22

$GPGSA,A,2,07,08,10,15,16,18,20,21,26,27,,,0.9,0.6,0.7*3F

$GNGSA,A,2,07,08,10,15,16,18,20,21,26,27,,,0.9,0.6,0.7*21

$GNGSA,A,2,70,86,76,75,85,71,,,,,,,0.9,0.6,0.7*24

$GPRMC,141520.0,A,5133.477850,N,00957.642225,E,0.0,221.0,260619,0.1,W,A*1D

$PSTIS,*61

$GLGSV,3,1,10,70,47,098,22,86,55,307,29,77,26,320,22,76,30,257,28*6F

$GLGSV,3,2,10,75,05,213,25,85,52,070,30,71,20,154,23,69,23,028,*6A

$GLGSV,3,3,10,84,01,091,,87,02,281,*67

$GPGSV,4,1,13,07,08,292,22,08,45,296,29,10,59,127,29,15,11,037,14*70

$GPGSV,4,2,13,16,36,192,34,18,18,254,22,20,52,075,27,21,27,073,20*73

$GPGSV,4,3,13,26,11,178,20,27,85,267,31,30,07,320,18,11,05,271,*70

$GPGSV,4,4,13,13,02,008,*43

$GLGSV,3,1,10,70,47,098,22,86,55,307,29,77,26,320,22,76,30,257,28*6F

$GLGSV,3,2,10,75,05,213,25,85,52,070,30,71,20,154,23,69,23,028,*6A

$GLGSV,3,3,10,84,01,091,,87,02,281,*67

$GPGSV,4,1,13,07,08,292,22,08,45,296,29,10,59,127,29,15,11,037,14*70

$GPGSV,4,2,13,16,36,192,34,18,18,254,22,20,52,075,27,21,27,073,20*73

$GPGSV,4,3,13,26,11,178,20,27,85,267,31,30,07,320,18,11,05,271,*70

$GPGSV,4,4,13,13,02,008,*43

$GPGGA,141521.0,5133.477850,N,00957.642223,E,1,09,0.7,230.3,M,47.0,M,,*54

$GNGNS,141521.0,5133.477850,N,00957.642223,E,AA,15,0.7,230.3,47.0,,*6D

$GPVTG,221.0,T,221.1,M,0.0,N,0.0,K,A*22

$GPGSA,A,2,07,08,10,16,18,20,21,26,27,,,,1.0,0.7,0.7*32

$GNGSA,A,2,07,08,10,16,18,20,21,26,27,,,,1.0,0.7,0.7*2C

$GNGSA,A,2,70,86,76,75,85,71,,,,,,,1.0,0.7,0.7*2D

$GPRMC,141521.0,A,5133.477850,N,00957.642223,E,0.0,221.0,260619,0.1,W,A*1A

$PSTIS,*61

$GPGGA,141521.0,5133.477850,N,00957.642223,E,1,09,0.7,230.3,M,47.0,M,,*54

$GNGNS,141521.0,5133.477850,N,00957.642223,E,AA,15,0.7,230.3,47.0,,*6D

$GPVTG,221.0,T,221.1,M,0.0,N,0.0,K,A*22

$GPGSA,A,2,07,08,10,16,18,20,21,26,27,,,,1.0,0.7,0.7*32

$GNGSA,A,2,07,08,10,16,18,20,21,26,27,,,,1.0,0.7,0.7*2C

$GNGSA,A,2,70,86,76,75,85,71,,,,,,,1.0,0.7,0.7*2D

$GPRMC,141521.0,A,5133.477850,N,00957.642223,E,0.0,221.0,260619,0.1,W,A*1A

$PSTIS,*61

$GLGSV,3,1,10,70,47,098,22,86,55,307,29,77,26,320,21,76,30,257,27*63

$GLGSV,3,2,10,75,05,213,24,85,52,070,30,71,20,154,24,69,23,028,*6C

$GLGSV,3,3,10,84,01,091,,87,02,281,*67

$GPGSV,4,1,13,07,08,292,21,08,45,296,30,10,59,127,29,15,11,037,18*77

$GPGSV,4,2,13,16,36,192,34,18,18,254,22,20,52,075,27,21,27,073,19*79

$GPGSV,4,3,13,26,11,178,20,27,85,267,32,30,07,320,16,11,05,271,*7D

$GPGSV,4,4,13,13,02,008,*43

$GPGGA,141522.0,5133.477851,N,00957.642227,E,1,10,0.6,230.3,M,47.0,M,,*5B

$GNGNS,141522.0,5133.477851,N,00957.642227,E,AA,16,0.6,230.3,47.0,,*69

$GPVTG,221.0,T,221.1,M,0.0,N,0.0,K,A*22

$GPGSA,A,2,07,08,10,15,16,18,20,21,26,27,,,0.9,0.6,0.7*3F

$GNGSA,A,2,07,08,10,15,16,18,20,21,26,27,,,0.9,0.6,0.7*21

$GNGSA,A,2,70,86,76,75,85,71,,,,,,,0.9,0.6,0.7*24

$GPRMC,141522.0,A,5133.477851,N,00957.642227,E,0.0,221.0,260619,0.1,W,A*1C

$PSTIS,*61

$GLGSV,3,1,10,70,47,098,22,86,55,307,29,77,26,320,21,76,30,257,27*63

$GLGSV,3,2,10,75,05,213,24,85,52,070,30,71,20,154,24,69,23,028,*6C

$GLGSV,3,3,10,84,01,091,,87,02,281,*67

$GPGSV,4,1,13,07,08,292,21,08,45,296,30,10,59,127,29,15,11,037,18*77

$GPGSV,4,2,13,16,36,192,34,18,18,254,22,20,52,075,27,21,27,073,19*79

$GPGSV,4,3,13,26,11,178,20,27,85,267,32,30,07,320,16,11,05,271,*7D

$GPGSV,4,4,13,13,02,008,*43

$GPGGA,141522.0,5133.477851,N,00957.642227,E,1,10,0.6,230.3,M,47.0,M,,*5B

$GNGNS,141522.0,5133.477851,N,00957.642227,E,AA,16,0.6,230.3,47.0,,*69

$GPVTG,221.0,T,221.1,M,0.0,N,0.0,K,A*22

$GPGSA,A,2,07,08,10,15,16,18,20,21,26,27,,,0.9,0.6,0.7*3F

$GNGSA,A,2,07,08,10,15,16,18,20,21,26,27,,,0.9,0.6,0.7*21

$GNGSA,A,2,70,86,76,75,85,71,,,,,,,0.9,0.6,0.7*24

$GPRMC,141522.0,A,5133.477851,N,00957.642227,E,0.0,221.0,260619,0.1,W,A*1C

$PSTIS,*61

$GLGSV,3,1,10,70,47,098,21,86,55,307,28,77,26,320,21,76,30,257,27*61

$GLGSV,3,2,10,75,05,213,25,85,52,070,30,71,20,154,21,69,23,028,*68

$GLGSV,3,3,10,84,01,091,,87,02,281,*67

$GPGSV,4,1,13,07,08,292,23,08,45,296,31,10,59,127,29,15,11,037,18*74

$GPGSV,4,2,13,16,36,192,33,18,18,254,22,20,52,075,26,21,27,073,21*74

$GPGSV,4,3,13,26,11,178,18,27,85,267,31,30,07,320,18,11,05,271,*7B

$GPGSV,4,4,13,13,02,008,*43

$GPGGA,141523.0,5133.477851,N,00957.642230,E,1,09,0.7,230.3,M,47.0,M,,*55

$GNGNS,141523.0,5133.477851,N,00957.642230,E,AA,15,0.7,230.3,47.0,,*6C

$GPVTG,221.0,T,221.1,M,0.0,N,0.0,K,A*22

$GPGSA,A,2,07,08,10,16,18,20,21,26,27,,,,1.0,0.7,0.7*32

$GNGSA,A,2,07,08,10,16,18,20,21,26,27,,,,1.0,0.7,0.7*2C

$GNGSA,A,2,70,86,76,75,85,71,,,,,,,1.0,0.7,0.7*2D

$GPRMC,141523.0,A,5133.477851,N,00957.642230,E,0.0,221.0,260619,0.1,W,A*1B

$PSTIS,*61

$GLGSV,3,1,10,70,47,098,21,86,55,307,28,77,26,320,21,76,30,257,27*61

$GLGSV,3,2,10,75,05,213,25,85,52,070,30,71,20,154,21,69,23,028,*68

$GLGSV,3,3,10,84,01,091,,87,02,281,*67

$GPGSV,4,1,13,07,08,292,23,08,45,296,31,10,59,127,29,15,11,037,18*74

$GPGSV,4,2,13,16,36,192,33,18,18,254,22,20,52,075,26,21,27,073,21*74

$GPGSV,4,3,13,26,11,178,18,27,85,267,31,30,07,320,18,11,05,271,*7B

$GPGSV,4,4,13,13,02,008,*43

$GPGGA,141523.0,5133.477851,N,00957.642230,E,1,09,0.7,230.3,M,47.0,M,,*55

$GNGNS,141523.0,5133.477851,N,00957.642230,E,AA,15,0.7,230.3,47.0,,*6C

$GPVTG,221.0,T,221.1,M,0.0,N,0.0,K,A*22

$GPGSA,A,2,07,08,10,16,18,20,21,26,27,,,,1.0,0.7,0.7*32

$GNGSA,A,2,07,08,10,16,18,20,21,26,27,,,,1.0,0.7,0.7*2C

$GNGSA,A,2,70,86,76,75,85,71,,,,,,,1.0,0.7,0.7*2D

$GPRMC,141523.0,A,5133.477851,N,00957.642230,E,0.0,221.0,260619,0.1,W,A*1B

$PSTIS,*61

$GLGSV,3,1,10,70,47,098,22,86,55,307,29,77,26,320,21,76,30,257,27*63

$GLGSV,3,2,10,75,05,213,25,85,52,070,30,71,20,154,21,69,23,028,*68

$GLGSV,3,3,10,84,01,091,,87,02,281,*67

