$GPGSV,4,1,13,10,55,137,35,07,10,298,,08,39,295,,11,00,268,*79

$GPGSV,4,2,13,13,03,014,,15,12,043,,16,42,195,,18,13,250,*79

$GPGSV,4,3,13,20,54,085,,21,33,070,,26,17,180,,27,79,292,*7F

$GPGSV,4,4,13,30,07,326,*48

$GLGSV,3,1,09,71,14,156,30,70,43,108,,86,49,299,,77,23,327,*63

$GLGSV,3,2,09,76,35,264,,75,11,216,,69,28,033,,84,06,087,*6D

$GLGSV,3,3,09,85,57,061,*54

$GNGNS,140119.1,,,,,NN,,,,,,*40

$GPVTG,,T,,M,,N,,K,N*2C

$GPGSA,A,1,,,,,,,,,,,,,,,*1E

$GNGSA,A,1,,,,,,,,,,,,,,,*00

$GPGGA,,,,,,0,,,,,,,,*66

$GPRMC,,V,,,,,,,,,,N*53

$GPGSV,4,1,13,10,55,137,39,20,54,085,34,27,79,292,29,07,10,298,*75

$GPGSV,4,2,13,08,39,295,,11,00,268,,13,03,014,,15,12,043,*79

$GPGSV,4,3,13,16,42,195,,18,13,250,,21,33,070,,26,17,180,*73

$GPGSV,4,4,13,30,07,326,*48

$GLGSV,3,1,09,71,14,156,29,70,43,108,,86,49,299,,77,23,327,*6B

$GLGSV,3,2,09,76,35,264,,75,11,216,,69,28,033,,84,06,087,*6D

$GLGSV,3,3,09,85,57,061,*54

$GNGNS,140120.1,,,,,NN,,,,,,*4A

$GPVTG,,T,,M,,N,,K,N*2C

$GPGSA,A,1,,,,,,,,,,,,,,,*1E

$GNGSA,A,1,,,,,,,,,,,,,,,*00

$GPGGA,,,,,,0,,,,,,,,*66

$GPRMC,,V,,,,,,,,,,N*53

$GPGSV,4,1,13,07,10,298,22,08,39,295,23,10,55,137,38,16,42,195,29*7E

$GPGSV,4,2,13,18,13,250,31,20,54,085,35,27,79,292,29,11,00,268,*7E

$GPGSV,4,3,13,13,03,014,,15,12,043,,21,33,070,,26,17,180,*77

$GPGSV,4,4,13,30,07,326,*48

$GLGSV,3,1,09,70,43,108,28,86,49,299,25,76,35,264,27,75,11,216,30*6D

$GLGSV,3,2,09,85,57,061,34,71,14,156,27,77,23,327,,69,28,033,*64

$GLGSV,3,3,09,84,06,087,*59

$GPGGA,140119.7,5133.506430,N,00957.625376,E,1,07,1.1,230.6,M,47.0,M,,*5C

$GNGNS,140119.7,5133.506430,N,00957.625376,E,AA,11,1.1,230.6,47.0,,*6F

$GPVTG,2.7,T,2.7,M,0.0,N,0.0,K,A*23

$GPRMC,140119.7,A,5133.506430,N,00957.625376,E,0.0,2.7,260619,0.0,E,A*09

$GPGSA,A,2,07,08,10,16,18,20,27,,,,,,1.4,1.1,0.9*38

$GNGSA,A,2,07,08,10,16,18,20,27,,,,,,1.4,1.1,0.9*26

$GNGSA,A,2,86,76,75,85,,,,,,,,,1.4,1.1,0.9*21

$GPGSV,4,1,13,07,10,298,,08,39,295,,10,55,137,,11,01,268,*7E

$GPGSV,4,2,13,13,03,014,,15,12,043,,16,42,195,,18,13,250,*79

$GPGSV,4,3,13,20,54,085,,21,33,070,,26,17,180,,27,79,292,*7F

$GPGSV,4,4,13,30,07,326,*48

$GLGSV,3,1,09,85,57,061,33,71,14,156,28,70,43,108,,86,49,299,*65

$GLGSV,3,2,09,77,23,327,,76,35,264,,75,11,216,,69,28,033,*6F

$GLGSV,3,3,09,84,06,087,*59

$GNGNS,140124.1,,,,,NN,,,,,,*4E

$GPVTG,,T,,M,,N,,K,N*2C

$GPGSA,A,1,,,,,,,,,,,,,,,*1E

$GNGSA,A,1,,,,,,,,,,,,,,,*00

$GPGGA,,,,,,0,,,,,,,,*66

$GPRMC,,V,,,,,,,,,,N*53

$GPGSV,4,1,13,08,39,295,31,16,42,195,28,18,13,250,29,20,54,085,33*7F

$GPGSV,4,2,13,21,33,070,27,26,17,180,21,07,10,298,,10,55,137,*75

$GPGSV,4,3,13,11,01,268,,13,03,014,,15,12,043,,27,79,292,*77

$GPGSV,4,4,13,30,07,326,*48

$GLGSV,3,1,09,86,49,299,23,76,35,264,25,75,11,216,24,85,57,061,33*67

$GLGSV,3,2,09,71,14,156,28,70,43,108,,77,23,327,,69,28,033,*6D

$GLGSV,3,3,09,84,06,087,*59

$GNGNS,140123.7,,,,,NN,,,,,,*4F

$GPVTG,,T,,M,,N,,K,N*2C

$GPGSA,A,1,,,,,,,,,,,,,,,*1E

$GNGSA,A,1,,,,,,,,,,,,,,,*00

$GPGGA,,,,,,0,,,,,,,,*66

$GPRMC,,V,,,,,,,,,,N*53

$GPGSV,4,1,13,08,39,295,31,16,42,195,28,18,13,250,29,20,54,085,33*7F

$GPGSV,4,2,13,21,33,070,27,26,17,180,21,07,10,298,,10,55,137,*75

$GPGSV,4,3,13,11,01,268,,13,03,014,,15,12,043,,27,79,292,*77

$GPGSV,4,4,13,30,07,326,*48

$GLGSV,3,1,09,86,49,299,23,76,35,264,25,75,11,216,24,85,57,061,33*67

$GLGSV,3,2,09,71,14,156,28,70,43,108,,77,23,327,,69,28,033,*6D

$GLGSV,3,3,09,84,06,087,*59

$GNGNS,140125.1,,,,,NN,,,,,,*4F

$GPVTG,,T,,M,,N,,K,N*2C

$GPGSA,A,1,,,,,,,,,,,,,,,*1E

$GNGSA,A,1,,,,,,,,,,,,,,,*00

$GPGGA,,,,,,0,,,,,,,,*66

$GPRMC,,V,,,,,,,,,,N*53

$GPGSV,4,1,13,07,10,298,21,08,39,295,30,10,55,137,34,16,42,195,27*7D

$GPGSV,4,2,13,18,13,250,29,20,54,085,34,21,33,070,28,26,17,180,22*76

$GPGSV,4,3,13,11,01,268,,13,03,014,,15,12,043,,27,79,292,*77

$GPGSV,4,4,13,30,07,326,*48

$GLGSV,3,1,09,86,49,299,25,76,35,264,24,75,11,216,24,85,57,061,35*66

$GLGSV,3,2,09,71,14,156,30,70,43,108,,77,23,327,,69,28,033,*64

$GLGSV,3,3,09,84,06,087,*59

$GPGGA,140126.1,5133.508299,N,00957.622115,E,1,08,0.9,250.6,M,47.0,M,,*5D

$GNGNS,140126.1,5133.508299,N,00957.622115,E,AA,12,0.9,250.6,47.0,,*62

$GPVTG,313.8,T,313.8,M,1.9,N,3.5,K,A*2D

$GPRMC,140126.1,A,5133.508299,N,00957.622115,E,1.9,313.8,260619,0.0,E,A*0C

$GPGSA,A,2,07,08,10,16,18,20,21,26,,,,,1.3,0.9,0.9*34

$GNGSA,A,2,07,08,10,16,18,20,21,26,,,,,1.3,0.9,0.9*2A

$GNGSA,A,2,86,76,75,85,,,,,,,,,1.3,0.9,0.9*2F

$GPGSV,4,1,13,10,55,137,36,20,54,085,35,07,10,296,,08,39,295,*70

$GPGSV,4,2,13,11,01,268,,13,03,014,,15,12,043,,16,42,195,*78

$GPGSV,4,3,13,18,13,250,,21,32,070,,26,17,180,,27,79,292,*7C

$GPGSV,4,4,13,30,07,326,*48

$GLGSV,3,1,09,85,57,061,33,71,14,156,28,70,43,108,,86,49,299,*65

$GLGSV,3,2,09,77,23,327,,76,35,264,,75,11,216,,69,28,033,*6F

$GLGSV,3,3,09,84,06,087,*59

$GNGNS,140130.1,,,,,NN,,,,,,*4B

$GPVTG,,T,,M,,N,,K,N*2C

$GPGSA,A,1,,,,,,,,,,,,,,,*1E

$GNGSA,A,1,,,,,,,,,,,,,,,*00

$GPGGA,,,,,,0,,,,,,,,*66

$GPRMC,,V,,,,,,,,,,N*53

$GPGSV,4,1,13,08,39,295,28,10,55,137,37,18,13,250,30,20,54,085,35*7F

$GPGSV,4,2,13,21,32,070,29,07,10,296,,11,01,268,,13,03,014,*71

$GPGSV,4,3,13,15,12,043,,16,42,195,,26,17,180,,27,79,292,*79

$GPGSV,4,4,13,30,07,326,*48

$GLGSV,3,1,09,86,49,299,24,76,35,264,22,75,11,216,24,85,57,061,34*60

$GLGSV,3,2,09,71,14,156,26,70,43,108,,77,23,327,,69,28,033,*63

$GLGSV,3,3,09,84,06,087,*59

$GPGGA,140130.1,5133.509361,N,00957.616802,E,1,05,1.3,239.7,M,47.0,M,,*5D

$GNGNS,140130.1,5133.509361,N,00957.616802,E,AA,09,1.3,239.7,47.0,,*65

$GPVTG,188.3,T,188.3,M,3.6,N,6.6,K,A*26

$GPRMC,140130.1,A,5133.509361,N,00957.616802,E,3.6,188.3,260619,0.0,E,A*02

$GPGSA,A,2,08,10,18,20,21,,,,,,,,1.6,1.3,0.9*3E

$GNGSA,A,2,08,10,18,20,21,,,,,,,,1.6,1.3,0.9*20

$GNGSA,A,2,86,76,75,85,,,,,,,,,1.6,1.3,0.9*21

$GPGSV,4,1,13,10,55,137,36,20,54,085,36,07,10,296,,08,39,295,*73

$GPGSV,4,2,13,11,01,268,,13,03,012,,15,12,043,,16,42,195,*7E

$GPGSV,4,3,13,18,13,250,,21,32,070,,26,17,180,,27,79,292,*7C

$GPGSV,4,4,13,30,07,326,*48

$GLGSV,3,1,09,85,57,061,32,70,43,108,,86,49,299,,77,23,327,*68

$GLGSV,3,2,09,76,35,264,,75,11,216,,69,28,033,,84,06,087,*6D

$GLGSV,3,3,09,71,14,156,*5D

$GNGNS,140134.1,,,,,NN,,,,,,*4F

$GPVTG,,T,,M,,N,,K,N*2C

$GPGSA,A,1,,,,,,,,,,,,,,,*1E

$GNGSA,A,1,,,,,,,,,,,,,,,*00

$GPGGA,,,,,,0,,,,,,,,*66

$GPRMC,,V,,,,,,,,,,N*53

$GPGSV,4,1,13,07,10,296,23,10,55,137,34,16,42,195,30,18,13,250,28*7E

$GPGSV,4,2,13,20,54,085,33,21,32,070,28,08,39,295,,11,01,268,*7D

$GPGSV,4,3,13,13,03,012,,15,12,043,,26,17,180,,27,79,292,*77

$GPGSV,4,4,13,30,07,326,*48

$GLGSV,3,1,09,75,11,216,25,85,57,061,32,71,14,156,29,70,43,108,*64

$GLGSV,3,2,09,86,49,299,,77,23,327,,76,35,264,,69,28,033,*69

$GLGSV,3,3,09,84,06,087,*59

$GNGNS,140133.9,,,,,NN,,,,,,*40

$GPVTG,,T,,M,,N,,K,N*2C

$GPGSA,A,1,,,,,,,,,,,,,,,*1E

$GNGSA,A,1,,,,,,,,,,,,,,,*00

$GPGGA,,,,,,0,,,,,,,,*66

$GPRMC,,V,,,,,,,,,,N*53

$GPGSV,4,1,13,07,10,296,23,10,55,137,34,16,42,195,30,18,13,250,28*7E

$GPGSV,4,2,13,20,54,085,33,21,32,070,28,08,39,295,,11,01,268,*7D

$GPGSV,4,3,13,13,03,012,,15,12,043,,26,17,180,,27,79,292,*77

$GPGSV,4,4,13,30,07,326,*48

$GLGSV,3,1,09,75,11,216,25,85,57,061,32,71,14,156,29,70,43,108,*64

$GLGSV,3,2,09,86,49,299,,77,23,327,,76,35,264,,69,28,033,*69

$GLGSV,3,3,09,84,06,087,*59

$GNGNS,140135.1,,,,,NN,,,,,,*4E

$GPVTG,,T,,M,,N,,K,N*2C

$GPGSA,A,1,,,,,,,,,,,,,,,*1E

$GNGSA,A,1,,,,,,,,,,,,,,,*00

$GPGGA,,,,,,0,,,,,,,,*66

$GPRMC,,V,,,,,,,,,,N*53

$GPGSV,4,1,13,07,10,296,21,08,39,295,22,10,55,137,34,16,42,195,30*76

$GPGSV,4,2,13,18,13,250,28,20,54,085,34,21,32,070,27,11,01,268,*7F

$GPGSV,4,3,13,13,03,012,,15,12,043,,26,17,180,,27,79,292,*77

$GPGSV,4,4,13,30,07,326,*48

$GLGSV,3,1,09,70,43,108,22,86,49,299,24,76,35,264,23,75,11,216,26*65

$GLGSV,3,2,09,69,28,033,22,85,57,061,33,71,14,156,30,77,23,327,*65

$GLGSV,3,3,09,84,06,087,*59

$GPGGA,140136.1,5133.503519,N,00957.623881,E,1,07,0.9,248.3,M,47.0,M,,*5E

$GNGNS,140136.1,5133.503519,N,00957.623881,E,AA,12,0.9,248.3,47.0,,*6E

$GPVTG,188.3,T,188.3,M,0.0,N,0.0,K,A*23

$GPRMC,140136.1,A,5133.503519,N,00957.623881,E,0.0,188.3,260619,0.0,E,A*0F

$GPGSA,A,2,07,08,10,16,18,20,21,,,,,,1.3,0.9,0.9*30

$GNGSA,A,2,07,08,10,16,18,20,21,,,,,,1.3,0.9,0.9*2E

$GNGSA,A,2,86,76,75,69,85,,,,,,,,1.3,0.9,0.9*20

$GPGSV,4,1,13,10,55,137,33,07,10,296,,08,39,295,,11,01,268,*70

$GPGSV,4,2,13,13,03,012,,15,12,043,,16,42,195,,18,13,250,*7F

$GPGSV,4,3,13,20,54,085,,21,32,070,,26,17,180,,27,79,292,*7E

$GPGSV,4,4,13,30,07,326,*48

$GLGSV,3,1,09,70,43,108,,86,49,299,,77,23,327,,76,35,264,*66

$GLGSV,3,2,09,75,11,216,,69,28,033,,84,06,087,,85,56,061,*63

$GLGSV,3,3,09,71,14,156,*5D

$GNGNS,140140.1,,,,,NN,,,,,,*4C

$GPVTG,,T,,M,,N,,K,N*2C

$GPGSA,A,1,,,,,,,,,,,,,,,*1E

$GNGSA,A,1,,,,,,,,,,,,,,,*00

$GPGGA,,,,,,0,,,,,,,,*66

$GPRMC,,V,,,,,,,,,,N*53

$GPGSV,4,1,13,08,39,295,24,10,55,137,31,16,42,195,31,20,54,085,27*77

$GPGSV,4,2,13,27,79,292,25,07,10,296,,11,01,268,,13,03,012,*7C

$GPGSV,4,3,13,15,12,043,,18,13,250,,21,32,070,,26,17,180,*7E

$GPGSV,4,4,13,30,07,326,*48

$GLGSV,3,1,09,75,11,216,25,71,14,156,21,70,43,108,,86,49,299,*64

$GLGSV,3,2,09,77,23,327,,76,35,264,,69,28,033,,84,06,087,*6D

$GLGSV,3,3,09,85,56,061,*55

$GNGNS,140140.3,,,,,NN,,,,,,*4E

$GPVTG,,T,,M,,N,,K,N*2C

$GPGSA,A,1,,,,,,,,,,,,,,,*1E

$GNGSA,A,1,,,,,,,,,,,,,,,*00

$GPGGA,,,,,,0,,,,,,,,*66

$GPRMC,,V,,,,,,,,,,N*53

$GPGSV,4,1,13,08,39,295,24,10,55,137,31,16,42,195,31,20,54,085,27*77

$GPGSV,4,2,13,27,79,292,25,07,10,296,,11,01,268,,13,03,012,*7C

$GPGSV,4,3,13,15,12,043,,18,13,250,,21,32,070,,26,17,180,*7E

$GPGSV,4,4,13,30,07,326,*48

$GLGSV,3,1,09,75,11,216,25,71,14,156,21,70,43,108,,86,49,299,*64

$GLGSV,3,2,09,77,23,327,,76,35,264,,69,28,033,,84,06,087,*6D

$GLGSV,3,3,09,85,56,061,*55

$GNGNS,140141.1,,,,,NN,,,,,,*4D

$GPVTG,,T,,M,,N,,K,N*2C

$GPGSA,A,1,,,,,,,,,,,,,,,*1E

$GNGSA,A,1,,,,,,,,,,,,,,,*00

$GPGGA,,,,,,0,,,,,,,,*66

$GPRMC,,V,,,,,,,,,,N*53

$GPGSV,4,1,13,07,10,296,27,08,39,295,23,10,55,137,32,16,42,195,33*74

$GPGSV,4,2,13,18,13,250,25,20,54,085,26,21,32,070,22,26,17,180,20*70

$GPGSV,4,3,13,27,79,292,31,11,01,268,,13,03,012,,15,12,043,*73

$GPGSV,4,4,13,30,07,326,*48

$GLGSV,3,1,09,70,43,108,21,75,11,216,30,85,56,061,25,71,14,156,22*6F

$GLGSV,3,2,09,86,49,299,,77,23,327,,76,35,264,,69,28,033,*69

$GLGSV,3,3,09,84,06,087,*59

$GPGGA,140142.1,5133.506481,N,00957.630053,E,1,09,1.0,234.8,M,47.0,M,,*5B

$GNGNS,140142.1,5133.506481,N,00957.630053,E,AA,11,1.0,234.8,47.0,,*66

$GPVTG,34.4,T,34.4,M,0.5,N,1.0,K,A*27

$GPRMC,140142.1,A,5133.506481,N,00957.630053,E,0.5,34.4,260619,0.0,E,A*38

$GPGSA,A,2,07,08,10,16,18,20,21,26,27,,,,1.3,1.0,0.9*39

$GNGSA,A,2,07,08,10,16,18,20,21,26,27,,,,1.3,1.0,0.9*27

$GNGSA,A,2,75,85,,,,,,,,,,,1.3,1.0,0.9*28

$GPGSV,4,1,13,16,42,195,34,07,10,296,,08,39,295,,10,55,137,*76

$GPGSV,4,2,13,11,01,268,,13,03,012,,15,12,043,,18,13,250,*7E

$GPGSV,4,3,13,20,54,085,,21,32,070,,26,17,180,,27,79,292,*7E

$GPGSV,4,4,13,30,07,326,*48

$GLGSV,3,1,09,85,56,061,30,70,43,108,,86,49,299,,77,23,327,*6B

$GLGSV,3,2,09,76,35,264,,75,11,216,,69,28,033,,84,06,087,*6D

$GLGSV,3,3,09,71,14,156,*5D

$GNGNS,140145.1,,,,,NN,,,,,,*49

$GPVTG,,T,,M,,N,,K,N*2C

$GPGSA,A,1,,,,,,,,,,,,,,,*1E

$GNGSA,A,1,,,,,,,,,,,,,,,*00

$GPGGA,,,,,,0,,,,,,,,*66

$GPRMC,,V,,,,,,,,,,N*53

$GPGSV,4,1,13,07,10,296,29,10,55,137,35,16,42,195,33,08,39,295,*7C

$GPGSV,4,2,13,11,01,268,,13,03,012,,15,12,043,,18,13,250,*7E

$GPGSV,4,3,13,20,54,085,,21,32,070,,26,17,180,,27,79,292,*7E

$GPGSV,4,4,13,30,07,326,*48

$GLGSV,3,1,09,86,49,299,21,75,11,216,22,85,56,061,31,71,14,156,21*62

$GLGSV,3,2,09,70,43,108,,77,23,327,,76,35,264,,69,28,033,*61

$GLGSV,3,3,09,84,06,087,*59

$GNGNS,140145.4,,,,,NN,,,,,,*4C

$GPVTG,,T,,M,,N,,K,N*2C

$GPGSA,A,1,,,,,,,,,,,,,,,*1E

$GNGSA,A,1,,,,,,,,,,,,,,,*00

$GPRMC,,V,,,,,,,,,,N*53

$GPGSV,4,1,13,07,10,296,29,10,55,137,35,16,42,195,33,08,39,295,*7C

$GPGSV,4,2,13,11,01,268,,13,03,012,,15,12,043,,18,13,250,*7E

$GPGSV,4,3,13,20,54,085,,21,32,070,,26,17,180,,27,79,292,*7E

$GPGSV,4,4,13,30,07,326,*48

$GLGSV,3,1,09,86,49,299,21,75,11,216,22,85,56,061,31,71,14,156,21*62

$GLGSV,3,2,09,70,43,108,,77,23,327,,76,35,264,,69,28,033,*61

$GLGSV,3,3,09,84,06,087,*59

$GNGNS,140146.1,,,,,NN,,,,,,*4A

$GPVTG,,T,,M,,N,,K,N*2C

$GPGSA,A,1,,,,,,,,,,,,,,,*1E

$GNGSA,A,1,,,,,,,,,,,,,,,*00

$GPGGA,,,,,,0,,,,,,,,*66

$GPRMC,,V,,,,,,,,,,N*53

$GPGSV,4,1,13,07,10,296,27,08,39,295,27,10,55,137,34,16,42,195,30*75

$GPGSV,4,2,13,18,13,250,24,20,54,085,20,27,79,292,24,11,01,268,*72

$GPGSV,4,3,13,13,03,012,,15,12,043,,21,32,070,,26,17,180,*70

$GPGSV,4,4,13,30,07,326,*48

$GLGSV,3,1,09,86,49,299,24,76,35,264,20,75,11,216,25,69,28,033,20*6B

$GLGSV,3,2,09,85,56,061,31,71,14,156,21,70,43,108,,77,23,327,*6A

$GLGSV,3,3,09,84,06,087,*59

$GPGGA,140147.1,5133.507823,N,00957.624670,E,1,07,0.9,244.1,M,47.0,M,,*51

$GNGNS,140147.1,5133.507823,N,00957.624670,E,AA,12,0.9,244.1,47.0,,*61

$GPVTG,33.8,T,33.8,M,0.0,N,0.0,K,A*23

$GPRMC,140147.1,A,5133.507823,N,00957.624670,E,0.0,33.8,260619,0.0,E,A*34

$GPGSA,A,2,07,08,10,16,18,20,27,,,,,,1.3,0.9,0.8*37

$GNGSA,A,2,07,08,10,16,18,20,27,,,,,,1.3,0.9,0.8*29

$GNGSA,A,2,86,76,75,69,85,,,,,,,,1.3,0.9,0.8*21

$GPGSV,4,1,13,07,10,296,,08,39,295,,10,55,137,,11,01,268,*70

$GPGSV,4,2,13,13,03,012,,15,12,043,,16,42,195,,18,13,250,*7F

$GPGSV,4,3,13,20,54,084,,21,32,070,,26,17,180,,27,79,292,*7F

$GPGSV,4,4,13,30,07,326,*48

$GLGSV,3,1,09,85,56,061,32,70,43,108,,86,49,299,,77,23,327,*69

$GLGSV,3,2,09,76,35,264,,75,11,216,,69,28,033,,84,06,087,*6D

$GLGSV,3,3,09,71,14,156,*5D

$GNGNS,140150.1,,,,,NN,,,,,,*4D

$GPVTG,,T,,M,,N,,K,N*2C

$GPGSA,A,1,,,,,,,,,,,,,,,*1E

$GNGSA,A,1,,,,,,,,,,,,,,,*00

$GPGGA,,,,,,0,,,,,,,,*66

$GPRMC,,V,,,,,,,,,,N*53

$GPGSV,4,1,13,10,55,137,36,16,42,195,25,18,13,250,24,20,54,084,28*7B

$GPGSV,4,2,13,07,10,296,,08,39,295,,11,01,268,,13,03,012,*75

$GPGSV,4,3,13,15,12,043,,21,32,070,,26,17,180,,27,79,292,*70

$GPGSV,4,4,13,30,07,326,*48

$GLGSV,3,1,09,86,49,299,26,85,56,061,32,71,14,156,23,70,43,108,*6A

$GLGSV,3,2,09,77,23,327,,76,35,264,,75,11,216,,69,28,033,*6F

$GLGSV,3,3,09,84,06,087,*59

$GNGNS,140150.5,,,,,NN,,,,,,*49

$GPVTG,,T,,M,,N,,K,N*2C

$GPGSA,A,1,,,,,,,,,,,,,,,*1E

$GNGSA,A,1,,,,,,,,,,,,,,,*00

$GPGGA,,,,,,0,,,,,,,,*66

$GPRMC,,V,,,,,,,,,,N*53

$GPGSV,4,1,13,10,55,137,36,16,42,195,25,18,13,250,24,20,54,084,28*7B

$GPGSV,4,2,13,07,10,296,,08,39,295,,11,01,268,,13,03,012,*75

$GPGSV,4,3,13,15,12,043,,21,32,070,,26,17,180,,27,79,292,*70

$GPGSV,4,4,13,30,07,326,*48

$GLGSV,3,1,09,86,49,299,26,85,56,061,32,71,14,156,23,70,43,108,*6A

$GLGSV,3,2,09,77,23,327,,76,35,264,,75,11,216,,69,28,033,*6F

$GLGSV,3,3,09,84,06,087,*59

$GNGNS,140151.1,,,,,NN,,,,,,*4C

$GPVTG,,T,,M,,N,,K,N*2C

$GPGSA,A,1,,,,,,,,,,,,,,,*1E

$GNGSA,A,1,,,,,,,,,,,,,,,*00

$GPGGA,,,,,,0,,,,,,,,*66

$GPRMC,,V,,,,,,,,,,N*53

$GPGSV,4,1,13,07,10,296,20,10,55,137,35,16,42,195,28,18,13,250,24*79

$GPGSV,4,2,13,20,54,084,29,27,79,292,26,08,39,295,,11,01,268,*7E

$GPGSV,4,3,13,13,03,012,,15,12,043,,21,32,070,,26,17,180,*70

$GPGSV,4,4,13,30,07,326,*48

$GLGSV,3,1,09,70,43,108,19,86,49,299,26,76,35,264,21,75,11,216,19*61

$GLGSV,3,2,09,69,28,033,23,85,56,061,32,71,14,156,23,77,23,327,*66

$GLGSV,3,3,09,84,06,087,*59

$GPGGA,140152.1,5133.501547,N,00957.632170,E,1,06,1.0,219.2,M,47.0,M,,*5E

$GNGNS,140152.1,5133.501547,N,00957.632170,E,AA,11,1.0,219.2,47.0,,*6C

$GPVTG,175.6,T,175.6,M,1.3,N,2.4,K,A*27

$GPRMC,140152.1,A,5133.501547,N,00957.632170,E,1.3,175.6,260619,0.0,E,A*06

$GPGSA,A,2,07,10,16,18,20,27,,,,,,,1.3,1.0,0.8*37

$GNGSA,A,2,07,10,16,18,20,27,,,,,,,1.3,1.0,0.8*29

$GNGSA,A,2,86,76,75,69,85,,,,,,,,1.3,1.0,0.8*29

$GPGSV,4,1,13,10,55,137,37,07,10,296,,08,39,295,,11,01,268,*74

$GPGSV,4,2,13,13,03,012,,15,12,043,,16,42,195,,18,13,250,*7F

$GPGSV,4,3,13,20,54,084,,21,32,070,,26,17,180,,27,79,292,*7F

$GPGSV,4,4,13,30,07,326,*48

$GLGSV,3,1,09,70,43,106,,86,49,299,,77,23,327,,76,35,264,*68

$GLGSV,3,2,09,75,11,216,,69,28,033,,84,06,087,,85,56,061,*63

$GLGSV,3,3,09,71,14,156,*5D

$GNGNS,140156.1,,,,,NN,,,,,,*4B

$GPVTG,,T,,M,,N,,K,N*2C

$GPGSA,A,1,,,,,,,,,,,,,,,*1E

$GNGSA,A,1,,,,,,,,,,,,,,,*00

$GPGGA,,,,,,0,,,,,,,,*66

$GPRMC,,V,,,,,,,,,,N*53

$GPGSV,4,1,13,10,55,137,36,16,42,195,32,20,54,084,25,27,79,292,36*7D

$GPGSV,4,2,13,07,10,296,,08,39,295,,11,01,268,,13,03,012,*75

$GPGSV,4,3,13,15,12,043,,18,13,250,,21,32,070,,26,17,180,*7E

$GPGSV,4,4,13,30,07,326,*48

$GLGSV,3,1,09,86,49,299,24,85,56,061,27,70,43,106,,77,23,327,*65

$GLGSV,3,2,09,76,35,264,,75,11,216,,69,28,033,,84,06,087,*6D

$GLGSV,3,3,09,71,14,156,*5D

$GNGNS,140155.6,,,,,NN,,,,,,*4F

$GPVTG,,T,,M,,N,,K,N*2C

$GPGSA,A,1,,,,,,,,,,,,,,,*1E

$GNGSA,A,1,,,,,,,,,,,,,,,*00

$GPGGA,,,,,,0,,,,,,,,*66

$GPRMC,,V,,,,,,,,,,N*53

$GPGSV,4,1,13,10,55,137,36,16,42,195,32,20,54,084,25,27,79,292,36*7D

$GPGSV,4,2,13,07,10,296,,08,39,295,,11,01,268,,13,03,012,*75

$GPGSV,4,3,13,15,12,043,,18,13,250,,21,32,070,,26,17,180,*7E

$GPGSV,4,4,13,30,07,326,*48

$GLGSV,3,1,09,86,49,299,24,85,56,061,27,70,43,106,,77,23,327,*65

$GLGSV,3,2,09,76,35,264,,75,11,216,,69,28,033,,84,06,087,*6D

$GLGSV,3,3,09,71,14,156,*5D

$GNGNS,140157.1,,,,,NN,,,,,,*4A

$GPVTG,,T,,M,,N,,K,N*2C

$GPGSA,A,1,,,,,,,,,,,,,,,*1E

$GNGSA,A,1,,,,,,,,,,,,,,,*00

$GPGGA,,,,,,0,,,,,,,,*66

$GPRMC,,V,,,,,,,,,,N*53

$GPGSV,4,1,13,07,10,296,26,10,55,137,33,16,42,195,29,18,13,250,30*7D

$GPGSV,4,2,13,20,54,084,25,21,32,070,23,26,17,180,23,27,79,292,34*7E

$GPGSV,4,3,13,08,39,295,,11,01,268,,13,03,012,,15,12,043,*7F

$GPGSV,4,4,13,30,07,326,*48

$GLGSV,3,1,09,70,43,106,24,86,49,299,28,75,11,216,21,85,56,061,29*62

$GLGSV,3,2,09,71,14,156,20,77,23,327,,76,35,264,,69,28,033,*6B

$GLGSV,3,3,09,84,06,087,*59

$GPGGA,140158.1,5133.513406,N,00957.636429,E,1,08,1.0,195.0,M,47.0,M,,*55

$GNGNS,140158.1,5133.513406,N,00957.636429,E,AA,11,1.0,195.0,47.0,,*69

$GPVTG,117.6,T,117.6,M,0.4,N,0.7,K,A*20

$GPRMC,140158.1,A,5133.513406,N,00957.636429,E,0.4,117.6,260619,0.0,E,A*04

$GPGSA,A,2,07,10,16,18,20,21,26,27,,,,,1.3,1.0,0.9*31

$GNGSA,A,2,07,10,16,18,20,21,26,27,,,,,1.3,1.0,0.9*2F

$GNGSA,A,2,86,75,85,,,,,,,,,,1.3,1.0,0.9*26

$GPGSV,4,1,13,07,10,296,,08,39,295,,10,55,137,,11,01,268,*70

$GPGSV,4,2,13,13,03,012,,15,12,043,,16,42,195,,18,13,250,*7F

$GPGSV,4,3,13,20,54,084,,21,32,070,,26,17,180,,27,79,292,*7F

$GPGSV,4,4,13,30,07,326,*48

$GLGSV,3,1,09,70,43,106,,86,49,299,,77,23,327,,76,35,264,*68

$GLGSV,3,2,09,75,11,216,,69,28,033,,84,06,087,,85,56,061,*63

$GLGSV,3,3,09,71,14,156,*5D

$GNGNS,140202.1,,,,,NN,,,,,,*49

$GPVTG,,T,,M,,N,,K,N*2C

$GPGSA,A,1,,,,,,,,,,,,,,,*1E

$GNGSA,A,1,,,,,,,,,,,,,,,*00

$GPGGA,,,,,,0,,,,,,,,*66

$GPRMC,,V,,,,,,,,,,N*53

$GPGSV,4,1,13,10,55,137,36,16,42,195,30,21,32,070,23,07,10,296,*7F

$GPGSV,4,2,13,08,39,295,,11,01,268,,13,03,012,,15,12,043,*7E

$GPGSV,4,3,13,18,13,250,,20,54,084,,26,17,180,,27,79,292,*76

$GPGSV,4,4,13,30,07,326,*48

$GLGSV,3,1,09,85,56,061,30,71,14,156,25,70,43,106,,86,49,299,*64

$GLGSV,3,2,09,77,23,327,,76,35,264,,75,11,216,,69,28,033,*6F

$GLGSV,3,3,09,84,06,087,*59

$GNGNS,140202.1,,,,,NN,,,,,,*49

$GPVTG,,T,,M,,N,,K,N*2C

$GPGSA,A,1,,,,,,,,,,,,,,,*1E

$GNGSA,A,1,,,,,,,,,,,,,,,*00

$GPGGA,,,,,,0,,,,,,,,*66

$GPRMC,,V,,,,,,,,,,N*53

$GPGSV,4,1,13,10,55,137,36,16,42,195,30,21,32,070,23,07,10,296,*7F

$GPGSV,4,2,13,08,39,295,,11,01,268,,13,03,012,,15,12,043,*7E

$GPGSV,4,3,13,18,13,250,,20,54,084,,26,17,180,,27,79,292,*76

$GPGSV,4,4,13,30,07,326,*48

$GLGSV,3,1,09,85,56,061,30,71,14,156,25,70,43,106,,86,49,299,*64

$GLGSV,3,2,09,77,23,327,,76,35,264,,75,11,216,,69,28,033,*6F

$GLGSV,3,3,09,84,06,087,*59

$GNGNS,140203.1,,,,,NN,,,,,,*48

$GPVTG,,T,,M,,N,,K,N*2C

$GPGSA,A,1,,,,,,,,,,,,,,,*1E

$GNGSA,A,1,,,,,,,,,,,,,,,*00

$GPGGA,,,,,,0,,,,,,,,*66

$GPRMC,,V,,,,,,,,,,N*53

$GPGSV,4,1,13,10,55,137,36,16,42,195,32,18,13,250,23,20,54,084,26*74

$GPGSV,4,2,13,21,32,070,22,27,79,292,35,07,10,296,,08,39,295,*7B

$GPGSV,4,3,13,11,01,268,,13,03,012,,15,12,043,,26,17,180,*78

$GPGSV,4,4,13,30,07,326,*48

$GLGSV,3,1,09,70,43,106,24,86,49,299,27,76,35,264,26,75,11,216,31*6D

$GLGSV,3,2,09,69,28,033,22,85,56,061,31,71,14,156,27,77,23,327,*60

$GLGSV,3,3,09,84,06,087,*59

$GPGGA,140204.1,5133.496374,N,00957.626978,E,1,06,1.4,242.9,M,47.0,M,,*53

$GNGNS,140204.1,5133.496374,N,00957.626978,E,AA,11,1.4,242.9,47.0,,*61

$GPVTG,304.9,T,304.9,M,0.8,N,1.4,K,A*2E

$GPRMC,140204.1,A,5133.496374,N,00957.626978,E,0.8,304.9,260619,0.0,E,A*0B

$GPGSA,A,2,10,16,18,20,21,27,,,,,,,1.6,1.4,0.8*32

$GNGSA,A,2,10,16,18,20,21,27,,,,,,,1.6,1.4,0.8*2C

$GNGSA,A,2,86,76,75,69,85,,,,,,,,1.6,1.4,0.8*28

$GPGSV,4,1,13,08,39,295,34,10,55,137,36,16,42,195,35,20,54,084,33*71

$GPGSV,4,2,13,27,79,292,38,07,10,296,,11,01,268,,13,03,012,*70

$GPGSV,4,3,13,15,12,043,,18,13,250,,21,32,070,,26,17,180,*7E

$GPGSV,4,4,13,30,07,326,*48

$GLGSV,3,1,09,76,35,262,30,75,11,216,30,70,43,106,,86,49,299,*6E

$GLGSV,3,2,09,77,23,327,,69,27,033,,84,06,087,,85,56,061,*6C

$GLGSV,3,3,09,71,14,156,*5D

$GNGNS,140207.1,,,,,NN,,,,,,*4C

$GPVTG,,T,,M,,N,,K,N*2C

$GPGSA,A,1,,,,,,,,,,,,,,,*1E

$GNGSA,A,1,,,,,,,,,,,,,,,*00

$GPGGA,,,,,,0,,,,,,,,*66

$GPRMC,,V,,,,,,,,,,N*53

$GPGSV,4,1,13,07,10,296,26,08,39,295,33,10,55,137,37,16,42,195,36*74

$GPGSV,4,2,13,18,13,250,31,20,54,084,30,27,79,292,38,11,01,268,*7B

$GPGSV,4,3,13,13,03,012,,15,12,043,,21,32,070,,26,17,180,*70

$GPGSV,4,4,13,30,07,326,*48

$GLGSV,3,1,09,70,43,106,23,76,35,262,30,75,11,216,32,85,56,061,32*64

$GLGSV,3,2,09,71,14,156,29,86,49,299,,77,23,327,,69,27,033,*6B

$GLGSV,3,3,09,84,06,087,*59

$GPGGA,140207.3,5133.496745,N,00957.619576,E,1,07,1.1,251.2,M,47.0,M,,*57

$GNGNS,140207.3,5133.496745,N,00957.619576,E,AA,10,1.1,251.2,47.0,,*65

$GPVTG,304.9,T,304.9,M,0.7,N,1.3,K,A*26

$GPRMC,140207.3,A,5133.496745,N,00957.619576,E,0.7,304.9,260619,0.0,E,A*0D

$GPGSA,A,2,07,08,10,16,18,20,27,,,,,,1.4,1.1,0.9*38

$GNGSA,A,2,07,08,10,16,18,20,27,,,,,,1.4,1.1,0.9*26

$GNGSA,A,2,76,75,85,,,,,,,,,,1.4,1.1,0.9*2F

$GPGSV,4,1,13,10,55,137,38,16,42,195,38,27,79,292,40,07,10,296,*7B

$GPGSV,4,2,13,08,39,295,,11,01,268,,13,03,012,,15,12,043,*7E

$GPGSV,4,3,13,18,13,250,,20,54,084,,21,32,070,,26,17,180,*71

$GPGSV,4,4,13,30,07,326,*48

$GLGSV,3,1,09,75,11,216,30,70,43,106,,86,49,299,,77,23,327,*6B

$GLGSV,3,2,09,76,35,262,,69,27,033,,84,06,087,,85,56,061,*6A

$GLGSV,3,3,09,71,14,156,*5D

$GNGNS,140211.1,,,,,NN,,,,,,*4B

$GPVTG,,T,,M,,N,,K,N*2C

$GPGSA,A,1,,,,,,,,,,,,,,,*1E

$GNGSA,A,1,,,,,,,,,,,,,,,*00

$GPGGA,,,,,,0,,,,,,,,*66

$GPRMC,,V,,,,,,,,,,N*53

$GPGSV,4,1,13,08,39,295,32,10,55,137,38,16,42,195,38,20,54,084,33*74

$GPGSV,4,2,13,27,79,292,40,07,10,296,,11,01,268,,13,03,012,*7F

$GPGSV,4,3,13,15,12,043,,18,13,250,,21,32,070,,26,17,180,*7E

$GPGSV,4,4,13,30,07,326,*48

$GLGSV,3,1,09,76,35,262,23,75,11,216,31,85,56,061,28,71,14,156,26*6D

$GLGSV,3,2,09,70,43,106,,86,49,299,,77,23,327,,69,27,033,*66

$GLGSV,3,3,09,84,06,087,*59

$GNGNS,140211.0,,,,,NN,,,,,,*4A

$GPVTG,,T,,M,,N,,K,N*2C

$GPGSA,A,1,,,,,,,,,,,,,,,*1E

$GNGSA,A,1,,,,,,,,,,,,,,,*00

$GPGGA,,,,,,0,,,,,,,,*66

$GPRMC,,V,,,,,,,,,,N*53

$GPGSV,4,1,13,08,39,295,32,10,55,137,38,16,42,195,38,20,54,084,33*74

$GPGSV,4,2,13,27,79,292,40,07,10,296,,11,01,268,,13,03,012,*7F

$GPGSV,4,3,13,15,12,043,,18,13,250,,21,32,070,,26,17,180,*7E

$GPGSV,4,4,13,30,07,326,*48

$GLGSV,3,1,09,76,35,262,23,75,11,216,31,85,56,061,28,71,14,156,26*6D

$GLGSV,3,2,09,70,43,106,,86,49,299,,77,23,327,,69,27,033,*66

$GLGSV,3,3,09,84,06,087,*59

$GNGNS,140212.1,,,,,NN,,,,,,*48

$GPVTG,,T,,M,,N,,K,N*2C

$GPGSA,A,1,,,,,,,,,,,,,,,*1E

$GNGSA,A,1,,,,,,,,,,,,,,,*00

$GPGGA,,,,,,0,,,,,,,,*66

$GPRMC,,V,,,,,,,,,,N*53

$GPGSV,4,1,13,07,10,296,25,08,39,295,32,10,55,137,38,16,42,195,34*7B

$GPGSV,4,2,13,18,13,250,30,20,54,084,31,27,79,292,40,11,01,268,*74

$GPGSV,4,3,13,13,03,012,,15,12,043,,21,32,070,,26,17,180,*70

$GPGSV,4,4,13,30,07,326,*48

$GLGSV,3,1,09,70,43,106,22,77,23,327,18,76,35,262,31,75,11,216,33*63

$GLGSV,3,2,09,85,56,061,32,71,14,156,28,86,49,299,,69,27,033,*65

$GLGSV,3,3,09,84,06,087,*59

$GPGGA,140213.1,5133.502963,N,00957.621667,E,1,06,1.1,237.8,M,47.0,M,,*55

$GNGNS,140213.1,5133.502963,N,00957.621667,E,AA,10,1.1,237.8,47.0,,*66

$GPVTG,338.3,T,338.3,M,1.5,N,2.8,K,A*2D

$GPRMC,140213.1,A,5133.502963,N,00957.621667,E,1.5,338.3,260619,0.0,E,A*02

$GPGSA,A,2,07,08,16,18,20,27,,,,,,,1.4,1.1,0.9*39

$GNGSA,A,2,07,08,16,18,20,27,,,,,,,1.4,1.1,0.9*27

$GNGSA,A,2,77,76,75,85,,,,,,,,,1.4,1.1,0.9*2F

$GPGSV,4,1,13,10,55,137,35,16,42,195,34,27,79,292,37,07,10,296,*7A

$GPGSV,4,2,13,08,39,295,,11,01,268,,13,03,012,,15,12,043,*7E

$GPGSV,4,3,13,18,13,250,,20,54,084,,21,32,070,,26,17,180,*71

$GPGSV,4,4,13,30,07,326,*48

$GLGSV,3,1,09,76,35,262,30,75,11,216,31,71,14,156,29,70,43,106,*64

$GLGSV,3,2,09,86,49,299,,77,23,327,,69,27,033,,84,06,087,*64

$GLGSV,3,3,09,85,56,061,*55

$GNGNS,140217.1,,,,,NN,,,,,,*4D

$GPVTG,,T,,M,,N,,K,N*2C

$GPGSA,A,1,,,,,,,,,,,,,,,*1E

$GNGSA,A,1,,,,,,,,,,,,,,,*00

$GPGGA,,,,,,0,,,,,,,,*66

$GPRMC,,V,,,,,,,,,,N*53

$GPGSV,4,1,13,07,10,296,31,08,39,295,32,10,55,137,38,16,42,195,39*73

$GPGSV,4,2,13,18,13,250,31,20,54,084,33,26,17,180,28,27,79,292,41*7A

$GPGSV,4,3,13,11,01,268,,13,03,012,,15,12,043,,21,32,070,*76

$GPGSV,4,4,13,30,07,326,*48

$GLGSV,3,1,09,70,43,106,24,76,35,262,31,75,11,216,32,85,56,061,33*63

$GLGSV,3,2,09,71,14,156,31,86,49,299,,77,23,327,,69,27,033,*62

$GLGSV,3,3,09,84,06,087,*59

$GPGGA,140216.8,5133.500060,N,00957.620435,E,1,08,1.0,240.8,M,47.0,M,,*5A

$GNGNS,140216.8,5133.500060,N,00957.620435,E,AA,11,1.0,240.8,47.0,,*66

$GPVTG,338.3,T,338.3,M,1.0,N,1.8,K,A*2B

$GPRMC,140216.8,A,5133.500060,N,00957.620435,E,1.0,338.3,260619,0.0,E,A*07

$GPGSA,A,2,07,08,10,16,18,20,26,27,,,,,1.4,1.0,0.9*3D

$GNGSA,A,2,07,08,10,16,18,20,26,27,,,,,1.4,1.0,0.9*23

$GNGSA,A,2,76,75,85,,,,,,,,,,1.4,1.0,0.9*2E

$GPGSV,4,1,13,08,39,295,35,10,55,137,41,16,42,195,39,26,17,180,36*7D

$GPGSV,4,2,13,07,10,296,,11,01,268,,13,03,012,,15,12,043,*79

$GPGSV,4,3,13,18,13,250,,20,54,084,,21,32,070,,27,79,292,*78

$GPGSV,4,4,13,30,07,326,*48

$GLGSV,3,1,09,70,43,106,25,76,35,262,30,75,11,216,29,85,56,061,34*6E

$GLGSV,3,2,09,71,14,156,28,86,50,299,,77,23,327,,69,27,033,*62

$GLGSV,3,3,09,84,06,087,*59

$GNGNS,140219.6,,,,,NN,,,,,,*44

$GPVTG,,T,,M,,N,,K,N*2C

$GPGSA,A,1,,,,,,,,,,,,,,,*1E

$GNGSA,A,1,,,,,,,,,,,,,,,*00

$GPGGA,,,,,,0,,,,,,,,*66

$GPRMC,,V,,,,,,,,,,N*53

$GPGSV,4,1,13,08,39,295,35,10,55,137,41,16,42,195,39,26,17,180,36*7D

$GPGSV,4,2,13,07,10,296,,11,01,268,,13,03,012,,15,12,043,*79

$GPGSV,4,3,13,18,13,250,,20,54,084,,21,32,070,,27,79,292,*78

$GPGSV,4,4,13,30,07,326,*48

$GLGSV,3,1,09,70,43,106,25,76,35,262,30,75,11,216,29,85,56,061,34*6E

$GLGSV,3,2,09,71,14,156,28,86,50,299,,77,23,327,,69,27,033,*62

$GLGSV,3,3,09,84,06,087,*59

$GNGNS,140221.1,,,,,NN,,,,,,*48

$GPVTG,,T,,M,,N,,K,N*2C

$GPGSA,A,1,,,,,,,,,,,,,,,*1E

$GNGSA,A,1,,,,,,,,,,,,,,,*00

$GPGGA,,,,,,0,,,,,,,,*66

$GPRMC,,V,,,,,,,,,,N*53

$GPGSV,4,1,13,07,10,296,36,08,39,295,33,10,55,137,38,16,42,195,37*7B

$GPGSV,4,2,13,18,13,250,31,20,54,084,27,21,32,070,26,26,17,180,34*74

$GPGSV,4,3,13,27,79,292,39,11,01,268,,13,03,012,,15,12,043,*7B

$GPGSV,4,4,13,30,07,326,*48

$GLGSV,3,1,09,70,43,106,27,76,35,262,32,75,11,216,31,69,27,033,21*60

$GLGSV,3,2,09,85,56,061,35,71,14,156,32,86,50,299,,77,23,327,*6C

$GLGSV,3,3,09,84,06,087,*59

$GPGGA,140222.1,5133.499543,N,00957.619423,E,1,09,0.9,242.4,M,47.0,M,,*5B

$GNGNS,140222.1,5133.499543,N,00957.619423,E,AA,13,0.9,242.4,47.0,,*64

$GPVTG,70.3,T,70.3,M,1.0,N,1.9,K,A*2A

$GPRMC,140222.1,A,5133.499543,N,00957.619423,E,1.0,70.3,260619,0.0,E,A*3E

$GPGSA,A,2,07,08,10,16,18,20,21,26,27,,,,1.2,0.9,0.8*31

$GNGSA,A,2,07,08,10,16,18,20,21,26,27,,,,1.2,0.9,0.8*2F

$GNGSA,A,2,76,75,69,85,,,,,,,,,1.2,0.9,0.8*2E

$GPGSV,4,1,13,07,10,296,35,08,39,295,32,10,55,137,41,26,17,180,34*73

$GPGSV,4,2,13,27,79,292,39,11,01,268,,13,03,012,,15,12,043,*7A

$GPGSV,4,3,13,16,42,195,,18,13,250,,20,54,084,,21,32,070,*76

$GPGSV,4,4,13,30,07,326,*48

$GLGSV,3,1,09,76,35,262,32,85,56,061,32,71,14,156,31,70,43,106,*62

$GLGSV,3,2,09,86,50,299,,77,24,327,,75,11,216,,69,27,033,*69

$GLGSV,3,3,09,84,06,087,*59

$GNGNS,140225.1,,,,,NN,,,,,,*4C

$GPVTG,,T,,M,,N,,K,N*2C

$GPGSA,A,1,,,,,,,,,,,,,,,*1E

$GNGSA,A,1,,,,,,,,,,,,,,,*00

$GPGGA,,,,,,0,,,,,,,,*66

$GPRMC,,V,,,,,,,,,,N*53

$GPGSV,4,1,13,07,10,296,34,08,39,295,31,10,55,137,40,16,42,195,36*75

$GPGSV,4,2,13,18,13,250,33,26,17,180,33,27,79,292,37,11,01,268,*71

$GPGSV,4,3,13,13,03,012,,15,12,043,,20,54,084,,21,32,070,*74

$GPGSV,4,4,13,30,07,326,*48

$GLGSV,3,1,09,70,43,106,22,76,35,262,30,75,11,216,28,69,27,033,21*6F

$GLGSV,3,2,09,85,56,061,34,71,14,156,31,86,50,299,,77,24,327,*69

$GLGSV,3,3,09,84,06,087,*59

$GPGGA,140225.3,5133.499456,N,00957.615572,E,1,07,1.0,254.2,M,47.0,M,,*55

$GNGNS,140225.3,5133.499456,N,00957.615572,E,AA,11,1.0,254.2,47.0,,*66

$GPVTG,70.3,T,70.3,M,0.5,N,0.9,K,A*2F

$GPRMC,140225.3,A,5133.499456,N,00957.615572,E,0.5,70.3,260619,0.0,E,A*33

$GPGSA,A,2,07,08,10,16,18,26,27,,,,,,1.3,1.0,0.8*39

$GNGSA,A,2,07,08,10,16,18,26,27,,,,,,1.3,1.0,0.8*27

$GNGSA,A,2,76,75,69,85,,,,,,,,,1.3,1.0,0.8*27

$GPGSV,4,1,13,07,10,296,34,10,55,136,40,16,42,195,35,27,79,292,39*71

$GPGSV,4,2,13,08,39,295,,11,01,268,,13,03,012,,15,12,043,*7E

$GPGSV,4,3,13,18,13,250,,20,54,084,,21,32,070,,26,17,180,*71

$GPGSV,4,4,13,30,07,326,*48

$GLGSV,3,1,09,76,35,262,33,85,56,061,34,70,43,106,,86,50,299,*6F

$GLGSV,3,2,09,77,24,327,,75,11,216,,69,27,033,,84,06,087,*65

$GLGSV,3,3,09,71,14,156,*5D

$GNGNS,140229.1,,,,,NN,,,,,,*40

$GPVTG,,T,,M,,N,,K,N*2C

$GPGSA,A,1,,,,,,,,,,,,,,,*1E

$GNGSA,A,1,,,,,,,,,,,,,,,*00

$GPGGA,,,,,,0,,,,,,,,*66

$GPRMC,,V,,,,,,,,,,N*53

$GPGSV,4,1,13,07,10,296,34,10,55,136,41,16,42,195,36,18,13,250,34*70

$GPGSV,4,2,13,21,32,070,30,27,79,292,41,08,39,295,,11,01,268,*7D

$GPGSV,4,3,13,13,03,012,,15,12,043,,20,54,084,,26,17,180,*7A

$GPGSV,4,4,13,30,07,326,*48

$GLGSV,3,1,09,70,43,106,24,76,35,262,32,75,11,216,23,85,56,061,33*60

$GLGSV,3,2,09,71,14,156,33,86,50,299,,77,24,327,,69,27,033,*6F

$GLGSV,3,3,09,84,06,087,*59

$GNGNS,140228.9,,,,,NN,,,,,,*49

$GPVTG,,T,,M,,N,,K,N*2C

$GPGSA,A,1,,,,,,,,,,,,,,,*1E

$GNGSA,A,1,,,,,,,,,,,,,,,*00

$GPGGA,,,,,,0,,,,,,,,*66

$GPRMC,,V,,,,,,,,,,N*53

$GPGSV,4,1,13,07,10,296,34,10,55,136,41,16,42,195,36,18,13,250,34*70

$GPGSV,4,2,13,21,32,070,30,27,79,292,41,08,39,295,,11,01,268,*7D

$GPGSV,4,3,13,13,03,012,,15,12,043,,20,54,084,,26,17,180,*7A

$GPGSV,4,4,13,30,07,326,*48

$GLGSV,3,1,09,70,43,106,24,76,35,262,32,75,11,216,23,85,56,061,33*60

$GLGSV,3,2,09,71,14,156,33,86,50,299,,77,24,327,,69,27,033,*6F

$GLGSV,3,3,09,84,06,087,*59

$GNGNS,140230.1,,,,,NN,,,,,,*48

$GPVTG,,T,,M,,N,,K,N*2C

$GPGSA,A,1,,,,,,,,,,,,,,,*1E

$GNGSA,A,1,,,,,,,,,,,,,,,*00

$GPGGA,,,,,,0,,,,,,,,*66

$GPRMC,,V,,,,,,,,,,N*53

$GPGSV,4,1,13,07,10,296,32,08,39,295,34,10,55,136,39,16,42,195,35*7A

$GPGSV,4,2,13,18,13,250,33,20,54,084,26,21,32,070,28,26,17,180,31*7C

$GPGSV,4,3,13,27,79,292,39,11,01,268,,13,03,012,,15,12,043,*7B

$GPGSV,4,4,13,30,07,326,*48

$GLGSV,3,1,09,70,43,106,28,77,24,327,21,76,35,262,31,75,11,216,29*6F

$GLGSV,3,2,09,85,56,061,33,71,14,156,31,86,50,299,,69,27,033,*64

$GLGSV,3,3,09,84,06,087,*59

$GPGGA,140231.1,5133.499101,N,00957.612458,E,1,09,0.9,274.3,M,47.0,M,,*5E

$GNGNS,140231.1,5133.499101,N,00957.612458,E,AA,13,0.9,274.3,47.0,,*61

$GPVTG,70.3,T,70.3,M,0.0,N,0.0,K,A*23

$GPRMC,140231.1,A,5133.499101,N,00957.612458,E,0.0,70.3,260619,0.0,E,A*38

$GPGSA,A,2,07,08,10,16,18,20,21,26,27,,,,1.2,0.9,0.8*31

$GNGSA,A,2,07,08,10,16,18,20,21,26,27,,,,1.2,0.9,0.8*2F

$GNGSA,A,2,77,76,75,85,,,,,,,,,1.2,0.9,0.8*21

$GPGSV,4,1,13,10,55,136,40,16,42,195,37,07,10,296,,08,39,295,*70

$GPGSV,4,2,13,11,01,268,,13,03,012,,15,12,043,,18,13,251,*7F

$GPGSV,4,3,13,20,54,084,,21,32,070,,26,17,180,,27,79,292,*7F

$GPGSV,4,4,13,30,07,326,*48

$GLGSV,3,1,09,85,56,061,31,70,43,106,,86,50,299,,77,24,327,*6B

$GLGSV,3,2,09,76,35,262,,75,11,216,,69,27,033,,84,05,087,*67

$GLGSV,3,3,09,71,14,156,*5D

$GNGNS,140235.1,,,,,NN,,,,,,*4D

$GPVTG,,T,,M,,N,,K,N*2C

$GPGSA,A,1,,,,,,,,,,,,,,,*1E

$GNGSA,A,1,,,,,,,,,,,,,,,*00

$GPGGA,,,,,,0,,,,,,,,*66

$GPRMC,,V,,,,,,,,,,N*53

$GPGSV,4,1,13,07,10,296,34,10,55,136,42,16,42,195,38,27,79,292,39*7E

$GPGSV,4,2,13,08,39,295,,11,01,268,,13,03,012,,15,12,043,*7E

$GPGSV,4,3,13,18,13,251,,20,54,084,,21,32,070,,26,17,180,*70

$GPGSV,4,4,13,30,07,326,*48

$GLGSV,3,1,09,70,43,106,21,76,35,262,29,75,11,216,29,85,56,061,33*65

$GLGSV,3,2,09,71,14,156,32,86,50,299,,77,24,327,,69,27,033,*6E

$GLGSV,3,3,09,84,05,087,*5A

$GNGNS,140234.7,,,,,NN,,,,,,*4A

$GPVTG,,T,,M,,N,,K,N*2C

$GPGSA,A,1,,,,,,,,,,,,,,,*1E

$GNGSA,A,1,,,,,,,,,,,,,,,*00

$GPGGA,,,,,,0,,,,,,,,*66

$GPRMC,,V,,,,,,,,,,N*53

$GPGSV,4,1,13,07,10,296,34,10,55,136,42,16,42,195,38,27,79,292,39*7E

$GPGSV,4,2,13,08,39,295,,11,01,268,,13,03,012,,15,12,043,*7E

$GPGSV,4,3,13,18,13,251,,20,54,084,,21,32,070,,26,17,180,*70

$GPGSV,4,4,13,30,07,326,*48

$GLGSV,3,1,09,70,43,106,21,76,35,262,29,75,11,216,29,85,56,061,33*65

$GLGSV,3,2,09,71,14,156,32,86,50,299,,77,24,327,,69,27,033,*6E

$GLGSV,3,3,09,84,05,087,*5A

$GPGGA,140236.1,5133.498655,N,00957.616949,E,1,04,1.5,240.7,M,47.0,M,,*54

$GNGNS,140236.1,5133.498655,N,00957.616949,E,AA,07,1.5,240.7,47.0,,*63

$GPVTG,70.3,T,70.3,M,0.4,N,0.7,K,A*20

$GPRMC,140236.1,A,5133.498655,N,00957.616949,E,0.4,70.3,260619,0.0,E,A*35

$GPGSA,A,2,07,10,16,27,,,,,,,,,1.7,1.5,0.9*3C

$GNGSA,A,2,07,10,16,27,,,,,,,,,1.7,1.5,0.9*22

$GNGSA,A,2,76,75,85,,,,,,,,,,1.7,1.5,0.9*28

$GPGSV,4,1,13,10,55,136,40,16,42,195,36,07,10,296,,08,39,295,*71

$GPGSV,4,2,13,11,01,268,,13,03,012,,15,12,043,,18,13,251,*7F

$GPGSV,4,3,13,20,54,084,,21,32,070,,26,17,180,,27,79,292,*7F

$GPGSV,4,4,13,30,07,326,*48

$GLGSV,3,1,09,75,11,216,26,71,14,156,31,70,43,106,,86,50,299,*60

$GLGSV,3,2,09,77,24,327,,76,35,262,,69,27,033,,84,05,087,*60

$GLGSV,3,3,09,85,56,061,*55

$GNGNS,140240.1,,,,,NN,,,,,,*4F

$GPVTG,,T,,M,,N,,K,N*2C

$GPGSA,A,1,,,,,,,,,,,,,,,*1E

$GNGSA,A,1,,,,,,,,,,,,,,,*00

$GPGGA,,,,,,0,,,,,,,,*66

$GPRMC,,V,,,,,,,,,,N*53

$GPGSV,4,1,13,08,39,295,34,10,55,136,40,16,42,195,36,18,13,251,33*70

$GPGSV,4,2,13,26,17,180,32,27,79,292,40,07,10,296,,11,01,268,*77

$GPGSV,4,3,13,13,03,012,,15,12,043,,20,54,084,,21,32,070,*74

$GPGSV,4,4,13,30,07,326,*48

$GLGSV,3,1,09,70,43,106,23,76,35,262,30,75,11,216,23,85,56,061,31*67

$GLGSV,3,2,09,71,14,156,35,86,50,299,,77,24,327,,69,27,033,*69

$GLGSV,3,3,09,84,05,087,*5A

$GPGGA,140239.8,5133.496497,N,00957.616257,E,1,06,1.5,242.7,M,47.0,M,,*54

$GNGNS,140239.8,5133.496497,N,00957.616257,E,AA,09,1.5,242.7,47.0,,*6F

$GPVTG,70.3,T,70.3,M,0.9,N,1.7,K,A*2C

$GPRMC,140239.8,A,5133.496497,N,00957.616257,E,0.9,70.3,260619,0.0,E,A*38

$GPGSA,A,2,08,10,16,18,26,27,,,,,,,1.8,1.5,0.9*31

$GNGSA,A,2,08,10,16,18,26,27,,,,,,,1.8,1.5,0.9*2F

$GNGSA,A,2,76,75,85,,,,,,,,,,1.8,1.5,0.9*27

$GPGSV,4,1,13,10,55,136,41,16,42,195,34,27,80,292,39,07,10,296,*70

$GPGSV,4,2,13,08,39,295,,11,01,268,,13,03,012,,15,12,043,*7E

$GPGSV,4,3,13,18,13,251,,20,54,084,,21,32,070,,26,17,180,*70

$GPGSV,4,4,13,30,07,326,*48

$GLGSV,3,1,09,85,56,061,34,71,14,156,32,70,43,106,,86,50,299,*6E

$GLGSV,3,2,09,77,24,327,,76,35,262,,75,11,216,,69,27,033,*61

$GLGSV,3,3,09,84,05,087,*5A

$GNGNS,140244.1,,,,,NN,,,,,,*4B

$GPVTG,,T,,M,,N,,K,N*2C

$GPGSA,A,1,,,,,,,,,,,,,,,*1E

$GNGSA,A,1,,,,,,,,,,,,,,,*00

$GPGGA,,,,,,0,,,,,,,,*66

$GPRMC,,V,,,,,,,,,,N*53

$GPGSV,4,1,13,07,10,296,36,10,55,136,42,16,42,195,35,18,13,251,33*74

$GPGSV,4,2,13,26,17,180,34,27,80,292,42,08,39,295,,11,01,268,*72

$GPGSV,4,3,13,13,03,012,,15,12,043,,20,54,084,,21,32,070,*74

$GPGSV,4,4,13,30,07,326,*48

$GLGSV,3,1,09,75,11,216,24,85,56,061,35,71,14,156,32,70,43,106,*67

$GLGSV,3,2,09,86,50,299,,77,24,327,,76,35,262,,69,27,033,*6F

$GLGSV,3,3,09,84,05,087,*5A

$GPGGA,140243.6,5133.502592,N,00957.628125,E,1,06,1.2,231.2,M,47.0,M,,*52

$GNGNS,140243.6,5133.502592,N,00957.628125,E,AA,08,1.2,231.2,47.0,,*68

$GPVTG,70.3,T,70.3,M,1.1,N,2.0,K,A*21

$GPRMC,140243.6,A,5133.502592,N,00957.628125,E,1.1,70.3,260619,0.0,E,A*31

$GPGSA,A,2,07,10,16,18,26,27,,,,,,,1.5,1.2,0.9*34

$GNGSA,A,2,07,10,16,18,26,27,,,,,,,1.5,1.2,0.9*2A

$GNGSA,A,2,75,85,,,,,,,,,,,1.5,1.2,0.9*2C

$GPGSV,4,1,13,07,10,296,37,10,55,136,42,20,54,084,35,27,80,292,41*7A

$GPGSV,4,2,13,08,39,295,,11,01,268,,13,03,012,,15,12,043,*7E

$GPGSV,4,3,13,16,42,195,,18,13,251,,21,32,070,,26,16,180,*72

$GPGSV,4,4,13,30,07,326,*48

$GLGSV,3,1,09,85,56,061,35,71,14,156,33,70,43,106,,86,50,299,*6E

$GLGSV,3,2,09,77,24,327,,76,35,262,,75,11,216,,69,27,033,*61

$GLGSV,3,3,09,84,05,087,*5A

$GNGNS,140247.1,,,,,NN,,,,,,*48

$GPVTG,,T,,M,,N,,K,N*2C

$GPGSA,A,1,,,,,,,,,,,,,,,*1E

$GNGSA,A,1,,,,,,,,,,,,,,,*00

$GPGGA,,,,,,0,,,,,,,,*66

$GPRMC,,V,,,,,,,,,,N*53

$GPGSV,4,1,13,07,10,296,36,08,39,295,35,10,55,136,42,16,42,195,32*74

$GPGSV,4,2,13,20,54,084,33,21,32,070,33,26,16,180,35,27,80,292,41*7A

$GPGSV,4,3,13,11,01,268,,13,03,012,,15,12,043,,18,13,251,*7E

$GPGSV,4,4,13,30,07,326,*48

$GLGSV,3,1,09,76,35,262,30,85,56,061,33,71,14,156,32,70,43,106,*62

$GLGSV,3,2,09,86,50,299,,77,24,327,,75,11,216,,69,27,033,*69

$GLGSV,3,3,09,84,05,087,*5A

$GPGGA,140247.4,5133.501942,N,00957.621353,E,1,08,1.0,248.4,M,47.0,M,,*58

$GNGNS,140247.4,5133.501942,N,00957.621353,E,AA,10,1.0,248.4,47.0,,*65

$GPVTG,70.3,T,70.3,M,1.0,N,1.9,K,A*2A

$GPRMC,140247.4,A,5133.501942,N,00957.621353,E,1.0,70.3,260619,0.0,E,A*3E

$GPGSA,A,2,07,08,10,16,20,21,26,27,,,,,1.4,1.0,0.9*37

$GNGSA,A,2,07,08,10,16,20,21,26,27,,,,,1.4,1.0,0.9*29

$GNGSA,A,2,76,85,,,,,,,,,,,1.4,1.0,0.9*2C

$GPGSV,4,1,13,07,10,296,36,08,39,295,35,10,55,136,42,16,42,195,32*74

$GPGSV,4,2,13,20,54,084,33,21,32,070,33,26,16,180,35,27,80,292,41*7A

$GPGSV,4,3,13,11,01,268,,13,03,012,,15,12,043,,18,13,251,*7E

$GPGSV,4,4,13,30,07,326,*48

$GLGSV,3,1,09,76,35,262,30,85,56,061,33,71,14,156,32,70,43,106,*62

$GLGSV,3,2,09,86,50,299,,77,24,327,,75,11,216,,69,27,033,*69

$GLGSV,3,3,09,84,05,087,*5A

$GPGGA,140248.1,5133.501790,N,00957.621139,E,1,08,1.0,248.5,M,47.0,M,,*5C

$GNGNS,140248.1,5133.501790,N,00957.621139,E,AA,10,1.0,248.5,47.0,,*61

$GPVTG,70.3,T,70.3,M,1.0,N,1.9,K,A*2A

$GPRMC,140248.1,A,5133.501790,N,00957.621139,E,1.0,70.3,260619,0.0,E,A*3B

$GPGSA,A,2,07,08,10,16,20,21,26,27,,,,,1.4,1.0,0.9*37

$GNGSA,A,2,07,08,10,16,20,21,26,27,,,,,1.4,1.0,0.9*29

$GNGSA,A,2,76,85,,,,,,,,,,,1.4,1.0,0.9*2C

$GPGSV,4,1,13,07,10,296,37,10,55,136,42,26,16,180,35,27,80,292,41*7F

$GPGSV,4,2,13,08,39,295,,11,01,268,,13,03,012,,15,12,043,*7E

$GPGSV,4,3,13,16,42,195,,18,13,251,,20,54,084,,21,32,070,*77

$GPGSV,4,4,13,30,07,326,*48

$GLGSV,3,1,09,76,35,262,33,75,11,216,28,71,14,156,33,70,43,106,*64

$GLGSV,3,2,09,86,50,299,,77,24,327,,69,27,033,,84,05,087,*68

$GLGSV,3,3,09,85,56,061,*55

$GNGNS,140250.3,,,,,NN,,,,,,*4C

$GPVTG,,T,,M,,N,,K,N*2C

$GPGSA,A,1,,,,,,,,,,,,,,,*1E

$GNGSA,A,1,,,,,,,,,,,,,,,*00

$GPGGA,,,,,,0,,,,,,,,*66

$GPRMC,,V,,,,,,,,,,N*53

$GPGSV,4,1,13,07,10,296,37,10,55,136,42,26,16,180,35,27,80,292,41*7F

$GPGSV,4,2,13,08,39,295,,11,01,268,,13,03,012,,15,12,043,*7E

$GPGSV,4,3,13,16,42,195,,18,13,251,,20,54,084,,21,32,070,*77

$GPGSV,4,4,13,30,07,326,*48

$GLGSV,3,1,09,76,35,262,33,75,11,216,28,71,14,156,33,70,43,106,*64

$GLGSV,3,2,09,86,50,299,,77,24,327,,69,27,033,,84,05,087,*68

$GLGSV,3,3,09,85,56,061,*55

$GNGNS,140251.1,,,,,NN,,,,,,*4F

$GPVTG,,T,,M,,N,,K,N*2C

$GPGSA,A,1,,,,,,,,,,,,,,,*1E

$GNGSA,A,1,,,,,,,,,,,,,,,*00

$GPGGA,,,,,,0,,,,,,,,*66

$GPRMC,,V,,,,,,,,,,N*53

$GPGSV,4,1,13,07,10,296,35,08,39,295,36,10,55,136,41,16,42,195,34*71

$GPGSV,4,2,13,20,54,084,30,21,32,070,32,26,16,180,32,27,80,292,41*7F

$GPGSV,4,3,13,11,01,268,,13,03,012,,15,12,043,,18,13,251,*7E

$GPGSV,4,4,13,30,07,326,*48

$GLGSV,3,1,09,77,24,327,21,76,35,262,32,75,11,216,29,85,56,061,35*6E

$GLGSV,3,2,09,71,14,156,32,70,43,106,,86,50,299,,69,27,033,*69

$GLGSV,3,3,09,84,05,087,*5A

$GPGGA,140252.1,5133.501091,N,00957.624708,E,1,08,1.0,246.7,M,47.0,M,,*5C

$GNGNS,140252.1,5133.501091,N,00957.624708,E,AA,12,1.0,246.7,47.0,,*63

$GPVTG,195.9,T,195.9,M,0.8,N,1.5,K,A*2F

$GPRMC,140252.1,A,5133.501091,N,00957.624708,E,0.8,195.9,260619,0.0,E,A*0E

$GPGSA,A,2,07,08,10,16,20,21,26,27,,,,,1.3,1.0,0.9*30

$GNGSA,A,2,07,08,10,16,20,21,26,27,,,,,1.3,1.0,0.9*2E

$GNGSA,A,2,77,76,75,85,,,,,,,,,1.3,1.0,0.9*29

$GPGSV,4,1,13,10,55,136,42,16,42,195,34,21,32,070,33,27,80,292,40*73

$GPGSV,4,2,13,07,10,296,,08,39,295,,11,01,268,,13,03,012,*75

$GPGSV,4,3,13,15,12,043,,18,13,251,,20,54,084,,26,16,180,*74

$GPGSV,4,4,13,30,07,326,*48

$GLGSV,3,1,09,76,35,262,33,85,56,061,35,71,14,156,33,70,43,106,*66

$GLGSV,3,2,09,86,50,299,,77,24,327,,75,11,216,,69,27,033,*69

$GLGSV,3,3,09,84,05,087,*5A

$GNGNS,140254.2,,,,,NN,,,,,,*49

$GPVTG,,T,,M,,N,,K,N*2C

$GPGSA,A,1,,,,,,,,,,,,,,,*1E

$GNGSA,A,1,,,,,,,,,,,,,,,*00

$GPGGA,,,,,,0,,,,,,,,*66

$GPRMC,,V,,,,,,,,,,N*53

$GPGSV,4,1,13,10,55,136,42,16,42,195,34,21,32,070,33,27,80,292,40*73

$GPGSV,4,2,13,07,10,296,,08,39,295,,11,01,268,,13,03,012,*75

$GPGSV,4,3,13,15,12,043,,18,13,251,,20,54,084,,26,16,180,*74

$GPGSV,4,4,13,30,07,326,*48

$GLGSV,3,1,09,76,35,262,33,85,56,061,35,71,14,156,33,70,43,106,*66

$GLGSV,3,2,09,86,50,299,,77,24,327,,75,11,216,,69,27,033,*69

$GLGSV,3,3,09,84,05,087,*5A

$GNGNS,140255.1,,,,,NN,,,,,,*4B

$GPVTG,,T,,M,,N,,K,N*2C

$GPGSA,A,1,,,,,,,,,,,,,,,*1E

$GNGSA,A,1,,,,,,,,,,,,,,,*00

$GPGGA,,,,,,0,,,,,,,,*66

$GPRMC,,V,,,,,,,,,,N*53

$GPGSV,4,1,13,07,10,296,36,08,39,295,33,10,55,136,41,16,42,195,34*77

$GPGSV,4,2,13,18,13,251,32,20,54,084,29,21,32,070,33,26,16,180,34*7D

$GPGSV,4,3,13,27,80,292,40,11,01,268,,13,03,012,,15,12,043,*73

$GPGSV,4,4,13,30,07,326,*48

$GLGSV,3,1,09,76,35,262,34,75,11,216,29,85,56,061,35,71,14,156,33*6A

$GLGSV,3,2,09,70,43,106,,86,50,299,,77,24,327,,69,27,033,*69

$GLGSV,3,3,09,84,05,087,*5A

$GPGGA,140256.1,5133.500090,N,00957.620615,E,1,09,0.9,260.5,M,47.0,M,,*5E

$GNGNS,140256.1,5133.500090,N,00957.620615,E,AA,12,0.9,260.5,47.0,,*60

$GPVTG,99.0,T,99.0,M,0.0,N,0.0,K,A*23

$GPRMC,140256.1,A,5133.500090,N,00957.620615,E,0.0,99.0,260619,0.0,E,A*3F

$GPGSA,A,2,07,08,10,16,18,20,21,26,27,,,,1.3,0.9,0.8*30

$GNGSA,A,2,07,08,10,16,18,20,21,26,27,,,,1.3,0.9,0.8*2E

$GNGSA,A,2,76,75,85,,,,,,,,,,1.3,0.9,0.8*20

$GPGSV,4,1,13,07,10,296,35,10,55,136,39,16,41,195,35,27,80,292,41*74

$GPGSV,4,2,13,08,39,295,,11,01,268,,13,03,012,,15,12,043,*7E

$GPGSV,4,3,13,18,13,251,,20,54,084,,21,32,070,,26,16,180,*71

$GPGSV,4,4,13,30,07,326,*48

$GLGSV,3,1,09,76,35,262,31,75,11,216,29,85,56,061,31,71,14,156,31*69

$GLGSV,3,2,09,70,43,106,,86,50,299,,77,24,327,,69,27,033,*69

$GLGSV,3,3,09,84,05,087,*5A

$GNGNS,140258.6,,,,,NN,,,,,,*41

$GPVTG,,T,,M,,N,,K,N*2C

$GPGSA,A,1,,,,,,,,,,,,,,,*1E

$GNGSA,A,1,,,,,,,,,,,,,,,*00

$GPGGA,,,,,,0,,,,,,,,*66

$GPRMC,,V,,,,,,,,,,N*53

$GPGSV,4,1,13,07,10,296,35,10,55,136,39,16,41,195,35,27,80,292,41*74

$GPGSV,4,2,13,08,39,295,,11,01,268,,13,03,012,,15,12,043,*7E

$GPGSV,4,3,13,18,13,251,,20,54,084,,21,32,070,,26,16,180,*71

$GPGSV,4,4,13,30,07,326,*48

$GLGSV,3,1,09,76,35,262,31,75,11,216,29,85,56,061,31,71,14,156,31*69

$GLGSV,3,2,09,70,43,106,,86,50,299,,77,24,327,,69,27,033,*69

$GLGSV,3,3,09,84,05,087,*5A

$GNGNS,140300.1,,,,,NN,,,,,,*4A

$GPVTG,,T,,M,,N,,K,N*2C

$GPGSA,A,1,,,,,,,,,,,,,,,*1E

$GNGSA,A,1,,,,,,,,,,,,,,,*00

$GPGGA,,,,,,0,,,,,,,,*66

$GPRMC,,V,,,,,,,,,,N*53

$GPGSV,4,1,13,07,10,296,36,10,55,136,40,16,41,195,34,18,13,251,32*75

$GPGSV,4,2,13,21,32,070,32,26,16,180,32,27,80,292,41,08,39,295,*7F

$GPGSV,4,3,13,11,01,268,,13,03,012,,15,12,043,,20,54,084,*7C

$GPGSV,4,4,13,30,07,326,*48

$GLGSV,3,1,09,70,43,106,26,86,50,299,28,77,24,327,22,76,35,262,33*6F

$GLGSV,3,2,09,75,11,216,30,85,56,061,33,71,14,156,32,69,27,033,*6A

$GLGSV,3,3,09,84,05,087,*5A

$GPGGA,140301.1,5133.501007,N,00957.624521,E,1,07,0.9,234.1,M,47.0,M,,*59

$GNGNS,140301.1,5133.501007,N,00957.624521,E,AA,12,0.9,234.1,47.0,,*69

$GPVTG,110.0,T,110.0,M,1.5,N,2.7,K,A*22

$GPRMC,140301.1,A,5133.501007,N,00957.624521,E,1.5,110.0,260619,0.0,E,A*07

$GPGSA,A,2,07,10,16,18,21,26,27,,,,,,1.3,0.9,0.8*3A

$GNGSA,A,2,07,10,16,18,21,26,27,,,,,,1.3,0.9,0.8*24

$GNGSA,A,2,86,77,76,75,85,,,,,,,,1.3,0.9,0.8*2E

$GPGSV,4,1,13,10,55,136,40,21,32,070,34,27,80,292,42,07,10,296,*74

$GPGSV,4,2,13,08,40,295,,11,01,268,,13,03,012,,15,12,043,*70

$GPGSV,4,3,13,16,41,195,,18,13,251,,20,54,084,,26,16,180,*7B

$GPGSV,4,4,13,30,07,326,*48

$GLGSV,3,1,09,76,35,262,33,85,56,063,33,71,14,156,34,70,43,106,*65

$GLGSV,3,2,09,86,50,299,,77,24,327,,75,11,216,,69,27,033,*69

$GLGSV,3,3,09,84,05,087,*5A

$GNGNS,140303.7,,,,,NN,,,,,,*4F

$GPVTG,,T,,M,,N,,K,N*2C

$GPGSA,A,1,,,,,,,,,,,,,,,*1E

$GNGSA,A,1,,,,,,,,,,,,,,,*00

$GPGGA,,,,,,0,,,,,,,,*66

$GPRMC,,V,,,,,,,,,,N*53

$GPGSV,4,1,13,10,55,136,40,21,32,070,34,27,80,292,42,07,10,296,*74

$GPGSV,4,2,13,08,40,295,,11,01,268,,13,03,012,,15,12,043,*70

$GPGSV,4,3,13,16,41,195,,18,13,251,,20,54,084,,26,16,180,*7B

$GPGSV,4,4,13,30,07,326,*48

$GLGSV,3,1,09,76,35,262,33,85,56,063,33,71,14,156,34,70,43,106,*65

$GLGSV,3,2,09,86,50,299,,77,24,327,,75,11,216,,69,27,033,*69

$GLGSV,3,3,09,84,05,087,*5A

$GNGNS,140305.1,,,,,NN,,,,,,*4F

$GPVTG,,T,,M,,N,,K,N*2C

$GPGSA,A,1,,,,,,,,,,,,,,,*1E

$GNGSA,A,1,,,,,,,,,,,,,,,*00

$GPGGA,,,,,,0,,,,,,,,*66

$GPRMC,,V,,,,,,,,,,N*53

$GPGSV,4,1,13,07,10,296,34,10,55,136,40,16,41,195,34,18,13,251,32*77

$GPGSV,4,2,13,21,32,070,32,26,16,180,34,27,80,292,39,08,40,295,*78

$GPGSV,4,3,13,11,01,268,,13,03,012,,15,12,043,,20,54,084,*7C

$GPGSV,4,4,13,30,07,326,*48

$GLGSV,3,1,09,86,50,299,25,76,35,262,33,75,11,216,28,85,56,063,35*61

$GLGSV,3,2,09,71,14,156,34,70,43,106,,77,24,327,,69,27,033,*66

$GLGSV,3,3,09,84,05,087,*5A

$GPGGA,140306.1,5133.506639,N,00957.632002,E,1,07,1.0,199.2,M,47.0,M,,*5E

$GNGNS,140306.1,5133.506639,N,00957.632002,E,AA,11,1.0,199.2,47.0,,*6D

$GPVTG,110.0,T,110.0,M,0.0,N,0.0,K,A*23

$GPRMC,140306.1,A,5133.506639,N,00957.632002,E,0.0,110.0,260619,0.0,E,A*0B

$GPGSA,A,2,07,10,16,18,21,26,27,,,,,,1.3,1.0,0.8*32

$GNGSA,A,2,07,10,16,18,21,26,27,,,,,,1.3,1.0,0.8*2C

$GNGSA,A,2,86,76,75,85,,,,,,,,,1.3,1.0,0.8*26

$GPGSV,4,1,13,07,10,296,35,10,55,136,40,21,32,070,31,27,80,291,40*76

$GPGSV,4,2,13,08,40,295,,11,01,268,,13,03,012,,15,12,043,*70

$GPGSV,4,3,13,16,41,195,,18,13,251,,20,54,084,,26,16,180,*7B

$GPGSV,4,4,13,30,07,326,*48

$GLGSV,3,1,09,76,35,262,29,70,44,106,,86,50,299,,77,24,327,*6D

$GLGSV,3,2,09,75,11,216,,69,27,033,,84,05,087,,85,56,063,*6D

$GLGSV,3,3,09,71,14,156,*5D

$GNGNS,140309.1,,,,,NN,,,,,,*43

$GPVTG,,T,,M,,N,,K,N*2C

$GPGSA,A,1,,,,,,,,,,,,,,,*1E

$GNGSA,A,1,,,,,,,,,,,,,,,*00

$GPGGA,,,,,,0,,,,,,,,*66

$GPRMC,,V,,,,,,,,,,N*53

$GPGSV,4,1,13,07,10,296,29,10,55,136,34,16,41,195,36,20,54,084,35*7F

$GPGSV,4,2,13,21,32,070,22,27,80,291,29,08,40,295,,11,01,268,*7B

$GPGSV,4,3,13,13,03,012,,15,12,043,,18,13,251,,26,16,180,*79

$GPGSV,4,4,13,30,07,326,*48

$GLGSV,3,1,09,70,44,106,21,77,24,327,24,76,35,262,31,75,11,216,29*64

$GLGSV,3,2,09,69,27,033,23,85,56,063,31,71,14,156,21,86,50,299,*64

$GLGSV,3,3,09,84,05,087,*5A

$GPGGA,140309.3,5133.502818,N,00957.620183,E,1,06,1.0,238.0,M,47.0,M,,*5A

$GNGNS,140309.3,5133.502818,N,00957.620183,E,AA,11,1.0,238.0,47.0,,*68

$GPVTG,110.0,T,110.0,M,0.5,N,0.9,K,A*2F

$GPRMC,140309.3,A,5133.502818,N,00957.620183,E,0.5,110.0,260619,0.0,E,A*01

$GPGSA,A,2,07,10,16,20,21,27,,,,,,,1.3,1.0,0.9*3C

$GNGSA,A,2,07,10,16,20,21,27,,,,,,,1.3,1.0,0.9*22

$GNGSA,A,2,77,76,75,69,85,,,,,,,,1.3,1.0,0.9*26

$GPGSV,4,1,13,16,41,195,34,27,80,291,33,07,10,296,,08,40,295,*78

$GPGSV,4,2,13,10,55,136,,11,01,268,,13,03,012,,15,12,043,*77

$GPGSV,4,3,13,18,13,251,,20,54,084,,21,32,070,,26,16,180,*71

$GPGSV,4,4,13,30,07,326,*48

$GLGSV,3,1,09,85,56,063,33,70,44,106,,86,50,299,,77,24,327,*6C

$GLGSV,3,2,09,76,35,262,,75,11,216,,69,27,033,,84,05,087,*67

$GLGSV,3,3,09,71,14,156,*5D

$GNGNS,140314.1,,,,,NN,,,,,,*4F

$GPVTG,,T,,M,,N,,K,N*2C

$GPGSA,A,1,,,,,,,,,,,,,,,*1E

$GNGSA,A,1,,,,,,,,,,,,,,,*00

$GPGGA,,,,,,0,,,,,,,,*66

$GPRMC,,V,,,,,,,,,,N*53

$GPGSV,4,1,13,07,10,296,31,08,40,295,36,10,55,136,32,16,41,195,35*7D

$GPGSV,4,2,13,18,13,251,26,20,54,084,33,21,32,070,25,27,80,291,36*7B

$GPGSV,4,3,13,11,01,268,,13,03,012,,15,12,043,,26,16,180,*79

$GPGSV,4,4,13,30,07,326,*48

$GLGSV,3,1,09,70,44,106,23,77,24,327,22,75,11,216,27,69,27,033,20*65

$GLGSV,3,2,09,85,56,063,35,86,50,299,,76,35,262,,84,05,087,*6E

$GLGSV,3,3,09,71,14,156,*5D

$GPGGA,140313.7,5133.502654,N,00957.640481,E,1,08,0.9,209.1,M,47.0,M,,*57

$GNGNS,140313.7,5133.502654,N,00957.640481,E,AA,12,0.9,209.1,47.0,,*68

$GPVTG,138.9,T,138.9,M,1.8,N,3.4,K,A*2D

$GPRMC,140313.7,A,5133.502654,N,00957.640481,E,1.8,138.9,260619,0.0,E,A*06

$GPGSA,A,2,07,08,10,16,18,20,21,27,,,,,1.3,0.9,0.9*35

$GNGSA,A,2,07,08,10,16,18,20,21,27,,,,,1.3,0.9,0.9*2B

$GNGSA,A,2,77,75,69,85,,,,,,,,,1.3,0.9,0.9*2F

$GPGSV,4,1,13,07,10,296,33,10,55,136,36,16,41,195,36,20,54,084,38*7B

$GPGSV,4,2,13,08,40,295,,11,01,268,,13,03,012,,15,12,043,*70

$GPGSV,4,3,13,18,13,251,,21,32,070,,26,16,180,,27,80,291,*79

$GPGSV,4,4,13,30,07,326,*48

$GLGSV,3,1,09,75,11,216,31,85,56,063,34,70,44,106,,86,50,299,*6E

$GLGSV,3,2,09,77,24,326,,76,35,262,,69,27,033,,84,05,087,*61

$GLGSV,3,3,09,71,14,156,*5D

$GNGNS,140317.1,,,,,NN,,,,,,*4C

$GPVTG,,T,,M,,N,,K,N*2C

$GPGSA,A,1,,,,,,,,,,,,,,,*1E

$GNGSA,A,1,,,,,,,,,,,,,,,*00

$GPGGA,,,,,,0,,,,,,,,*66

$GPRMC,,V,,,,,,,,,,N*53

$GPGSV,4,1,13,07,10,296,32,08,40,295,32,10,55,136,35,16,41,195,35*7D

$GPGSV,4,2,13,18,13,251,27,20,54,084,38,21,32,070,27,26,16,180,31*79

$GPGSV,4,3,13,11,01,268,,13,03,012,,15,12,043,,27,80,291,*74

$GPGSV,4,4,13,30,07,326,*48

$GLGSV,3,1,09,86,50,299,24,77,24,326,21,76,35,262,31,75,11,216,30*64

$GLGSV,3,2,09,69,27,033,28,85,56,063,36,71,14,156,25,70,44,106,*65

$GLGSV,3,3,09,84,05,087,*5A

$GPGGA,140317.6,5133.503819,N,00957.612438,E,1,08,0.9,281.5,M,47.0,M,,*55

$GNGNS,140317.6,5133.503819,N,00957.612438,E,AA,14,0.9,281.5,47.0,,*6C

$GPVTG,138.9,T,138.9,M,0.9,N,1.6,K,A*2D

$GPRMC,140317.6,A,5133.503819,N,00957.612438,E,0.9,138.9,260619,0.0,E,A*00

$GPGSA,A,2,07,08,10,16,18,20,21,26,,,,,1.2,0.9,0.8*34

$GNGSA,A,2,07,08,10,16,18,20,21,26,,,,,1.2,0.9,0.8*2A

$GNGSA,A,2,86,77,76,75,69,85,,,,,,,1.2,0.9,0.8*20

$GPGSV,4,1,13,20,54,084,38,07,10,296,,08,40,295,,10,55,136,*76

$GPGSV,4,2,13,11,01,268,,13,03,012,,15,12,042,,16,41,195,*7C

$GPGSV,4,3,13,18,13,251,,21,32,070,,26,16,180,,27,80,291,*79

$GPGSV,4,4,13,30,07,326,*48

$GLGSV,3,1,09,86,50,299,29,75,11,216,28,85,56,063,36,70,44,106,*6F

$GLGSV,3,2,09,77,24,326,,76,35,262,,69,27,033,,84,05,087,*61

$GLGSV,3,3,09,71,14,156,*5D

$GNGNS,140321.1,,,,,NN,,,,,,*49

$GPVTG,,T,,M,,N,,K,N*2C

$GPGSA,A,1,,,,,,,,,,,,,,,*1E

$GNGSA,A,1,,,,,,,,,,,,,,,*00

$GPGGA,,,,,,0,,,,,,,,*66

$GPRMC,,V,,,,,,,,,,N*53

$GPGSV,4,1,13,07,10,296,31,08,40,295,31,10,55,136,38,16,41,195,35*70

$GPGSV,4,2,13,18,13,251,26,20,54,084,37,21,32,070,31,26,16,180,34*75

$GPGSV,4,3,13,27,80,291,35,11,01,268,,13,03,012,,15,12,042,*73

$GPGSV,4,4,13,30,07,326,*48

$GLGSV,3,1,09,86,50,299,30,75,11,216,26,69,27,033,22,85,56,063,37*62

$GLGSV,3,2,09,71,14,156,22,70,44,106,,77,24,326,,76,35,262,*6C

$GLGSV,3,3,09,84,05,087,*5A

$GPGGA,140321.4,5133.504654,N,00957.623971,E,1,09,0.9,240.6,M,47.0,M,,*5F

$GNGNS,140321.4,5133.504654,N,00957.623971,E,AA,13,0.9,240.6,47.0,,*60

$GPVTG,138.9,T,138.9,M,1.3,N,2.4,K,A*27

$GPRMC,140321.4,A,5133.504654,N,00957.623971,E,1.3,138.9,260619,0.0,E,A*0E

$GPGSA,A,2,07,08,10,16,18,20,21,26,27,,,,1.2,0.9,0.8*31

$GNGSA,A,2,07,08,10,16,18,20,21,26,27,,,,1.2,0.9,0.8*2F

$GNGSA,A,2,86,75,69,85,,,,,,,,,1.2,0.9,0.8*21

$GPGSV,4,1,13,07,10,296,31,08,40,295,31,10,55,136,38,16,41,195,35*70

$GPGSV,4,2,13,18,13,251,26,20,54,084,37,21,32,070,31,26,16,180,34*75

$GPGSV,4,3,13,27,80,291,35,11,01,268,,13,03,012,,15,12,042,*73

$GPGSV,4,4,13,30,07,326,*48

$GLGSV,3,1,09,86,50,299,30,75,11,216,26,69,27,033,22,85,56,063,37*62

$GLGSV,3,2,09,71,14,156,22,70,44,106,,77,24,326,,76,35,262,*6C

$GLGSV,3,3,09,84,05,087,*5A

$GPGGA,140322.1,5133.504903,N,00957.623986,E,1,09,0.9,240.8,M,47.0,M,,*52

$GNGNS,140322.1,5133.504903,N,00957.623986,E,AA,13,0.9,240.8,47.0,,*6D

$GPVTG,138.9,T,138.9,M,1.3,N,2.4,K,A*27

$GPRMC,140322.1,A,5133.504903,N,00957.623986,E,1.3,138.9,260619,0.0,E,A*0D

$GPGSA,A,2,07,08,10,16,18,20,21,26,27,,,,1.2,0.9,0.8*31

$GNGSA,A,2,07,08,10,16,18,20,21,26,27,,,,1.2,0.9,0.8*2F

$GNGSA,A,2,86,75,69,85,,,,,,,,,1.2,0.9,0.8*21

$GPGSV,4,1,13,20,54,084,37,07,10,296,,08,40,295,,10,55,136,*79

$GPGSV,4,2,13,11,01,268,,13,03,012,,15,12,042,,16,41,195,*7C

$GPGSV,4,3,13,18,13,251,,21,32,070,,26,16,180,,27,80,291,*79

$GPGSV,4,4,13,30,07,326,*48

$GLGSV,3,1,09,86,50,300,31,75,11,216,26,85,56,063,39,70,44,106,*66

$GLGSV,3,2,09,77,24,326,,76,34,262,,69,27,033,,84,05,088,*6F

$GLGSV,3,3,09,71,14,156,*5D

$GNGNS,140325.1,,,,,NN,,,,,,*4D

$GPVTG,,T,,M,,N,,K,N*2C

$GPGSA,A,1,,,,,,,,,,,,,,,*1E

$GNGSA,A,1,,,,,,,,,,,,,,,*00

$GPGGA,,,,,,0,,,,,,,,*66

$GPRMC,,V,,,,,,,,,,N*53

$GPGSV,4,1,13,08,40,295,36,10,55,136,37,16,41,195,35,18,13,251,30*7F

$GPGSV,4,2,13,20,54,084,34,21,32,070,24,26,16,180,33,27,80,291,37*7F

$GPGSV,4,3,13,07,10,296,,11,01,268,,13,03,012,,15,12,042,*79

$GPGSV,4,4,13,30,07,326,*48

$GLGSV,3,1,09,86,50,300,30,76,34,262,23,75,11,216,30,85,56,063,36*6E

$GLGSV,3,2,09,71,14,156,28,70,44,106,,77,24,326,,69,27,033,*6D

$GLGSV,3,3,09,84,05,088,*55

$GPGGA,140325.2,5133.500805,N,00957.620306,E,1,08,1.2,249.3,M,47.0,M,,*5D

$GNGNS,140325.2,5133.500805,N,00957.620306,E,AA,12,1.2,249.3,47.0,,*62

$GPVTG,230.3,T,230.3,M,1.5,N,2.8,K,A*2D

$GPRMC,140325.2,A,5133.500805,N,00957.620306,E,1.5,230.3,260619,0.0,E,A*0C

$GPGSA,A,2,08,10,16,18,20,21,26,27,,,,,1.5,1.2,0.9*3A

$GNGSA,A,2,08,10,16,18,20,21,26,27,,,,,1.5,1.2,0.9*24

$GNGSA,A,2,86,76,75,85,,,,,,,,,1.5,1.2,0.9*23

$GPGSV,4,1,13,10,55,136,43,20,54,084,36,07,10,296,,08,40,295,*7F

$GPGSV,4,2,13,11,01,268,,13,03,012,,15,12,042,,16,41,195,*7C

$GPGSV,4,3,13,18,14,251,,21,32,070,,26,16,180,,27,80,291,*7E

$GPGSV,4,4,13,30,07,326,*48

$GLGSV,3,1,09,85,56,063,32,71,14,156,36,70,44,106,,86,50,300,*68

$GLGSV,3,2,09,77,24,326,,76,34,262,,75,11,216,,69,27,032,*60

$GLGSV,3,3,09,84,05,088,*55

$GNGNS,140329.1,,,,,NN,,,,,,*41

$GPVTG,,T,,M,,N,,K,N*2C

$GPGSA,A,1,,,,,,,,,,,,,,,*1E

$GNGSA,A,1,,,,,,,,,,,,,,,*00

$GPGGA,,,,,,0,,,,,,,,*66

$GPRMC,,V,,,,,,,,,,N*53

$GPGSV,4,1,13,08,40,295,35,10,55,136,41,18,14,251,31,20,54,084,33*7D

$GPGSV,4,2,13,07,10,296,,11,01,268,,13,03,012,,15,12,042,*78

$GPGSV,4,3,13,16,41,195,,21,32,070,,26,16,180,,27,80,291,*7B

$GPGSV,4,4,13,30,07,326,*48

$GLGSV,3,1,09,76,34,262,29,85,56,063,33,71,14,156,34,70,44,106,*68

$GLGSV,3,2,09,86,50,300,,77,24,326,,75,11,216,,69,27,032,*68

$GLGSV,3,3,09,84,05,088,*55

$GNGNS,140329.1,,,,,NN,,,,,,*41

$GPVTG,,T,,M,,N,,K,N*2C

$GPGSA,A,1,,,,,,,,,,,,,,,*1E

$GNGSA,A,1,,,,,,,,,,,,,,,*00

$GPGGA,,,,,,0,,,,,,,,*66

$GPRMC,,V,,,,,,,,,,N*53

$GPGSV,4,1,13,08,40,295,35,10,55,136,41,18,14,251,31,20,54,084,33*7D

$GPGSV,4,2,13,07,10,296,,11,01,268,,13,03,012,,15,12,042,*78

$GPGSV,4,3,13,16,41,195,,21,32,070,,26,16,180,,27,80,291,*7B

$GPGSV,4,4,13,30,07,326,*48

$GLGSV,3,1,09,76,34,262,29,85,56,063,33,71,14,156,34,70,44,106,*68

$GLGSV,3,2,09,86,50,300,,77,24,326,,75,11,216,,69,27,032,*68

$GLGSV,3,3,09,84,05,088,*55

$GNGNS,140330.1,,,,,NN,,,,,,*49

$GPVTG,,T,,M,,N,,K,N*2C

$GPGSA,A,1,,,,,,,,,,,,,,,*1E

$GNGSA,A,1,,,,,,,,,,,,,,,*00

$GPGGA,,,,,,0,,,,,,,,*66

$GPRMC,,V,,,,,,,,,,N*53

$GPGSV,3,1,12,07,10,296,23,08,40,295,34,10,55,136,42,18,14,251,27*7B

$GPGSV,3,2,12,20,54,084,33,21,32,070,25,26,16,180,28,27,80,291,37*75

$GPGSV,3,3,12,11,01,268,,13,03,012,,16,41,195,,30,07,326,*79

$GLGSV,3,1,09,70,44,106,21,86,50,300,31,77,24,326,20,76,34,262,28*6E

$GLGSV,3,2,09,75,11,216,28,69,27,032,24,85,56,063,34,71,14,156,34*67

$GLGSV,3,3,09,84,05,088,*55

$GPGGA,140331.1,5133.496828,N,00957.619288,E,1,08,0.9,272.2,M,47.0,M,,*54

$GNGNS,140331.1,5133.496828,N,00957.619288,E,AA,14,0.9,272.2,47.0,,*6D

$GPVTG,230.3,T,230.3,M,0.0,N,0.0,K,A*23

$GPRMC,140331.1,A,5133.496828,N,00957.619288,E,0.0,230.3,260619,0.0,E,A*02

$GPGSA,A,2,07,08,10,18,20,21,26,27,,,,,1.2,0.9,0.8*36

$GNGSA,A,2,07,08,10,18,20,21,26,27,,,,,1.2,0.9,0.8*28

$GNGSA,A,2,86,77,76,75,69,85,,,,,,,1.2,0.9,0.8*20

$GPGSV,4,1,13,10,55,136,42,20,54,084,34,27,80,291,38,07,10,296,*72

$GPGSV,4,2,13,08,40,295,,11,01,270,,13,03,012,,15,12,042,*78

$GPGSV,4,3,13,16,41,195,,18,14,251,,21,32,070,,26,16,180,*76

$GPGSV,4,4,13,30,07,326,*48

$GLGSV,3,1,09,69,27,032,25,85,56,063,32,71,14,154,36,70,44,106,*6E

$GLGSV,3,2,09,86,50,300,,77,24,326,,76,34,262,,75,11,216,*63

$GLGSV,3,3,09,84,05,088,*55

$GNGNS,140335.1,,,,,NN,,,,,,*4C

$GPVTG,,T,,M,,N,,K,N*2C

$GPGSA,A,1,,,,,,,,,,,,,,,*1E

$GNGSA,A,1,,,,,,,,,,,,,,,*00

$GPGGA,,,,,,0,,,,,,,,*66

$GPRMC,,V,,,,,,,,,,N*53

$GPGSV,3,1,12,08,40,295,33,10,55,136,43,20,54,084,33,26,16,180,30*7E

$GPGSV,3,2,12,27,80,291,39,07,10,296,,11,01,270,,13,03,012,*7B

$GPGSV,3,3,12,16,41,195,,18,14,251,,21,32,070,,30,07,326,*79

$GLGSV,3,1,09,76,34,262,26,69,27,032,26,85,56,063,33,71,14,154,37*69

$GLGSV,3,2,09,70,44,106,,86,50,300,,77,24,326,,75,11,216,*63

$GLGSV,3,3,09,84,05,088,*55

$GPGGA,140334.8,5133.494405,N,00957.623490,E,1,05,1.4,239.8,M,47.0,M,,*5B

$GNGNS,140334.8,5133.494405,N,00957.623490,E,AA,08,1.4,239.8,47.0,,*62

$GPVTG,230.3,T,230.3,M,0.4,N,0.7,K,A*20

$GPRMC,140334.8,A,5133.494405,N,00957.623490,E,0.4,230.3,260619,0.0,E,A*0D

$GPGSA,A,2,08,10,20,26,27,,,,,,,,1.7,1.4,0.9*33

$GNGSA,A,2,08,10,20,26,27,,,,,,,,1.7,1.4,0.9*2D

$GNGSA,A,2,76,69,85,,,,,,,,,,1.7,1.4,0.9*24

$GPGSV,4,1,13,10,55,136,41,20,54,082,33,27,80,291,38,07,10,296,*70

$GPGSV,4,2,13,08,40,295,,11,01,270,,13,03,012,,15,12,042,*78

$GPGSV,4,3,13,16,41,195,,18,14,251,,21,32,070,,26,16,180,*76

$GPGSV,4,4,13,30,07,326,*48

$GLGSV,3,1,09,85,56,063,31,71,14,154,35,70,44,106,,86,50,300,*6A

$GLGSV,3,2,09,77,24,326,,76,34,262,,75,11,216,,69,27,032,*60

$GLGSV,3,3,09,84,05,088,*55

$GNGNS,140339.1,,,,,NN,,,,,,*40

$GPVTG,,T,,M,,N,,K,N*2C

$GPGSA,A,1,,,,,,,,,,,,,,,*1E

$GNGSA,A,1,,,,,,,,,,,,,,,*00

$GPGGA,,,,,,0,,,,,,,,*66

$GPRMC,,V,,,,,,,,,,N*53

$GPGSV,4,1,13,07,10,296,30,08,40,295,33,10,55,136,42,16,41,195,22*78

$GPGSV,4,2,13,18,14,251,27,20,54,082,31,27,80,291,37,11,01,270,*7E

$GPGSV,4,3,13,13,03,012,,15,12,042,,21,32,070,,26,16,180,*70

$GPGSV,4,4,13,30,07,326,*48

$GLGSV,3,1,09,86,50,300,23,76,34,262,26,75,11,216,23,69,27,032,26*6A

$GLGSV,3,2,09,85,56,063,34,71,14,154,35,70,44,106,,77,24,326,*65

$GLGSV,3,3,09,84,05,088,*55

$GPGGA,140339.4,5133.494831,N,00957.619545,E,1,07,0.9,237.9,M,47.0,M,,*50

$GNGNS,140339.4,5133.494831,N,00957.619545,E,AA,12,0.9,237.9,47.0,,*60

$GPVTG,335.7,T,335.7,M,4.0,N,7.3,K,A*23

$GPRMC,140339.4,A,5133.494831,N,00957.619545,E,4.0,335.7,260619,0.0,E,A*07

$GPGSA,A,2,07,08,10,16,18,20,27,,,,,,1.3,0.9,0.8*37

$GNGSA,A,2,07,08,10,16,18,20,27,,,,,,1.3,0.9,0.8*29

$GNGSA,A,2,86,76,75,69,85,,,,,,,,1.3,0.9,0.8*21

$GPGSV,4,1,13,07,10,296,30,08,40,295,33,10,55,136,42,16,41,195,22*78

$GPGSV,4,2,13,18,14,251,27,20,54,082,31,27,80,291,37,11,01,270,*7E

$GPGSV,4,3,13,13,03,012,,15,12,042,,21,32,070,,26,16,180,*70

$GPGSV,4,4,13,30,07,326,*48

$GLGSV,3,1,09,86,50,300,23,76,34,262,26,75,11,216,23,69,27,032,26*6A

$GLGSV,3,2,09,85,56,063,34,71,14,154,35,70,44,106,,77,24,326,*65

$GLGSV,3,3,09,84,05,088,*55

$GPGGA,140340.1,5133.495569,N,00957.619011,E,1,07,0.9,239.7,M,47.0,M,,*5E

$GNGNS,140340.1,5133.495569,N,00957.619011,E,AA,12,0.9,239.7,47.0,,*6E

$GPVTG,335.7,T,335.7,M,4.0,N,7.3,K,A*23

$GPRMC,140340.1,A,5133.495569,N,00957.619011,E,4.0,335.7,260619,0.0,E,A*09

$GPGSA,A,2,07,08,10,16,18,20,27,,,,,,1.3,0.9,0.8*37

$GNGSA,A,2,07,08,10,16,18,20,27,,,,,,1.3,0.9,0.8*29

$GNGSA,A,2,86,76,75,69,85,,,,,,,,1.3,0.9,0.8*21

$GPGSV,4,1,13,10,55,136,40,07,10,296,,08,40,295,,11,01,270,*72

$GPGSV,4,2,13,13,03,012,,15,12,042,,16,41,195,,18,14,251,*7B

$GPGSV,4,3,13,20,54,082,,21,32,070,,26,16,180,,27,80,291,*7D

$GPGSV,4,4,13,30,07,326,*48

$GLGSV,3,1,09,86,50,300,25,76,34,262,27,85,56,063,33,71,14,154,34*6B

$GLGSV,3,2,09,70,44,106,,77,24,326,,75,10,216,,69,27,032,*61

$GLGSV,3,3,09,84,05,088,*55

$GNGNS,140342.2,,,,,NN,,,,,,*4F

$GPVTG,,T,,M,,N,,K,N*2C

$GPGSA,A,1,,,,,,,,,,,,,,,*1E

$GNGSA,A,1,,,,,,,,,,,,,,,*00

$GPGGA,,,,,,0,,,,,,,,*66

$GPRMC,,V,,,,,,,,,,N*53

$GPGSV,4,1,13,10,55,136,40,07,10,296,,08,40,295,,11,01,270,*72

$GPGSV,4,2,13,13,03,012,,15,12,042,,16,41,195,,18,14,251,*7B

