$GPGSV,4,1,13,10,59,129,31,26,12,178,35,07,08,292,,08,45,296,*76

$GPGSV,4,2,13,11,05,271,,13,02,008,,15,11,037,,16,36,192,*7C

$GPGSV,4,3,13,18,18,253,,20,52,075,,21,28,071,,27,84,268,*75

$GPGSV,4,4,13,30,07,322,*4C

$GLGSV,3,1,10,76,30,257,21,85,52,070,23,70,47,099,,86,54,306,*65

$GLGSV,3,2,10,77,26,322,,75,06,213,,69,23,029,,84,02,091,*65

$GLGSV,3,3,10,87,02,281,,71,20,154,*66

$GNGNS,141358.3,,,,,NN,,,,,,*44

$GPVTG,,T,,M,,N,,K,N*2C

$GPGSA,A,1,,,,,,,,,,,,,,,*1E

$GNGSA,A,1,,,,,,,,,,,,,,,*00

$GPGGA,,,,,,0,,,,,,,,*66

$GPRMC,,V,,,,,,,,,,N*53

$GPGSV,4,1,13,10,59,129,31,26,12,178,35,07,08,292,,08,45,296,*76

$GPGSV,4,2,13,11,05,271,,13,02,008,,15,11,037,,16,36,192,*7C

$GPGSV,4,3,13,18,18,253,,20,52,075,,21,28,071,,27,84,268,*75

$GPGSV,4,4,13,30,07,322,*4C

$GLGSV,3,1,10,76,30,257,21,85,52,070,23,70,47,099,,86,54,306,*65

$GLGSV,3,2,10,77,26,322,,75,06,213,,69,23,029,,84,02,091,*65

$GLGSV,3,3,10,87,02,281,,71,20,154,*66

$GNGNS,141359.0,,,,,NN,,,,,,*46

$GPVTG,,T,,M,,N,,K,N*2C

$GPGSA,A,1,,,,,,,,,,,,,,,*1E

$GNGSA,A,1,,,,,,,,,,,,,,,*00

$GPGSV,4,1,13,10,59,129,31,26,12,178,35,07,08,292,,08,45,296,*76

$GPGSV,4,2,13,11,05,271,,13,02,008,,15,11,037,,16,36,192,*7C

$GPGSV,4,3,13,18,18,253,,20,52,075,,21,28,071,,27,84,268,*75

$GPGSV,4,4,13,30,07,322,*4C

$GLGSV,3,1,10,76,30,257,21,85,52,070,23,70,47,099,,86,54,306,*65

$GLGSV,3,2,10,77,26,322,,75,06,213,,69,23,029,,84,02,091,*65

$GLGSV,3,3,10,87,02,281,,71,20,154,*66

$GNGNS,141358.3,,,,,NN,,,,,,*44

$GPVTG,,T,,M,,N,,K,N*2C

$GPGSA,A,1,,,,,,,,,,,,,,,*1E

$GNGSA,A,1,,,,,,,,,,,,,,,*00

$GPGGA,,,,,,0,,,,,,,,*66

$GPRMC,,V,,,,,,,,,,N*53

$GPGSV,4,1,13,10,59,129,31,26,12,178,35,07,08,292,,08,45,296,*76

$GPGSV,4,2,13,11,05,271,,13,02,008,,15,11,037,,16,36,192,*7C

$GPGSV,4,3,13,18,18,253,,20,52,075,,21,28,071,,27,84,268,*75

$GPGSV,4,4,13,30,07,322,*4C

$GLGSV,3,1,10,76,30,257,21,85,52,070,23,70,47,099,,86,54,306,*65

$GLGSV,3,2,10,77,26,322,,75,06,213,,69,23,029,,84,02,091,*65

$GLGSV,3,3,10,87,02,281,,71,20,154,*66

$GNGNS,141359.0,,,,,NN,,,,,,*46

$GPVTG,,T,,M,,N,,K,N*2C

$GPGSA,A,1,,,,,,,,,,,,,,,*1E

$GNGSA,A,1,,,,,,,,,,,,,,,*00

$GPGGA,,,,,,0,,,,,,,,*66

$GPRMC,,V,,,,,,,,,,N*53

$GPGGA,,,,,,0,,,,,,,,*66

$GPRMC,,V,,,,,,,,,,N*53

$GPGSV,4,1,13,10,59,129,22,20,52,075,32,26,12,178,31,27,85,271,33*78

$GPGSV,4,2,13,07,08,292,,08,45,296,,11,05,271,,13,02,008,*76

$GPGSV,4,3,13,15,11,037,,16,36,192,,18,18,253,,21,28,071,*7F

$GPGSV,4,4,13,30,07,322,*4C

$GLGSV,3,1,10,86,54,306,24,76,30,257,25,75,06,213,24,85,52,070,30*63

$GLGSV,3,2,10,71,20,154,23,70,47,099,,77,26,322,,69,23,029,*66

$GLGSV,3,3,10,84,02,091,,87,02,281,*64

$GPGSV,4,1,13,10,59,129,22,20,52,075,32,26,12,178,31,27,85,271,33*78

$GPGSV,4,2,13,07,08,292,,08,45,296,,11,05,271,,13,02,008,*76

$GPGSV,4,3,13,15,11,037,,16,36,192,,18,18,253,,21,28,071,*7F

$GPGSV,4,4,13,30,07,322,*4C

$GLGSV,3,1,10,86,54,306,24,76,30,257,25,75,06,213,24,85,52,070,30*63

$GLGSV,3,2,10,71,20,154,23,70,47,099,,77,26,322,,69,23,029,*66

$GLGSV,3,3,10,84,02,091,,87,02,281,*64

$GNGNS,141400.0,,,,,NN,,,,,,*4D

$GPVTG,,T,,M,,N,,K,N*2C

$GPGSA,A,1,,,,,,,,,,,,,,,*1E

$GNGSA,A,1,,,,,,,,,,,,,,,*00

$GPGGA,,,,,,0,,,,,,,,*66

$GPRMC,,V,,,,,,,,,,N*53

$GNGNS,141400.0,,,,,NN,,,,,,*4D

$GPVTG,,T,,M,,N,,K,N*2C

$GPGSA,A,1,,,,,,,,,,,,,,,*1E

$GNGSA,A,1,,,,,,,,,,,,,,,*00

$GPGGA,,,,,,0,,,,,,,,*66

$GPRMC,,V,,,,,,,,,,N*53

$GPGSV,4,1,13,08,45,296,22,10,59,129,24,16,36,192,21,20,52,075,33*77

$GPGSV,4,2,13,21,28,071,21,26,12,178,30,27,85,271,34,07,08,292,*76

$GPGSV,4,3,13,11,05,271,,13,02,008,,15,11,037,,18,18,253,*71

$GPGSV,4,4,13,30,07,322,*4C

$GLGSV,3,1,10,86,54,306,27,76,30,257,25,75,06,213,22,85,52,070,32*64

$GLGSV,3,2,10,71,20,154,22,70,47,099,,77,26,322,,69,23,029,*67

$GLGSV,3,3,10,84,02,091,,87,02,281,*64

$GPGGA,141401.0,5133.464284,N,00957.590089,E,1,07,0.9,224.1,M,47.0,M,,*5F

$GNGNS,141401.0,5133.464284,N,00957.590089,E,AA,12,0.9,224.1,47.0,,*6F

$GPVTG,263.3,T,263.3,M,0.0,N,0.0,K,A*23

$GPRMC,141401.0,A,5133.464284,N,00957.590089,E,0.0,263.3,260619,0.0,E,A*00

$GPGSA,A,2,08,10,16,20,21,26,27,,,,,,1.2,0.9,0.8*3F

$GNGSA,A,2,08,10,16,20,21,26,27,,,,,,1.2,0.9,0.8*21

$GNGSA,A,2,71,75,76,85,86,,,,,,,,1.2,0.9,0.8*29

$GPGSV,4,1,13,08,45,296,22,10,59,129,24,16,36,192,21,20,52,075,33*77

$GPGSV,4,2,13,21,28,071,21,26,12,178,30,27,85,271,34,07,08,292,*76

$GPGSV,4,3,13,11,05,271,,13,02,008,,15,11,037,,18,18,253,*71

$GPGSV,4,4,13,30,07,322,*4C

$GLGSV,3,1,10,86,54,306,27,76,30,257,25,75,06,213,22,85,52,070,32*64

$GLGSV,3,2,10,71,20,154,22,70,47,099,,77,26,322,,69,23,029,*67

$GLGSV,3,3,10,84,02,091,,87,02,281,*64

$GPGGA,141401.0,5133.464284,N,00957.590089,E,1,07,0.9,224.1,M,47.0,M,,*5F

$GNGNS,141401.0,5133.464284,N,00957.590089,E,AA,12,0.9,224.1,47.0,,*6F

$GPVTG,263.3,T,263.3,M,0.0,N,0.0,K,A*23

$GPRMC,141401.0,A,5133.464284,N,00957.590089,E,0.0,263.3,260619,0.0,E,A*00

$GPGSA,A,2,08,10,16,20,21,26,27,,,,,,1.2,0.9,0.8*3F

$GNGSA,A,2,08,10,16,20,21,26,27,,,,,,1.2,0.9,0.8*21

$GNGSA,A,2,71,75,76,85,86,,,,,,,,1.2,0.9,0.8*29

$GPGSV,4,1,13,07,08,292,,08,45,296,,10,59,127,,11,05,271,*74

$GPGSV,4,2,13,13,02,008,,15,11,037,,16,36,192,,18,18,253,*79

$GPGSV,4,3,13,20,52,075,,21,28,071,,26,12,178,,27,84,268,*78

$GPGSV,4,4,13,30,07,322,*4C

$GLGSV,3,1,10,85,52,070,33,70,47,099,,86,54,306,,77,26,322,*62

$GLGSV,3,2,10,76,30,257,,75,06,213,,69,23,029,,84,01,091,*63

$GLGSV,3,3,10,87,02,281,,71,20,154,*66

$GNGNS,141403.9,,,,,NN,,,,,,*47

$GPVTG,,T,,M,,N,,K,N*2C

$GPGSA,A,1,,,,,,,,,,,,,,,*1E

$GNGSA,A,1,,,,,,,,,,,,,,,*00

$GPGGA,,,,,,0,,,,,,,,*66

$GPRMC,,V,,,,,,,,,,N*53

$GPGSV,4,1,13,07,08,292,,08,45,296,,10,59,127,,11,05,271,*74

$GPGSV,4,2,13,13,02,008,,15,11,037,,16,36,192,,18,18,253,*79

$GPGSV,4,3,13,20,52,075,,21,28,071,,26,12,178,,27,84,268,*78

$GPGSV,4,4,13,30,07,322,*4C

$GLGSV,3,1,10,85,52,070,33,70,47,099,,86,54,306,,77,26,322,*62

$GLGSV,3,2,10,76,30,257,,75,06,213,,69,23,029,,84,01,091,*63

$GLGSV,3,3,10,87,02,281,,71,20,154,*66

$GNGNS,141403.9,,,,,NN,,,,,,*47

$GPVTG,,T,,M,,N,,K,N*2C

$GPGSA,A,1,,,,,,,,,,,,,,,*1E

$GNGSA,A,1,,,,,,,,,,,,,,,*00

$GPGGA,,,,,,0,,,,,,,,*66

$GPRMC,,V,,,,,,,,,,N*53

$GPGSV,4,1,13,20,52,075,33,26,12,178,32,07,08,292,,08,45,296,*73

$GPGSV,4,2,13,10,59,127,,11,05,271,,13,02,008,,15,11,037,*7D

$GPGSV,4,3,13,16,36,192,,18,18,253,,21,28,071,,27,84,268,*7A

$GPGSV,4,4,13,30,07,322,*4C

$GLGSV,3,1,10,86,54,306,28,75,06,213,22,85,52,070,33,70,47,099,*6B

$GLGSV,3,2,10,77,26,322,,76,30,257,,69,23,029,,84,01,091,*60

$GLGSV,3,3,10,87,02,281,,71,20,154,*66

$GNGNS,141405.0,,,,,NN,,,,,,*48

$GPGSV,4,1,13,20,52,075,33,26,12,178,32,07,08,292,,08,45,296,*73

$GPGSV,4,2,13,10,59,127,,11,05,271,,13,02,008,,15,11,037,*7D

$GPGSV,4,3,13,16,36,192,,18,18,253,,21,28,071,,27,84,268,*7A

$GPGSV,4,4,13,30,07,322,*4C

$GLGSV,3,1,10,86,54,306,28,75,06,213,22,85,52,070,33,70,47,099,*6B

$GLGSV,3,2,10,77,26,322,,76,30,257,,69,23,029,,84,01,091,*60

$GLGSV,3,3,10,87,02,281,,71,20,154,*66

$GNGNS,141405.0,,,,,NN,,,,,,*48

$GPVTG,,T,,M,,N,,K,N*2C

$GPGSA,A,1,,,,,,,,,,,,,,,*1E

$GNGSA,A,1,,,,,,,,,,,,,,,*00

$GPGGA,,,,,,0,,,,,,,,*66

$GPRMC,,V,,,,,,,,,,N*53

$GPVTG,,T,,M,,N,,K,N*2C

$GPGSA,A,1,,,,,,,,,,,,,,,*1E

$GNGSA,A,1,,,,,,,,,,,,,,,*00

$GPGGA,,,,,,0,,,,,,,,*66

$GPRMC,,V,,,,,,,,,,N*53

$GPGSV,4,1,13,08,45,296,21,10,59,127,27,15,11,037,20,16,36,192,19*77

$GPGSV,4,2,13,20,52,075,32,21,28,071,21,26,12,178,31,27,84,268,32*78

$GPGSV,4,3,13,30,07,322,18,07,08,292,,11,05,271,,13,02,008,*7D

$GPGSV,4,4,13,18,18,253,*4F

$GLGSV,3,1,10,70,47,099,19,86,54,306,28,76,30,257,23,75,06,213,22*6D

$GLGSV,3,2,10,69,23,029,18,85,52,070,33,71,20,154,21,77,26,322,*64

$GLGSV,3,3,10,84,01,091,,87,02,281,*67

$GPGSV,4,1,13,08,45,296,21,10,59,127,27,15,11,037,20,16,36,192,19*77

$GPGSV,4,2,13,20,52,075,32,21,28,071,21,26,12,178,31,27,84,268,32*78

$GPGSV,4,3,13,30,07,322,18,07,08,292,,11,05,271,,13,02,008,*7D

$GPGSV,4,4,13,18,18,253,*4F

$GLGSV,3,1,10,70,47,099,19,86,54,306,28,76,30,257,23,75,06,213,22*6D

$GLGSV,3,2,10,69,23,029,18,85,52,070,33,71,20,154,21,77,26,322,*64

$GLGSV,3,3,10,84,01,091,,87,02,281,*67

$GPGGA,141406.0,5133.461011,N,00957.593741,E,1,07,0.8,224.8,M,47.0,M,,*5B

$GNGNS,141406.0,5133.461011,N,00957.593741,E,AA,13,0.8,224.8,47.0,,*6A

$GPVTG,263.3,T,263.3,M,0.0,N,0.0,K,A*23

$GPRMC,141406.0,A,5133.461011,N,00957.593741,E,0.0,263.3,260619,0.0,E,A*0C

$GPGSA,A,2,08,10,16,20,21,26,27,,,,,,1.1,0.8,0.8*3D

$GNGSA,A,2,08,10,16,20,21,26,27,,,,,,1.1,0.8,0.8*23

$GNGSA,A,2,69,71,75,76,85,86,,,,,,,1.1,0.8,0.8*24

$GPGGA,141406.0,5133.461011,N,00957.593741,E,1,07,0.8,224.8,M,47.0,M,,*5B

$GNGNS,141406.0,5133.461011,N,00957.593741,E,AA,13,0.8,224.8,47.0,,*6A

$GPVTG,263.3,T,263.3,M,0.0,N,0.0,K,A*23

$GPRMC,141406.0,A,5133.461011,N,00957.593741,E,0.0,263.3,260619,0.0,E,A*0C

$GPGSA,A,2,08,10,16,20,21,26,27,,,,,,1.1,0.8,0.8*3D

$GNGSA,A,2,08,10,16,20,21,26,27,,,,,,1.1,0.8,0.8*23

$GNGSA,A,2,69,71,75,76,85,86,,,,,,,1.1,0.8,0.8*24

$GPGSV,4,1,13,26,12,178,30,07,08,292,,08,45,296,,10,59,127,*7F

$GPGSV,4,2,13,11,05,271,,13,02,008,,15,11,037,,16,36,192,*7C

$GPGSV,4,3,13,18,18,253,,20,52,075,,21,28,071,,27,84,268,*75

$GPGSV,4,4,13,30,07,322,*4C

$GLGSV,3,1,10,75,06,213,18,85,52,070,31,70,47,099,,86,54,306,*6A

$GLGSV,3,2,10,77,26,322,,76,30,257,,69,23,029,,84,01,091,*60

$GLGSV,3,3,10,87,02,281,,71,20,154,*66

$GNGNS,141409.1,,,,,NN,,,,,,*45

$GPVTG,,T,,M,,N,,K,N*2C

$GPGSA,A,1,,,,,,,,,,,,,,,*1E

$GNGSA,A,1,,,,,,,,,,,,,,,*00

$GPGGA,,,,,,0,,,,,,,,*66

$GPRMC,,V,,,,,,,,,,N*53

$GPGSV,4,1,13,26,12,178,30,07,08,292,,08,45,296,,10,59,127,*7F

$GPGSV,4,2,13,11,05,271,,13,02,008,,15,11,037,,16,36,192,*7C

$GPGSV,4,3,13,18,18,253,,20,52,075,,21,28,071,,27,84,268,*75

$GPGSV,4,4,13,30,07,322,*4C

$GLGSV,3,1,10,75,06,213,18,85,52,070,31,70,47,099,,86,54,306,*6A

$GLGSV,3,2,10,77,26,322,,76,30,257,,69,23,029,,84,01,091,*60

$GLGSV,3,3,10,87,02,281,,71,20,154,*66

$GNGNS,141409.1,,,,,NN,,,,,,*45

$GPVTG,,T,,M,,N,,K,N*2C

$GPGSA,A,1,,,,,,,,,,,,,,,*1E

$GNGSA,A,1,,,,,,,,,,,,,,,*00

$GPGGA,,,,,,0,,,,,,,,*66

$GPRMC,,V,,,,,,,,,,N*53

$GPGSV,4,1,13,10,59,127,28,16,36,192,26,26,12,178,30,07,08,292,*7D

$GPGSV,4,2,13,08,45,296,,11,05,271,,13,02,008,,15,11,037,*70

$GPGSV,4,3,13,18,18,253,,20,52,075,,21,28,071,,27,84,268,*75

$GPGSV,4,4,13,30,07,322,*4C

$GPGSV,4,1,13,10,59,127,28,16,36,192,26,26,12,178,30,07,08,292,*7D

$GPGSV,4,2,13,08,45,296,,11,05,271,,13,02,008,,15,11,037,*70

$GPGSV,4,3,13,18,18,253,,20,52,075,,21,28,071,,27,84,268,*75

$GPGSV,4,4,13,30,07,322,*4C

$GLGSV,3,1,10,75,06,213,18,85,52,070,32,70,47,099,,86,54,306,*69

$GLGSV,3,2,10,77,26,322,,76,30,257,,69,23,029,,84,01,091,*60

$GLGSV,3,3,10,87,02,281,,71,20,154,*66

$GLGSV,3,1,10,75,06,213,18,85,52,070,32,70,47,099,,86,54,306,*69

$GLGSV,3,2,10,77,26,322,,76,30,257,,69,23,029,,84,01,091,*60

$GLGSV,3,3,10,87,02,281,,71,20,154,*66

$GPGGA,141410.0,5133.459762,N,00957.595975,E,1,07,0.8,228.3,M,47.0,M,,*5C

$GNGNS,141410.0,5133.459762,N,00957.595975,E,AA,13,0.8,228.3,47.0,,*6D

$GPVTG,263.3,T,263.3,M,0.0,N,0.0,K,A*23

$GPRMC,141410.0,A,5133.459762,N,00957.595975,E,0.0,263.3,260619,0.0,E,A*0C

$GPGSA,A,2,08,10,16,20,21,26,27,,,,,,1.1,0.8,0.8*3D

$GNGSA,A,2,08,10,16,20,21,26,27,,,,,,1.1,0.8,0.8*23

$GNGSA,A,2,69,71,75,76,85,86,,,,,,,1.1,0.8,0.8*24

$GPGGA,141410.0,5133.459762,N,00957.595975,E,1,07,0.8,228.3,M,47.0,M,,*5C

$GNGNS,141410.0,5133.459762,N,00957.595975,E,AA,13,0.8,228.3,47.0,,*6D

$GPVTG,263.3,T,263.3,M,0.0,N,0.0,K,A*23

$GPRMC,141410.0,A,5133.459762,N,00957.595975,E,0.0,263.3,260619,0.0,E,A*0C

$GPGSA,A,2,08,10,16,20,21,26,27,,,,,,1.1,0.8,0.8*3D

$GNGSA,A,2,08,10,16,20,21,26,27,,,,,,1.1,0.8,0.8*23

$GNGSA,A,2,69,71,75,76,85,86,,,,,,,1.1,0.8,0.8*24

$GPGSV,4,1,13,07,08,292,,08,45,296,,10,59,127,,11,05,271,*74

$GPGSV,4,2,13,13,02,008,,15,11,037,,16,36,192,,18,18,253,*79

$GPGSV,4,3,13,20,52,075,,21,28,071,,26,12,178,,27,85,268,*79

$GPGSV,4,4,13,30,07,322,*4C

$GLGSV,3,1,10,70,47,099,,86,54,306,,77,26,322,,76,30,257,*6D

$GLGSV,3,2,10,75,05,213,,69,23,028,,84,01,091,,87,02,281,*65

$GLGSV,3,3,10,85,52,070,,71,20,154,*6D

$GPGSV,4,1,13,07,08,292,,08,45,296,,10,59,127,,11,05,271,*74

$GPGSV,4,2,13,13,02,008,,15,11,037,,16,36,192,,18,18,253,*79

$GPGSV,4,3,13,20,52,075,,21,28,071,,26,12,178,,27,85,268,*79

$GPGSV,4,4,13,30,07,322,*4C

$GLGSV,3,1,10,70,47,099,,86,54,306,,77,26,322,,76,30,257,*6D

$GLGSV,3,2,10,75,05,213,,69,23,028,,84,01,091,,87,02,281,*65

$GLGSV,3,3,10,85,52,070,,71,20,154,*6D

$GNGNS,141412.9,,,,,NN,,,,,,*47

$GPVTG,,T,,M,,N,,K,N*2C

$GPGSA,A,1,,,,,,,,,,,,,,,*1E

$GNGSA,A,1,,,,,,,,,,,,,,,*00

$GPGGA,,,,,,0,,,,,,,,*66

$GPRMC,,V,,,,,,,,,,N*53

$GNGNS,141412.9,,,,,NN,,,,,,*47

$GPVTG,,T,,M,,N,,K,N*2C

$GPGSA,A,1,,,,,,,,,,,,,,,*1E

$GNGSA,A,1,,,,,,,,,,,,,,,*00

$GPGGA,,,,,,0,,,,,,,,*66

$GPRMC,,V,,,,,,,,,,N*53

$GPGSV,4,1,13,16,36,192,21,20,52,075,29,26,12,178,28,07,08,292,*7C

$GPGSV,4,2,13,08,45,296,,10,59,127,,11,05,271,,13,02,008,*79

$GPGSV,4,3,13,15,11,037,,18,18,253,,21,28,071,,27,85,268,*73

$GPGSV,4,4,13,30,07,322,*4C

$GLGSV,3,1,10,76,30,257,23,85,52,070,26,70,47,099,,86,54,306,*62

$GLGSV,3,2,10,77,26,322,,75,05,213,,69,23,028,,84,01,091,*64

$GLGSV,3,3,10,87,02,281,,71,20,154,*66

$GNGNS,141414.0,,,,,NN,,,,,,*48

$GPVTG,,T,,M,,N,,K,N*2C

$GPGSA,A,1,,,,,,,,,,,,,,,*1E

$GNGSA,A,1,,,,,,,,,,,,,,,*00

$GPGSV,4,1,13,16,36,192,21,20,52,075,29,26,12,178,28,07,08,292,*7C

$GPGSV,4,2,13,08,45,296,,10,59,127,,11,05,271,,13,02,008,*79

$GPGSV,4,3,13,15,11,037,,18,18,253,,21,28,071,,27,85,268,*73

$GPGSV,4,4,13,30,07,322,*4C

$GLGSV,3,1,10,76,30,257,23,85,52,070,26,70,47,099,,86,54,306,*62

$GLGSV,3,2,10,77,26,322,,75,05,213,,69,23,028,,84,01,091,*64

$GLGSV,3,3,10,87,02,281,,71,20,154,*66

$GNGNS,141414.0,,,,,NN,,,,,,*48

$GPVTG,,T,,M,,N,,K,N*2C

$GPGSA,A,1,,,,,,,,,,,,,,,*1E

$GNGSA,A,1,,,,,,,,,,,,,,,*00

$GPGGA,,,,,,0,,,,,,,,*66

$GPRMC,,V,,,,,,,,,,N*53

$GPGGA,,,,,,0,,,,,,,,*66

$GPRMC,,V,,,,,,,,,,N*53

$GPGSV,4,1,13,08,45,296,26,10,59,127,31,16,36,192,17,18,18,253,22*7F

$GPGSV,4,2,13,20,52,075,30,21,28,071,22,26,12,178,30,27,85,268,31*7A

$GPGSV,4,3,13,07,08,292,,11,05,271,,13,02,008,,15,11,037,*73

$GPGSV,4,4,13,30,07,322,*4C

$GLGSV,3,1,10,86,54,306,29,76,30,257,18,75,05,213,23,85,52,070,29*6C

$GLGSV,3,2,10,70,47,099,,77,26,322,,69,23,028,,84,01,091,*67

$GLGSV,3,3,10,87,02,281,,71,20,154,*66

$GPGSV,4,1,13,08,45,296,26,10,59,127,31,16,36,192,17,18,18,253,22*7F

$GPGSV,4,2,13,20,52,075,30,21,28,071,22,26,12,178,30,27,85,268,31*7A

$GPGSV,4,3,13,07,08,292,,11,05,271,,13,02,008,,15,11,037,*73

$GPGSV,4,4,13,30,07,322,*4C

$GLGSV,3,1,10,86,54,306,29,76,30,257,18,75,05,213,23,85,52,070,29*6C

$GLGSV,3,2,10,70,47,099,,77,26,322,,69,23,028,,84,01,091,*67

$GLGSV,3,3,10,87,02,281,,71,20,154,*66

$GPGGA,141415.0,5133.458925,N,00957.598669,E,1,08,0.9,226.5,M,47.0,M,,*5C

$GNGNS,141415.0,5133.458925,N,00957.598669,E,AA,12,0.9,226.5,47.0,,*63

$GPVTG,263.3,T,263.3,M,0.0,N,0.0,K,A*23

$GPRMC,141415.0,A,5133.458925,N,00957.598669,E,0.0,263.3,260619,0.0,E,A*0A

$GPGSA,A,2,08,10,16,18,20,21,26,27,,,,,1.2,0.9,0.8*36

$GNGSA,A,2,08,10,16,18,20,21,26,27,,,,,1.2,0.9,0.8*28

$GNGSA,A,2,75,76,85,86,,,,,,,,,1.2,0.9,0.8*2F

$GPGGA,141415.0,5133.458925,N,00957.598669,E,1,08,0.9,226.5,M,47.0,M,,*5C

$GNGNS,141415.0,5133.458925,N,00957.598669,E,AA,12,0.9,226.5,47.0,,*63

$GPVTG,263.3,T,263.3,M,0.0,N,0.0,K,A*23

$GPRMC,141415.0,A,5133.458925,N,00957.598669,E,0.0,263.3,260619,0.0,E,A*0A

$GPGSA,A,2,08,10,16,18,20,21,26,27,,,,,1.2,0.9,0.8*36

$GNGSA,A,2,08,10,16,18,20,21,26,27,,,,,1.2,0.9,0.8*28

$GNGSA,A,2,75,76,85,86,,,,,,,,,1.2,0.9,0.8*2F

$GPGSV,4,1,13,10,59,127,34,20,52,075,34,27,85,267,34,07,08,292,*7A

$GPGSV,4,2,13,08,45,296,,11,05,271,,13,02,008,,15,11,037,*70

$GPGSV,4,3,13,16,36,192,,18,18,253,,21,28,071,,26,12,178,*76

$GPGSV,4,4,13,30,07,322,*4C

$GLGSV,3,1,10,70,47,098,,86,55,306,,77,26,322,,76,30,257,*6D

$GLGSV,3,2,10,75,05,213,,69,23,028,,84,01,091,,87,02,281,*65

$GLGSV,3,3,10,85,52,070,,71,20,154,*6D

$GNGNS,141418.0,,,,,NN,,,,,,*44

$GPVTG,,T,,M,,N,,K,N*2C

$GPGSA,A,1,,,,,,,,,,,,,,,*1E

$GNGSA,A,1,,,,,,,,,,,,,,,*00

$GPGGA,,,,,,0,,,,,,,,*66

$GPRMC,,V,,,,,,,,,,N*53

$GPGSV,4,1,13,10,59,127,34,20,52,075,34,27,85,267,34,07,08,292,*7A

$GPGSV,4,2,13,08,45,296,,11,05,271,,13,02,008,,15,11,037,*70

$GPGSV,4,3,13,16,36,192,,18,18,253,,21,28,071,,26,12,178,*76

$GPGSV,4,4,13,30,07,322,*4C

$GLGSV,3,1,10,70,47,098,,86,55,306,,77,26,322,,76,30,257,*6D

$GLGSV,3,2,10,75,05,213,,69,23,028,,84,01,091,,87,02,281,*65

$GLGSV,3,3,10,85,52,070,,71,20,154,*6D

$GNGNS,141418.0,,,,,NN,,,,,,*44

$GPVTG,,T,,M,,N,,K,N*2C

$GPGSA,A,1,,,,,,,,,,,,,,,*1E

$GNGSA,A,1,,,,,,,,,,,,,,,*00

$GPGGA,,,,,,0,,,,,,,,*66

$GPRMC,,V,,,,,,,,,,N*53

$GPGSV,4,1,13,08,45,296,29,10,59,127,31,20,52,075,34,26,12,178,32*72

$GPGSV,4,2,13,27,85,267,33,07,08,292,,11,05,271,,13,02,008,*79

$GPGSV,4,3,13,15,11,037,,16,36,192,,18,18,253,,21,28,071,*7F

$GPGSV,4,4,13,30,07,322,*4C

$GLGSV,3,1,10,70,47,098,,86,55,306,,77,26,322,,76,30,257,*6D

$GLGSV,3,2,10,75,05,213,,69,23,028,,84,01,091,,87,02,281,*65

$GLGSV,3,3,10,85,52,070,,71,20,154,*6D

$GPGGA,141419.0,5133.457822,N,00957.601057,E,1,08,0.9,227.8,M,47.0,M,,*5D

$GNGNS,141419.0,5133.457822,N,00957.601057,E,AA,12,0.9,227.8,47.0,,*62

$GPVTG,263.3,T,263.3,M,0.0,N,0.0,K,A*23

$GPRMC,141419.0,A,5133.457822,N,00957.601057,E,0.0,263.3,260619,0.0,E,A*07

$GPGSA,A,2,08,10,16,18,20,21,26,27,,,,,1.2,0.9,0.8*36

$GNGSA,A,2,08,10,16,18,20,21,26,27,,,,,1.2,0.9,0.8*28

$GPGSV,4,1,13,08,45,296,29,10,59,127,31,20,52,075,34,26,12,178,32*72

$GPGSV,4,2,13,27,85,267,33,07,08,292,,11,05,271,,13,02,008,*79

$GPGSV,4,3,13,15,11,037,,16,36,192,,18,18,253,,21,28,071,*7F

$GPGSV,4,4,13,30,07,322,*4C

$GLGSV,3,1,10,70,47,098,,86,55,306,,77,26,322,,76,30,257,*6D

$GLGSV,3,2,10,75,05,213,,69,23,028,,84,01,091,,87,02,281,*65

$GLGSV,3,3,10,85,52,070,,71,20,154,*6D

$GPGGA,141419.0,5133.457822,N,00957.601057,E,1,08,0.9,227.8,M,47.0,M,,*5D

$GNGNS,141419.0,5133.457822,N,00957.601057,E,AA,12,0.9,227.8,47.0,,*62

$GPVTG,263.3,T,263.3,M,0.0,N,0.0,K,A*23

$GPRMC,141419.0,A,5133.457822,N,00957.601057,E,0.0,263.3,260619,0.0,E,A*07

$GPGSA,A,2,08,10,16,18,20,21,26,27,,,,,1.2,0.9,0.8*36

$GNGSA,A,2,08,10,16,18,20,21,26,27,,,,,1.2,0.9,0.8*28

$GNGSA,A,2,75,76,85,86,,,,,,,,,1.2,0.9,0.8*2F

$GNGSA,A,2,75,76,85,86,,,,,,,,,1.2,0.9,0.8*2F

$GPGSV,4,1,13,07,08,292,,08,45,296,,10,59,127,,11,05,271,*74

$GPGSV,4,2,13,13,02,008,,15,11,037,,16,36,192,,18,18,253,*79

$GPGSV,4,1,13,07,08,292,,08,45,296,,10,59,127,,11,05,271,*74

$GPGSV,4,2,13,13,02,008,,15,11,037,,16,36,192,,18,18,253,*79

$GPGSV,4,3,13,20,52,075,,21,28,071,,26,12,178,,27,85,267,*76

$GPGSV,4,4,13,30,07,322,*4C

$GLGSV,3,1,10,85,52,070,31,70,47,098,,86,55,306,,77,26,322,*60

$GLGSV,3,2,10,76,30,257,,75,05,213,,69,23,028,,84,01,091,*61

$GLGSV,3,3,10,87,02,281,,71,20,154,*66

$GPGSV,4,3,13,20,52,075,,21,28,071,,26,12,178,,27,85,267,*76

$GPGSV,4,4,13,30,07,322,*4C

$GLGSV,3,1,10,85,52,070,31,70,47,098,,86,55,306,,77,26,322,*60

$GLGSV,3,2,10,76,30,257,,75,05,213,,69,23,028,,84,01,091,*61

$GLGSV,3,3,10,87,02,281,,71,20,154,*66

$GNGNS,141421.1,,,,,NN,,,,,,*4F

$GPVTG,,T,,M,,N,,K,N*2C

$GPGSA,A,1,,,,,,,,,,,,,,,*1E

$GNGSA,A,1,,,,,,,,,,,,,,,*00

$GPGGA,,,,,,0,,,,,,,,*66

$GPRMC,,V,,,,,,,,,,N*53

$GNGNS,141421.1,,,,,NN,,,,,,*4F

$GPVTG,,T,,M,,N,,K,N*2C

$GPGSA,A,1,,,,,,,,,,,,,,,*1E

$GNGSA,A,1,,,,,,,,,,,,,,,*00

$GPGGA,,,,,,0,,,,,,,,*66

$GPRMC,,V,,,,,,,,,,N*53

$GPGSV,4,1,13,20,52,075,29,26,12,178,32,27,85,267,33,07,08,292,*77

$GPGSV,4,2,13,08,45,296,,10,59,127,,11,05,271,,13,02,008,*79

$GPGSV,4,3,13,15,11,037,,16,36,192,,18,18,253,,21,28,071,*7F

$GPGSV,4,4,13,30,07,322,*4C

$GLGSV,3,1,10,75,05,213,22,85,52,070,27,70,47,098,,86,55,306,*67

$GLGSV,3,2,10,77,26,322,,76,30,257,,69,23,028,,84,01,091,*61

$GLGSV,3,3,10,87,02,281,,71,20,154,*66

$GPGGA,141422.0,5133.457848,N,00957.602245,E,1,05,1.3,225.3,M,47.0,M,,*54

$GNGNS,141422.0,5133.457848,N,00957.602245,E,AA,07,1.3,225.3,47.0,,*62

$GPVTG,263.3,T,263.3,M,0.0,N,0.0,K,A*23

$GPRMC,141422.0,A,5133.457848,N,00957.602245,E,0.0,263.3,260619,0.0,E,A*01

$GPGSV,4,1,13,20,52,075,29,26,12,178,32,27,85,267,33,07,08,292,*77

$GPGSV,4,2,13,08,45,296,,10,59,127,,11,05,271,,13,02,008,*79

$GPGSV,4,3,13,15,11,037,,16,36,192,,18,18,253,,21,28,071,*7F

$GPGSV,4,4,13,30,07,322,*4C

$GLGSV,3,1,10,75,05,213,22,85,52,070,27,70,47,098,,86,55,306,*67

$GLGSV,3,2,10,77,26,322,,76,30,257,,69,23,028,,84,01,091,*61

$GLGSV,3,3,10,87,02,281,,71,20,154,*66

$GPGGA,141422.0,5133.457848,N,00957.602245,E,1,05,1.3,225.3,M,47.0,M,,*54

$GNGNS,141422.0,5133.457848,N,00957.602245,E,AA,07,1.3,225.3,47.0,,*62

$GPVTG,263.3,T,263.3,M,0.0,N,0.0,K,A*23

$GPRMC,141422.0,A,5133.457848,N,00957.602245,E,0.0,263.3,260619,0.0,E,A*01

$GPGSA,A,2,08,10,20,26,27,,,,,,,,1.6,1.3,0.9*35

$GNGSA,A,2,08,10,20,26,27,,,,,,,,1.6,1.3,0.9*2B

$GNGSA,A,2,75,85,,,,,,,,,,,1.6,1.3,0.9*2E

$GPGSA,A,2,08,10,20,26,27,,,,,,,,1.6,1.3,0.9*35

$GNGSA,A,2,08,10,20,26,27,,,,,,,,1.6,1.3,0.9*2B

$GNGSA,A,2,75,85,,,,,,,,,,,1.6,1.3,0.9*2E

$GPGSV,4,1,13,07,08,292,,08,45,296,,10,59,127,,11,05,271,*74

$GPGSV,4,2,13,13,02,008,,15,11,037,,16,36,192,,18,18,254,*7E

$GPGSV,4,3,13,20,52,075,,21,28,071,,26,11,178,,27,85,267,*75

$GPGSV,4,4,13,30,07,322,*4C

$GLGSV,3,1,10,70,47,098,,86,55,306,,77,26,320,,76,30,257,*6F

$GPGSV,4,1,13,07,08,292,,08,45,296,,10,59,127,,11,05,271,*74

$GPGSV,4,2,13,13,02,008,,15,11,037,,16,36,192,,18,18,254,*7E

$GPGSV,4,3,13,20,52,075,,21,28,071,,26,11,178,,27,85,267,*75

$GPGSV,4,4,13,30,07,322,*4C

$GLGSV,3,1,10,70,47,098,,86,55,306,,77,26,320,,76,30,257,*6F

$GLGSV,3,2,10,75,05,213,,69,23,028,,84,01,091,,87,02,281,*65

$GLGSV,3,3,10,85,52,070,,71,20,154,*6D

$GNGNS,141424.4,,,,,NN,,,,,,*4F

$GPVTG,,T,,M,,N,,K,N*2C

$GPGSA,A,1,,,,,,,,,,,,,,,*1E

$GNGSA,A,1,,,,,,,,,,,,,,,*00

$GPGGA,,,,,,0,,,,,,,,*66

$GPRMC,,V,,,,,,,,,,N*53

$GPGSV,4,1,13,07,08,292,,08,45,296,,10,59,127,,11,05,271,*74

$GPGSV,4,2,13,13,02,008,,15,11,037,,16,36,192,,18,18,254,*7E

$GPGSV,4,3,13,20,52,075,,21,28,071,,26,11,178,,27,85,267,*75

$GPGSV,4,4,13,30,07,322,*4C

$GLGSV,3,1,10,70,47,098,,86,55,306,,77,26,320,,76,30,257,*6F

$GLGSV,3,2,10,75,05,213,,69,23,028,,84,01,091,,87,02,281,*65

$GLGSV,3,3,10,85,52,070,,71,20,154,*6D

$GNGNS,141425.0,,,,,NN,,,,,,*4A

$GPVTG,,T,,M,,N,,K,N*2C

$GPGSA,A,1,,,,,,,,,,,,,,,*1E

$GNGSA,A,1,,,,,,,,,,,,,,,*00

$GPGGA,,,,,,0,,,,,,,,*66

$GPRMC,,V,,,,,,,,,,N*53

$GLGSV,3,2,10,75,05,213,,69,23,028,,84,01,091,,87,02,281,*65

$GLGSV,3,3,10,85,52,070,,71,20,154,*6D

$GNGNS,141424.4,,,,,NN,,,,,,*4F

$GPVTG,,T,,M,,N,,K,N*2C

$GPGSA,A,1,,,,,,,,,,,,,,,*1E

$GNGSA,A,1,,,,,,,,,,,,,,,*00

$GPGGA,,,,,,0,,,,,,,,*66

$GPRMC,,V,,,,,,,,,,N*53

$GPGSV,4,1,13,07,08,292,,08,45,296,,10,59,127,,11,05,271,*74

$GPGSV,4,2,13,13,02,008,,15,11,037,,16,36,192,,18,18,254,*7E

$GPGSV,4,3,13,20,52,075,,21,28,071,,26,11,178,,27,85,267,*75

$GPGSV,4,4,13,30,07,322,*4C

$GLGSV,3,1,10,70,47,098,,86,55,306,,77,26,320,,76,30,257,*6F

$GLGSV,3,2,10,75,05,213,,69,23,028,,84,01,091,,87,02,281,*65

$GLGSV,3,3,10,85,52,070,,71,20,154,*6D

$GNGNS,141425.0,,,,,NN,,,,,,*4A

$GPVTG,,T,,M,,N,,K,N*2C

$GPGSA,A,1,,,,,,,,,,,,,,,*1E

$GNGSA,A,1,,,,,,,,,,,,,,,*00

$GPGGA,,,,,,0,,,,,,,,*66

$GPRMC,,V,,,,,,,,,,N*53

$GPGSV,4,1,13,08,45,296,32,16,36,192,31,18,18,254,24,20,52,075,27*76

$GPGSV,4,2,13,21,28,071,23,26,11,178,27,07,08,292,,10,59,127,*73

$GPGSV,4,3,13,11,05,271,,13,02,008,,15,11,037,,27,85,267,*7E

$GPGSV,4,4,13,30,07,322,*4C

$GLGSV,3,1,10,69,23,028,18,70,47,098,,86,55,306,,77,26,320,*60

$GLGSV,3,2,10,76,30,257,,75,05,213,,84,01,091,,87,02,281,*63

$GLGSV,3,3,10,85,52,070,,71,20,154,*6D

$GPGGA,141426.0,5133.457966,N,00957.602990,E,1,07,0.9,225.0,M,47.0,M,,*54

$GNGNS,141426.0,5133.457966,N,00957.602990,E,AA,10,0.9,225.0,47.0,,*66

$GPVTG,263.3,T,263.3,M,0.0,N,0.0,K,A*23

$GPRMC,141426.0,A,5133.457966,N,00957.602990,E,0.0,263.3,260619,0.0,E,A*0B

$GPGSA,A,2,08,16,18,20,21,26,27,,,,,,1.2,0.9,0.8*37

$GPGSV,4,1,13,08,45,296,32,16,36,192,31,18,18,254,24,20,52,075,27*76

$GPGSV,4,2,13,21,28,071,23,26,11,178,27,07,08,292,,10,59,127,*73

$GPGSV,4,3,13,11,05,271,,13,02,008,,15,11,037,,27,85,267,*7E

$GPGSV,4,4,13,30,07,322,*4C

$GLGSV,3,1,10,69,23,028,18,70,47,098,,86,55,306,,77,26,320,*60

$GLGSV,3,2,10,76,30,257,,75,05,213,,84,01,091,,87,02,281,*63

$GLGSV,3,3,10,85,52,070,,71,20,154,*6D

$GPGGA,141426.0,5133.457966,N,00957.602990,E,1,07,0.9,225.0,M,47.0,M,,*54

$GNGNS,141426.0,5133.457966,N,00957.602990,E,AA,10,0.9,225.0,47.0,,*66

$GPVTG,263.3,T,263.3,M,0.0,N,0.0,K,A*23

$GPRMC,141426.0,A,5133.457966,N,00957.602990,E,0.0,263.3,260619,0.0,E,A*0B

$GPGSA,A,2,08,16,18,20,21,26,27,,,,,,1.2,0.9,0.8*37

$GNGSA,A,2,08,16,18,20,21,26,27,,,,,,1.2,0.9,0.8*29

$GNGSA,A,2,69,75,85,,,,,,,,,,1.2,0.9,0.8*2F

$GNGSA,A,2,08,16,18,20,21,26,27,,,,,,1.2,0.9,0.8*29

$GNGSA,A,2,69,75,85,,,,,,,,,,1.2,0.9,0.8*2F

$GPGSV,4,1,13,07,08,292,,08,45,296,,10,59,127,,11,05,271,*74

$GPGSV,4,1,13,07,08,292,,08,45,296,,10,59,127,,11,05,271,*74

$GPGSV,4,2,13,13,02,008,,15,11,037,,16,36,192,,18,18,254,*7E

$GPGSV,4,3,13,20,52,075,,21,28,071,,26,11,178,,27,85,267,*75

$GPGSV,4,2,13,13,02,008,,15,11,037,,16,36,192,,18,18,254,*7E

$GPGSV,4,3,13,20,52,075,,21,28,071,,26,11,178,,27,85,267,*75

$GPGSV,4,4,13,30,07,322,*4C

$GLGSV,3,1,10,86,55,306,32,70,47,098,,77,26,320,,76,30,257,*6E

$GLGSV,3,2,10,75,05,213,,69,23,028,,84,01,091,,87,02,281,*65

$GLGSV,3,3,10,85,52,070,,71,20,154,*6D

$GNGNS,141428.3,,,,,NN,,,,,,*44

$GPVTG,,T,,M,,N,,K,N*2C

$GPGSA,A,1,,,,,,,,,,,,,,,*1E

$GNGSA,A,1,,,,,,,,,,,,,,,*00

$GPGGA,,,,,,0,,,,,,,,*66

$GPRMC,,V,,,,,,,,,,N*53

$GPGSV,4,1,13,27,85,267,31,07,08,292,,08,45,296,,10,59,127,*7C

$GPGSV,4,2,13,11,05,271,,13,02,008,,15,11,037,,16,36,192,*7C

$GPGSV,4,3,13,18,18,254,,20,52,075,,21,28,071,,26,11,178,*7D

$GPGSV,4,4,13,30,07,322,*4C

$GLGSV,3,1,10,86,55,306,32,70,47,098,,77,26,320,,76,30,257,*6E

$GLGSV,3,2,10,75,05,213,,69,23,028,,84,01,091,,87,02,281,*65

$GLGSV,3,3,10,85,52,070,,71,20,154,*6D

$GNGNS,141429.0,,,,,NN,,,,,,*46

$GPVTG,,T,,M,,N,,K,N*2C

$GPGSA,A,1,,,,,,,,,,,,,,,*1E

$GNGSA,A,1,,,,,,,,,,,,,,,*00

$GPGGA,,,,,,0,,,,,,,,*66

$GPRMC,,V,,,,,,,,,,N*53

$GPGSV,4,4,13,30,07,322,*4C

$GLGSV,3,1,10,86,55,306,32,70,47,098,,77,26,320,,76,30,257,*6E

$GLGSV,3,2,10,75,05,213,,69,23,028,,84,01,091,,87,02,281,*65

$GLGSV,3,3,10,85,52,070,,71,20,154,*6D

$GNGNS,141428.3,,,,,NN,,,,,,*44

$GPVTG,,T,,M,,N,,K,N*2C

$GPGSA,A,1,,,,,,,,,,,,,,,*1E

$GNGSA,A,1,,,,,,,,,,,,,,,*00

$GPGGA,,,,,,0,,,,,,,,*66

$GPRMC,,V,,,,,,,,,,N*53

$GPGSV,4,1,13,27,85,267,31,07,08,292,,08,45,296,,10,59,127,*7C

$GPGSV,4,2,13,11,05,271,,13,02,008,,15,11,037,,16,36,192,*7C

$GPGSV,4,3,13,18,18,254,,20,52,075,,21,28,071,,26,11,178,*7D

$GPGSV,4,4,13,30,07,322,*4C

$GLGSV,3,1,10,86,55,306,32,70,47,098,,77,26,320,,76,30,257,*6E

$GLGSV,3,2,10,75,05,213,,69,23,028,,84,01,091,,87,02,281,*65

$GLGSV,3,3,10,85,52,070,,71,20,154,*6D

$GNGNS,141429.0,,,,,NN,,,,,,*46

$GPVTG,,T,,M,,N,,K,N*2C

$GPGSA,A,1,,,,,,,,,,,,,,,*1E

$GNGSA,A,1,,,,,,,,,,,,,,,*00

$GPGGA,,,,,,0,,,,,,,,*66

$GPRMC,,V,,,,,,,,,,N*53

$GPGSV,4,1,13,08,45,296,29,10,59,127,24,16,36,192,26,20,52,075,28*7F

$GPGSV,4,2,13,21,28,071,24,27,85,267,30,07,08,292,,11,05,271,*7B

$GPGSV,4,3,13,13,02,008,,15,11,037,,18,18,254,,26,11,178,*7D

$GPGSV,4,4,13,30,07,322,*4C

$GLGSV,3,1,10,70,47,098,20,86,55,306,33,75,05,213,19,85,52,070,23*69

$GLGSV,3,2,10,71,20,154,19,77,26,320,,76,30,257,,69,23,028,*6A

$GLGSV,3,3,10,84,01,091,,87,02,281,*67

$GPGGA,141430.0,5133.458393,N,00957.603884,E,1,08,0.8,220.9,M,47.0,M,,*5B

$GNGNS,141430.0,5133.458393,N,00957.603884,E,AA,13,0.8,220.9,47.0,,*65

$GPVTG,263.3,T,263.3,M,0.0,N,0.0,K,A*23

$GPRMC,141430.0,A,5133.458393,N,00957.603884,E,0.0,263.3,260619,0.0,E,A*06

$GPGSA,A,2,08,10,16,18,20,21,26,27,,,,,1.1,0.8,0.8*34

$GNGSA,A,2,08,10,16,18,20,21,26,27,,,,,1.1,0.8,0.8*2A

$GPGSV,4,1,13,08,45,296,29,10,59,127,24,16,36,192,26,20,52,075,28*7F

$GPGSV,4,2,13,21,28,071,24,27,85,267,30,07,08,292,,11,05,271,*7B

$GPGSV,4,3,13,13,02,008,,15,11,037,,18,18,254,,26,11,178,*7D

$GPGSV,4,4,13,30,07,322,*4C

$GLGSV,3,1,10,70,47,098,20,86,55,306,33,75,05,213,19,85,52,070,23*69

$GLGSV,3,2,10,71,20,154,19,77,26,320,,76,30,257,,69,23,028,*6A

$GLGSV,3,3,10,84,01,091,,87,02,281,*67

$GPGGA,141430.0,5133.458393,N,00957.603884,E,1,08,0.8,220.9,M,47.0,M,,*5B

$GNGNS,141430.0,5133.458393,N,00957.603884,E,AA,13,0.8,220.9,47.0,,*65

$GPVTG,263.3,T,263.3,M,0.0,N,0.0,K,A*23

$GPRMC,141430.0,A,5133.458393,N,00957.603884,E,0.0,263.3,260619,0.0,E,A*06

$GPGSA,A,2,08,10,16,18,20,21,26,27,,,,,1.1,0.8,0.8*34

$GNGSA,A,2,08,10,16,18,20,21,26,27,,,,,1.1,0.8,0.8*2A

$GNGSA,A,2,69,71,75,85,86,,,,,,,,1.1,0.8,0.8*25

$GNGSA,A,2,69,71,75,85,86,,,,,,,,1.1,0.8,0.8*25

$GPGSV,4,1,13,07,08,292,,08,45,296,,10,59,127,,11,05,271,*74

$GPGSV,4,1,13,07,08,292,,08,45,296,,10,59,127,,11,05,271,*74

$GPGSV,4,2,13,13,02,008,,15,11,037,,16,36,192,,18,18,254,*7E

$GPGSV,4,3,13,20,52,075,,21,28,071,,26,11,178,,27,85,267,*75

$GPGSV,4,2,13,13,02,008,,15,11,037,,16,36,192,,18,18,254,*7E

$GPGSV,4,3,13,20,52,075,,21,28,071,,26,11,178,,27,85,267,*75

$GPGSV,4,4,13,30,07,322,*4C

$GLGSV,3,1,10,86,55,306,33,70,47,098,,77,26,320,,76,30,257,*6F

$GLGSV,3,2,10,75,05,213,,69,23,028,,84,01,091,,87,02,281,*65

$GLGSV,3,3,10,85,52,070,,71,20,154,*6D

$GNGNS,141432.1,,,,,NN,,,,,,*4D

$GPVTG,,T,,M,,N,,K,N*2C

$GPGSA,A,1,,,,,,,,,,,,,,,*1E

$GNGSA,A,1,,,,,,,,,,,,,,,*00

$GPGGA,,,,,,0,,,,,,,,*66

$GPRMC,,V,,,,,,,,,,N*53

$GPGSV,4,4,13,30,07,322,*4C

$GLGSV,3,1,10,86,55,306,33,70,47,098,,77,26,320,,76,30,257,*6F

$GLGSV,3,2,10,75,05,213,,69,23,028,,84,01,091,,87,02,281,*65

$GLGSV,3,3,10,85,52,070,,71,20,154,*6D

$GNGNS,141432.1,,,,,NN,,,,,,*4D

$GPVTG,,T,,M,,N,,K,N*2C

$GPGSA,A,1,,,,,,,,,,,,,,,*1E

$GNGSA,A,1,,,,,,,,,,,,,,,*00

$GPGGA,,,,,,0,,,,,,,,*66

$GPRMC,,V,,,,,,,,,,N*53

$GPGSV,4,1,13,26,11,178,30,27,85,267,33,07,08,292,,08,45,296,*7E

$GPGSV,4,2,13,10,59,127,,11,05,271,,13,02,008,,15,11,037,*7D

$GPGSV,4,3,13,16,36,192,,18,18,254,,20,52,075,,21,28,071,*7F

$GPGSV,4,4,13,30,07,322,*4C

$GLGSV,3,1,10,86,55,306,32,75,05,213,22,85,52,070,24,70,47,098,*65

$GLGSV,3,2,10,77,26,320,,76,30,257,,69,23,028,,84,01,091,*63

$GLGSV,3,3,10,87,02,281,,71,20,154,*66

$GPGGA,141433.0,5133.459116,N,00957.604175,E,1,07,0.9,218.0,M,47.0,M,,*5A

$GNGNS,141433.0,5133.459116,N,00957.604175,E,AA,11,0.9,218.0,47.0,,*69

$GPVTG,263.3,T,263.3,M,0.0,N,0.0,K,A*23

$GPGSV,4,1,13,26,11,178,30,27,85,267,33,07,08,292,,08,45,296,*7E

$GPGSV,4,2,13,10,59,127,,11,05,271,,13,02,008,,15,11,037,*7D

$GPGSV,4,3,13,16,36,192,,18,18,254,,20,52,075,,21,28,071,*7F

$GPGSV,4,4,13,30,07,322,*4C

$GLGSV,3,1,10,86,55,306,32,75,05,213,22,85,52,070,24,70,47,098,*65

$GLGSV,3,2,10,77,26,320,,76,30,257,,69,23,028,,84,01,091,*63

$GLGSV,3,3,10,87,02,281,,71,20,154,*66

$GPGGA,141433.0,5133.459116,N,00957.604175,E,1,07,0.9,218.0,M,47.0,M,,*5A

$GNGNS,141433.0,5133.459116,N,00957.604175,E,AA,11,0.9,218.0,47.0,,*69

$GPVTG,263.3,T,263.3,M,0.0,N,0.0,K,A*23

$GPRMC,141433.0,A,5133.459116,N,00957.604175,E,0.0,263.3,260619,0.0,E,A*0B

$GPGSA,A,2,08,10,16,20,21,26,27,,,,,,1.3,0.9,0.8*3E

$GNGSA,A,2,08,10,16,20,21,26,27,,,,,,1.3,0.9,0.8*20

$GNGSA,A,2,71,75,85,86,,,,,,,,,1.3,0.9,0.8*29

$GPRMC,141433.0,A,5133.459116,N,00957.604175,E,0.0,263.3,260619,0.0,E,A*0B

$GPGSA,A,2,08,10,16,20,21,26,27,,,,,,1.3,0.9,0.8*3E

$GNGSA,A,2,08,10,16,20,21,26,27,,,,,,1.3,0.9,0.8*20

$GNGSA,A,2,71,75,85,86,,,,,,,,,1.3,0.9,0.8*29

$GPGSV,4,1,13,07,08,292,,08,45,296,,10,59,127,,11,05,271,*74

$GPGSV,4,1,13,07,08,292,,08,45,296,,10,59,127,,11,05,271,*74

$GPGSV,4,2,13,13,02,008,,15,11,037,,16,36,192,,18,18,254,*7E

$GPGSV,4,3,13,20,52,075,,21,27,071,,26,11,178,,27,85,265,*78

$GPGSV,4,2,13,13,02,008,,15,11,037,,16,36,192,,18,18,254,*7E

$GPGSV,4,3,13,20,52,075,,21,27,071,,26,11,178,,27,85,265,*78

$GPGSV,4,4,13,30,07,320,*4E

$GLGSV,3,1,10,86,55,306,28,70,47,098,,77,26,320,,76,30,257,*65

$GLGSV,3,2,10,75,05,213,,69,23,028,,84,01,091,,87,02,281,*65

$GLGSV,3,3,10,85,52,070,,71,20,154,*6D

$GNGNS,141435.9,,,,,NN,,,,,,*42

$GPVTG,,T,,M,,N,,K,N*2C

$GPGSA,A,1,,,,,,,,,,,,,,,*1E

$GNGSA,A,1,,,,,,,,,,,,,,,*00

$GPGSV,4,4,13,30,07,320,*4E

$GLGSV,3,1,10,86,55,306,28,70,47,098,,77,26,320,,76,30,257,*65

$GLGSV,3,2,10,75,05,213,,69,23,028,,84,01,091,,87,02,281,*65

$GLGSV,3,3,10,85,52,070,,71,20,154,*6D

$GNGNS,141435.9,,,,,NN,,,,,,*42

$GPVTG,,T,,M,,N,,K,N*2C

$GPGSA,A,1,,,,,,,,,,,,,,,*1E

$GNGSA,A,1,,,,,,,,,,,,,,,*00

$GPGGA,,,,,,0,,,,,,,,*66

$GPRMC,,V,,,,,,,,,,N*53

$GPGGA,,,,,,0,,,,,,,,*66

$GPRMC,,V,,,,,,,,,,N*53

$GPGSV,4,1,13,16,36,192,25,21,27,071,25,26,11,178,30,07,08,292,*79

$GPGSV,4,2,13,08,45,296,,10,59,127,,11,05,271,,13,02,008,*79

$GPGSV,4,3,13,15,11,037,,18,18,254,,20,52,075,,27,85,265,*71

$GPGSV,4,4,13,30,07,320,*4E

$GLGSV,3,1,10,86,55,306,30,75,05,213,23,85,52,070,29,70,47,098,*6B

$GLGSV,3,2,10,77,26,320,,76,30,257,,69,23,028,,84,01,091,*63

$GLGSV,3,3,10,87,02,281,,71,20,154,*66

$GPGSV,4,1,13,16,36,192,25,21,27,071,25,26,11,178,30,07,08,292,*79

$GPGSV,4,2,13,08,45,296,,10,59,127,,11,05,271,,13,02,008,*79

$GPGSV,4,3,13,15,11,037,,18,18,254,,20,52,075,,27,85,265,*71

$GPGSV,4,4,13,30,07,320,*4E

$GLGSV,3,1,10,86,55,306,30,75,05,213,23,85,52,070,29,70,47,098,*6B

$GLGSV,3,2,10,77,26,320,,76,30,257,,69,23,028,,84,01,091,*63

$GLGSV,3,3,10,87,02,281,,71,20,154,*66

$GPGGA,141437.0,5133.459276,N,00957.604457,E,1,04,1.4,218.5,M,47.0,M,,*54

$GNGNS,141437.0,5133.459276,N,00957.604457,E,AA,07,1.4,218.5,47.0,,*63

$GPVTG,263.3,T,263.3,M,0.0,N,0.0,K,A*23

$GPRMC,141437.0,A,5133.459276,N,00957.604457,E,0.0,263.3,260619,0.0,E,A*0F

$GPGSA,A,2,16,21,26,27,,,,,,,,,1.6,1.4,0.9*3D

$GNGSA,A,2,16,21,26,27,,,,,,,,,1.6,1.4,0.9*23

$GNGSA,A,2,75,85,86,,,,,,,,,,1.6,1.4,0.9*27

$GPGGA,141437.0,5133.459276,N,00957.604457,E,1,04,1.4,218.5,M,47.0,M,,*54

$GNGNS,141437.0,5133.459276,N,00957.604457,E,AA,07,1.4,218.5,47.0,,*63

$GPVTG,263.3,T,263.3,M,0.0,N,0.0,K,A*23

$GPRMC,141437.0,A,5133.459276,N,00957.604457,E,0.0,263.3,260619,0.0,E,A*0F

$GPGSA,A,2,16,21,26,27,,,,,,,,,1.6,1.4,0.9*3D

$GNGSA,A,2,16,21,26,27,,,,,,,,,1.6,1.4,0.9*23

$GNGSA,A,2,75,85,86,,,,,,,,,,1.6,1.4,0.9*27

$GPGSV,4,1,13,27,85,265,33,07,08,292,,08,45,296,,10,59,127,*7C

$GPGSV,4,2,13,11,05,271,,13,02,008,,15,11,037,,16,36,192,*7C

$GPGSV,4,3,13,18,18,254,,20,52,075,,21,27,071,,26,11,178,*72

$GPGSV,4,4,13,30,07,320,*4E

$GPGSV,4,1,13,27,85,265,33,07,08,292,,08,45,296,,10,59,127,*7C

$GPGSV,4,2,13,11,05,271,,13,02,008,,15,11,037,,16,36,192,*7C

$GPGSV,4,3,13,18,18,254,,20,52,075,,21,27,071,,26,11,178,*72

$GPGSV,4,4,13,30,07,320,*4E

$GLGSV,3,1,10,70,47,098,,86,55,306,,77,26,320,,76,30,257,*6F

$GLGSV,3,2,10,75,05,213,,69,23,028,,84,01,091,,87,02,281,*65

$GLGSV,3,3,10,85,52,070,,71,20,154,*6D

$GNGNS,141439.8,,,,,NN,,,,,,*4F

$GPVTG,,T,,M,,N,,K,N*2C

$GPGSA,A,1,,,,,,,,,,,,,,,*1E

$GNGSA,A,1,,,,,,,,,,,,,,,*00

$GPGGA,,,,,,0,,,,,,,,*66

$GPRMC,,V,,,,,,,,,,N*53

$GLGSV,3,1,10,70,47,098,,86,55,306,,77,26,320,,76,30,257,*6F

$GLGSV,3,2,10,75,05,213,,69,23,028,,84,01,091,,87,02,281,*65

$GLGSV,3,3,10,85,52,070,,71,20,154,*6D

$GNGNS,141439.8,,,,,NN,,,,,,*4F

$GPVTG,,T,,M,,N,,K,N*2C

$GPGSA,A,1,,,,,,,,,,,,,,,*1E

$GNGSA,A,1,,,,,,,,,,,,,,,*00

$GPGGA,,,,,,0,,,,,,,,*66

$GPRMC,,V,,,,,,,,,,N*53

$GPGSV,4,1,13,08,45,296,32,16,36,192,28,20,52,075,30,27,85,265,32*75

$GPGSV,4,2,13,07,08,292,,10,59,127,,11,05,271,,13,02,008,*7B

$GPGSV,4,3,13,15,11,037,,18,18,254,,21,27,071,,26,11,178,*75

$GPGSV,4,4,13,30,07,320,*4E

$GLGSV,3,1,10,85,52,070,23,70,47,098,,86,55,306,,77,26,320,*61

$GLGSV,3,2,10,76,30,257,,75,05,213,,69,23,028,,84,01,091,*61

$GLGSV,3,3,10,87,02,281,,71,20,154,*66

$GPGGA,141441.0,5133.459022,N,00957.605113,E,1,06,1.0,219.2,M,47.0,M,,*52

$GNGNS,141441.0,5133.459022,N,00957.605113,E,AA,09,1.0,219.2,47.0,,*69

$GPVTG,263.3,T,263.3,M,0.0,N,0.0,K,A*23

$GPRMC,141441.0,A,5133.459022,N,00957.605113,E,0.0,263.3,260619,0.0,E,A*09

$GPGSA,A,2,08,16,20,21,26,27,,,,,,,1.4,1.0,0.9*31

$GNGSA,A,2,08,16,20,21,26,27,,,,,,,1.4,1.0,0.9*2F

$GNGSA,A,2,75,85,86,,,,,,,,,,1.4,1.0,0.9*21

$GPGSV,4,1,13,08,45,296,32,16,36,192,28,20,52,075,30,27,85,265,32*75

$GPGSV,4,2,13,07,08,292,,10,59,127,,11,05,271,,13,02,008,*7B

$GPGSV,4,3,13,15,11,037,,18,18,254,,21,27,071,,26,11,178,*75

$GPGSV,4,4,13,30,07,320,*4E

$GLGSV,3,1,10,85,52,070,23,70,47,098,,86,55,306,,77,26,320,*61

$GLGSV,3,2,10,76,30,257,,75,05,213,,69,23,028,,84,01,091,*61

$GLGSV,3,3,10,87,02,281,,71,20,154,*66

$GPGGA,141441.0,5133.459022,N,00957.605113,E,1,06,1.0,219.2,M,47.0,M,,*52

$GNGNS,141441.0,5133.459022,N,00957.605113,E,AA,09,1.0,219.2,47.0,,*69

$GPVTG,263.3,T,263.3,M,0.0,N,0.0,K,A*23

$GPRMC,141441.0,A,5133.459022,N,00957.605113,E,0.0,263.3,260619,0.0,E,A*09

$GPGSA,A,2,08,16,20,21,26,27,,,,,,,1.4,1.0,0.9*31

$GNGSA,A,2,08,16,20,21,26,27,,,,,,,1.4,1.0,0.9*2F

$GNGSA,A,2,75,85,86,,,,,,,,,,1.4,1.0,0.9*21

$GPGSV,4,1,13,07,08,292,,08,45,296,,10,59,127,,11,05,271,*74

$GPGSV,4,2,13,13,02,008,,15,11,037,,16,36,192,,18,18,254,*7E

$GPGSV,4,3,13,20,52,075,,21,27,073,,26,11,178,,27,85,265,*7A

$GPGSV,4,4,13,30,07,320,*4E

$GLGSV,3,1,10,70,47,098,,86,55,306,,77,26,320,,76,30,257,*6F

$GLGSV,3,2,10,75,05,213,,69,23,028,,84,01,091,,87,02,281,*65

$GLGSV,3,3,10,85,52,070,,71,20,154,*6D

$GNGNS,141443.3,,,,,NN,,,,,,*49

$GPVTG,,T,,M,,N,,K,N*2C

$GPGSA,A,1,,,,,,,,,,,,,,,*1E

$GNGSA,A,1,,,,,,,,,,,,,,,*00

$GPGGA,,,,,,0,,,,,,,,*66

$GPRMC,,V,,,,,,,,,,N*53

$GPGSV,4,1,13,07,08,292,,08,45,296,,10,59,127,,11,05,271,*74

$GPGSV,4,2,13,13,02,008,,15,11,037,,16,36,192,,18,18,254,*7E

$GPGSV,4,3,13,20,52,075,,21,27,073,,26,11,178,,27,85,265,*7A

$GPGSV,4,4,13,30,07,320,*4E

$GLGSV,3,1,10,70,47,098,,86,55,306,,77,26,320,,76,30,257,*6F

$GLGSV,3,2,10,75,05,213,,69,23,028,,84,01,091,,87,02,281,*65

$GLGSV,3,3,10,85,52,070,,71,20,154,*6D

$GNGNS,141444.0,,,,,NN,,,,,,*4D

$GPVTG,,T,,M,,N,,K,N*2C

$GPGSA,A,1,,,,,,,,,,,,,,,*1E

$GNGSA,A,1,,,,,,,,,,,,,,,*00

$GPGGA,,,,,,0,,,,,,,,*66

$GPRMC,,V,,,,,,,,,,N*53

$GPGSV,4,1,13,07,08,292,,08,45,296,,10,59,127,,11,05,271,*74

$GPGSV,4,2,13,13,02,008,,15,11,037,,16,36,192,,18,18,254,*7E

$GPGSV,4,3,13,20,52,075,,21,27,073,,26,11,178,,27,85,265,*7A

$GPGSV,4,4,13,30,07,320,*4E

$GLGSV,3,1,10,70,47,098,,86,55,306,,77,26,320,,76,30,257,*6F

$GLGSV,3,2,10,75,05,213,,69,23,028,,84,01,091,,87,02,281,*65

$GLGSV,3,3,10,85,52,070,,71,20,154,*6D

$GNGNS,141443.3,,,,,NN,,,,,,*49

$GPVTG,,T,,M,,N,,K,N*2C

$GPGSA,A,1,,,,,,,,,,,,,,,*1E

$GNGSA,A,1,,,,,,,,,,,,,,,*00

$GPGGA,,,,,,0,,,,,,,,*66

$GPRMC,,V,,,,,,,,,,N*53

$GPGSV,4,1,13,07,08,292,,08,45,296,,10,59,127,,11,05,271,*74

$GPGSV,4,2,13,13,02,008,,15,11,037,,16,36,192,,18,18,254,*7E

$GPGSV,4,3,13,20,52,075,,21,27,073,,26,11,178,,27,85,265,*7A

$GPGSV,4,4,13,30,07,320,*4E

$GLGSV,3,1,10,70,47,098,,86,55,306,,77,26,320,,76,30,257,*6F

$GLGSV,3,2,10,75,05,213,,69,23,028,,84,01,091,,87,02,281,*65

$GLGSV,3,3,10,85,52,070,,71,20,154,*6D

$GNGNS,141444.0,,,,,NN,,,,,,*4D

$GPVTG,,T,,M,,N,,K,N*2C

$GPGSA,A,1,,,,,,,,,,,,,,,*1E

$GNGSA,A,1,,,,,,,,,,,,,,,*00

$GPGGA,,,,,,0,,,,,,,,*66

$GPRMC,,V,,,,,,,,,,N*53

$GPGSV,4,1,13,08,45,296,31,16,36,192,31,20,52,075,31,21,27,073,19*7D

$GPGSV,4,1,13,08,45,296,31,16,36,192,31,20,52,075,31,21,27,073,19*7D

$GPGSV,4,2,13,26,11,178,30,07,08,292,,10,59,127,,11,05,271,*7A

$GPGSV,4,3,13,13,02,008,,15,11,037,,18,18,254,,27,85,265,*7E

$GPGSV,4,2,13,26,11,178,30,07,08,292,,10,59,127,,11,05,271,*7A

$GPGSV,4,3,13,13,02,008,,15,11,037,,18,18,254,,27,85,265,*7E

$GPGSV,4,4,13,30,07,320,*4E

$GLGSV,3,1,10,70,47,098,,86,55,306,,77,26,320,,76,30,257,*6F

$GLGSV,3,2,10,75,05,213,,69,23,028,,84,01,091,,87,02,281,*65

$GLGSV,3,3,10,85,52,070,,71,20,154,*6D

$GPGGA,141445.0,5133.459020,N,00957.605485,E,1,06,1.2,218.4,M,47.0,M,,*5B

$GNGNS,141445.0,5133.459020,N,00957.605485,E,AA,07,1.2,218.4,47.0,,*6E

$GPVTG,263.3,T,263.3,M,0.0,N,0.0,K,A*23

$GPRMC,141445.0,A,5133.459020,N,00957.605485,E,0.0,263.3,260619,0.0,E,A*05

$GPGSV,4,4,13,30,07,320,*4E

$GLGSV,3,1,10,70,47,098,,86,55,306,,77,26,320,,76,30,257,*6F

$GLGSV,3,2,10,75,05,213,,69,23,028,,84,01,091,,87,02,281,*65

$GLGSV,3,3,10,85,52,070,,71,20,154,*6D

$GPGGA,141445.0,5133.459020,N,00957.605485,E,1,06,1.2,218.4,M,47.0,M,,*5B

$GNGNS,141445.0,5133.459020,N,00957.605485,E,AA,07,1.2,218.4,47.0,,*6E

$GPVTG,263.3,T,263.3,M,0.0,N,0.0,K,A*23

$GPRMC,141445.0,A,5133.459020,N,00957.605485,E,0.0,263.3,260619,0.0,E,A*05

$GPGSA,A,2,08,16,20,21,26,27,,,,,,,1.5,1.2,0.9*32

$GNGSA,A,2,08,16,20,21,26,27,,,,,,,1.5,1.2,0.9*2C

$GNGSA,A,2,85,,,,,,,,,,,,1.5,1.2,0.9*2E

$GPGSA,A,2,08,16,20,21,26,27,,,,,,,1.5,1.2,0.9*32

$GNGSA,A,2,08,16,20,21,26,27,,,,,,,1.5,1.2,0.9*2C

$GNGSA,A,2,85,,,,,,,,,,,,1.5,1.2,0.9*2E

$GPGSV,4,1,13,07,08,292,,08,45,296,,10,59,127,,11,05,271,*74

$GPGSV,4,2,13,13,02,008,,15,11,037,,16,36,192,,18,18,254,*7E

$GPGSV,4,1,13,07,08,292,,08,45,296,,10,59,127,,11,05,271,*74

$GPGSV,4,2,13,13,02,008,,15,11,037,,16,36,192,,18,18,254,*7E

$GPGSV,4,3,13,20,52,075,,21,27,073,,26,11,178,,27,85,264,*7B

$GPGSV,4,4,13,30,07,320,*4E

$GLGSV,3,1,10,70,47,098,,86,55,307,,77,26,320,,76,30,257,*6E

$GLGSV,3,2,10,75,05,213,,69,23,028,,84,01,091,,87,02,281,*65

$GLGSV,3,3,10,85,52,070,,71,20,154,*6D

$GPGSV,4,3,13,20,52,075,,21,27,073,,26,11,178,,27,85,264,*7B

$GPGSV,4,4,13,30,07,320,*4E

$GLGSV,3,1,10,70,47,098,,86,55,307,,77,26,320,,76,30,257,*6E

$GLGSV,3,2,10,75,05,213,,69,23,028,,84,01,091,,87,02,281,*65

$GLGSV,3,3,10,85,52,070,,71,20,154,*6D

$GNGNS,141447.4,,,,,NN,,,,,,*4A

$GPVTG,,T,,M,,N,,K,N*2C

$GPGSA,A,1,,,,,,,,,,,,,,,*1E

$GNGSA,A,1,,,,,,,,,,,,,,,*00

$GPGGA,,,,,,0,,,,,,,,*66

$GPRMC,,V,,,,,,,,,,N*53

$GPGSV,4,1,13,07,08,292,,08,45,296,,10,59,127,,11,05,271,*74

$GPGSV,4,2,13,13,02,008,,15,11,037,,16,36,192,,18,18,254,*7E

$GPGSV,4,3,13,20,52,075,,21,27,073,,26,11,178,,27,85,264,*7B

$GPGSV,4,4,13,30,07,320,*4E

$GLGSV,3,1,10,70,47,098,,86,55,307,,77,26,320,,76,30,257,*6E

$GLGSV,3,2,10,75,05,213,,69,23,028,,84,01,091,,87,02,281,*65

$GNGNS,141447.4,,,,,NN,,,,,,*4A

$GPVTG,,T,,M,,N,,K,N*2C

$GPGSA,A,1,,,,,,,,,,,,,,,*1E

$GNGSA,A,1,,,,,,,,,,,,,,,*00

$GPGGA,,,,,,0,,,,,,,,*66

$GPRMC,,V,,,,,,,,,,N*53

$GPGSV,4,1,13,07,08,292,,08,45,296,,10,59,127,,11,05,271,*74

$GPGSV,4,2,13,13,02,008,,15,11,037,,16,36,192,,18,18,254,*7E

$GPGSV,4,3,13,20,52,075,,21,27,073,,26,11,178,,27,85,264,*7B

$GPGSV,4,4,13,30,07,320,*4E

$GLGSV,3,1,10,70,47,098,,86,55,307,,77,26,320,,76,30,257,*6E

$GLGSV,3,2,10,75,05,213,,69,23,028,,84,01,091,,87,02,281,*65

$GLGSV,3,3,10,85,52,070,,71,20,154,*6D

$GNGNS,141448.0,,,,,NN,,,,,,*41

$GPVTG,,T,,M,,N,,K,N*2C

$GPGSA,A,1,,,,,,,,,,,,,,,*1E

$GNGSA,A,1,,,,,,,,,,,,,,,*00

$GPGGA,,,,,,0,,,,,,,,*66

$GPRMC,,V,,,,,,,,,,N*53

$GPGSV,4,1,13,08,45,296,32,16,36,192,29,18,18,254,21,20,52,075,32*7E

$GPGSV,4,2,13,26,11,178,31,27,85,264,33,07,08,292,,10,59,127,*72

$GPGSV,4,3,13,11,05,271,,13,02,008,,15,11,037,,21,27,073,*77

$GPGSV,4,4,13,30,07,320,*4E

$GLGSV,3,1,10,71,20,154,20,70,47,098,,86,55,307,,77,26,320,*6A

$GLGSV,3,2,10,76,30,257,,75,05,213,,69,23,028,,84,01,091,*61

$GLGSV,3,3,10,87,02,281,,85,52,070,*6F

$GPGGA,141449.0,5133.459101,N,00957.605535,E,1,07,1.0,218.6,M,47.0,M,,*5E

$GNGNS,141449.0,5133.459101,N,00957.605535,E,AA,08,1.0,218.6,47.0,,*65

$GPVTG,263.3,T,263.3,M,0.0,N,0.0,K,A*23

$GPRMC,141449.0,A,5133.459101,N,00957.605535,E,0.0,263.3,260619,0.0,E,A*01

$GPGSA,A,2,08,16,18,20,21,26,27,,,,,,1.4,1.0,0.9*38

$GNGSA,A,2,08,16,18,20,21,26,27,,,,,,1.4,1.0,0.9*26

$GNGSA,A,2,71,,,,,,,,,,,,1.4,1.0,0.9*26

$GLGSV,3,3,10,85,52,070,,71,20,154,*6D

$GNGNS,141448.0,,,,,NN,,,,,,*41

$GPVTG,,T,,M,,N,,K,N*2C

$GPGSA,A,1,,,,,,,,,,,,,,,*1E

$GNGSA,A,1,,,,,,,,,,,,,,,*00

$GPGGA,,,,,,0,,,,,,,,*66

$GPRMC,,V,,,,,,,,,,N*53

$GPGSV,4,1,13,08,45,296,32,16,36,192,29,18,18,254,21,20,52,075,32*7E

$GPGSV,4,2,13,26,11,178,31,27,85,264,33,07,08,292,,10,59,127,*72

$GPGSV,4,3,13,11,05,271,,13,02,008,,15,11,037,,21,27,073,*77

$GPGSV,4,4,13,30,07,320,*4E

$GLGSV,3,1,10,71,20,154,20,70,47,098,,86,55,307,,77,26,320,*6A

$GLGSV,3,2,10,76,30,257,,75,05,213,,69,23,028,,84,01,091,*61

$GLGSV,3,3,10,87,02,281,,85,52,070,*6F

$GPGGA,141449.0,5133.459101,N,00957.605535,E,1,07,1.0,218.6,M,47.0,M,,*5E

$GNGNS,141449.0,5133.459101,N,00957.605535,E,AA,08,1.0,218.6,47.0,,*65

$GPVTG,263.3,T,263.3,M,0.0,N,0.0,K,A*23

$GPRMC,141449.0,A,5133.459101,N,00957.605535,E,0.0,263.3,260619,0.0,E,A*01

$GPGSA,A,2,08,16,18,20,21,26,27,,,,,,1.4,1.0,0.9*38

$GNGSA,A,2,08,16,18,20,21,26,27,,,,,,1.4,1.0,0.9*26

$GNGSA,A,2,71,,,,,,,,,,,,1.4,1.0,0.9*26

$GPGSV,4,1,13,27,85,264,32,07,08,292,,08,45,296,,10,59,127,*7C

$GPGSV,4,2,13,11,05,271,,13,02,008,,15,11,037,,16,36,192,*7C

$GPGSV,4,3,13,18,18,254,,20,52,075,,21,27,073,,26,11,178,*70

$GPGSV,4,4,13,30,07,320,*4E

$GLGSV,3,1,10,85,52,070,30,70,47,098,,86,55,307,,77,26,320,*62

$GLGSV,3,2,10,76,30,257,,75,05,213,,69,23,028,,84,01,091,*61

$GLGSV,3,3,10,87,02,281,,71,20,154,*66

$GPGGA,141451.6,5133.459100,N,00957.605558,E,1,06,1.1,218.6,M,47.0,M,,*5B

$GNGNS,141451.6,5133.459100,N,00957.605558,E,AA,08,1.1,218.6,47.0,,*61

$GPVTG,263.3,T,263.3,M,0.0,N,0.0,K,A*23

$GPRMC,141451.6,A,5133.459100,N,00957.605558,E,0.0,263.3,260619,0.0,E,A*04

$GPGSA,A,2,08,16,18,20,26,27,,,,,,,1.5,1.1,0.9*3B

$GNGSA,A,2,08,16,18,20,26,27,,,,,,,1.5,1.1,0.9*25

$GNGSA,A,2,71,85,,,,,,,,,,,1.5,1.1,0.9*2B

$GPGSV,4,1,13,27,85,264,32,07,08,292,,08,45,296,,10,59,127,*7C

$GPGSV,4,2,13,11,05,271,,13,02,008,,15,11,037,,16,36,192,*7C

$GPGSV,4,3,13,18,18,254,,20,52,075,,21,27,073,,26,11,178,*70

$GPGSV,4,4,13,30,07,320,*4E

$GLGSV,3,1,10,85,52,070,30,70,47,098,,86,55,307,,77,26,320,*62

$GLGSV,3,2,10,76,30,257,,75,05,213,,69,23,028,,84,01,091,*61

$GLGSV,3,3,10,87,02,281,,71,20,154,*66

$GPGGA,141451.6,5133.459100,N,00957.605558,E,1,06,1.1,218.6,M,47.0,M,,*5B

$GNGNS,141451.6,5133.459100,N,00957.605558,E,AA,08,1.1,218.6,47.0,,*61

$GPVTG,263.3,T,263.3,M,0.0,N,0.0,K,A*23

$GPRMC,141451.6,A,5133.459100,N,00957.605558,E,0.0,263.3,260619,0.0,E,A*04

$GPGSA,A,2,08,16,18,20,26,27,,,,,,,1.5,1.1,0.9*3B

$GNGSA,A,2,08,16,18,20,26,27,,,,,,,1.5,1.1,0.9*25

$GNGSA,A,2,71,85,,,,,,,,,,,1.5,1.1,0.9*2B

$GPGSV,4,1,13,16,36,192,31,07,08,292,,08,45,296,,10,59,127,*7F

$GPGSV,4,2,13,11,05,271,,13,02,008,,15,11,037,,18,18,254,*77

$GPGSV,4,3,13,20,52,075,,21,27,073,,26,11,178,,27,85,264,*7B

$GPGSV,4,4,13,30,07,320,*4E

$GLGSV,3,1,10,70,47,098,,86,55,307,,77,26,320,,76,30,257,*6E

$GLGSV,3,2,10,75,05,213,,69,23,028,,84,01,091,,87,02,281,*65

$GLGSV,3,3,10,85,52,070,,71,20,154,*6D

$GNGNS,141455.2,,,,,NN,,,,,,*4F

$GPVTG,,T,,M,,N,,K,N*2C

$GPGSA,A,1,,,,,,,,,,,,,,,*1E

$GNGSA,A,1,,,,,,,,,,,,,,,*00

$GPGGA,,,,,,0,,,,,,,,*66

$GPRMC,,V,,,,,,,,,,N*53

$GPGSV,4,1,13,16,36,192,33,20,52,075,31,27,85,264,31,07,08,292,*7F

$GPGSV,4,2,13,08,45,296,,10,59,127,,11,05,271,,13,02,008,*79

$GPGSV,4,3,13,15,11,037,,18,18,254,,21,27,073,,26,11,178,*77

$GPGSV,4,4,13,30,07,320,*4E

$GLGSV,3,1,10,70,47,098,,86,55,307,,77,26,320,,76,30,257,*6E

$GLGSV,3,2,10,75,05,213,,69,23,028,,84,01,091,,87,02,281,*65

$GLGSV,3,3,10,85,52,070,,71,20,154,*6D

$GPGSV,4,1,13,16,36,192,31,07,08,292,,08,45,296,,10,59,127,*7F

$GPGSV,4,2,13,11,05,271,,13,02,008,,15,11,037,,18,18,254,*77

$GPGSV,4,3,13,20,52,075,,21,27,073,,26,11,178,,27,85,264,*7B

$GPGSV,4,4,13,30,07,320,*4E

$GLGSV,3,1,10,70,47,098,,86,55,307,,77,26,320,,76,30,257,*6E

$GLGSV,3,2,10,75,05,213,,69,23,028,,84,01,091,,87,02,281,*65

$GLGSV,3,3,10,85,52,070,,71,20,154,*6D

$GNGNS,141455.2,,,,,NN,,,,,,*4F

$GPVTG,,T,,M,,N,,K,N*2C

$GPGSA,A,1,,,,,,,,,,,,,,,*1E

$GNGSA,A,1,,,,,,,,,,,,,,,*00

$GPGGA,,,,,,0,,,,,,,,*66

$GPRMC,,V,,,,,,,,,,N*53

$GPGSV,4,1,13,16,36,192,33,20,52,075,31,27,85,264,31,07,08,292,*7F

$GPGSV,4,2,13,08,45,296,,10,59,127,,11,05,271,,13,02,008,*79

$GPGSV,4,3,13,15,11,037,,18,18,254,,21,27,073,,26,11,178,*77

$GPGSV,4,4,13,30,07,320,*4E

$GLGSV,3,1,10,70,47,098,,86,55,307,,77,26,320,,76,30,257,*6E

$GLGSV,3,2,10,75,05,213,,69,23,028,,84,01,091,,87,02,281,*65

$GLGSV,3,3,10,85,52,070,,71,20,154,*6D

$GNGNS,141456.0,,,,,NN,,,,,,*4E

$GPVTG,,T,,M,,N,,K,N*2C

$GPGSA,A,1,,,,,,,,,,,,,,,*1E

$GNGNS,141456.0,,,,,NN,,,,,,*4E

$GPVTG,,T,,M,,N,,K,N*2C

$GPGSA,A,1,,,,,,,,,,,,,,,*1E

$GNGSA,A,1,,,,,,,,,,,,,,,*00

$GPGGA,,,,,,0,,,,,,,,*66

$GPRMC,,V,,,,,,,,,,N*53

$GNGSA,A,1,,,,,,,,,,,,,,,*00

$GPGGA,,,,,,0,,,,,,,,*66

$GPRMC,,V,,,,,,,,,,N*53

$GPGSV,4,1,13,08,45,296,28,10,59,127,30,16,36,192,32,20,52,075,31*76

$GPGSV,4,2,13,26,11,178,29,27,85,264,30,07,08,292,,11,05,271,*70

$GPGSV,4,3,13,13,02,008,,15,11,037,,18,18,254,,21,27,073,*75

$GPGSV,4,4,13,30,07,320,*4E

$GLGSV,3,1,10,85,52,070,28,70,47,098,,86,55,307,,77,26,320,*6B

$GLGSV,3,2,10,76,30,257,,75,05,213,,69,23,028,,84,01,091,*61

$GLGSV,3,3,10,87,02,281,,71,20,154,*66

$GPGSV,4,1,13,08,45,296,28,10,59,127,30,16,36,192,32,20,52,075,31*76

$GPGSV,4,2,13,26,11,178,29,27,85,264,30,07,08,292,,11,05,271,*70

$GPGSV,4,3,13,13,02,008,,15,11,037,,18,18,254,,21,27,073,*75

$GPGSV,4,4,13,30,07,320,*4E

$GLGSV,3,1,10,85,52,070,28,70,47,098,,86,55,307,,77,26,320,*6B

$GLGSV,3,2,10,76,30,257,,75,05,213,,69,23,028,,84,01,091,*61

$GLGSV,3,3,10,87,02,281,,71,20,154,*66

$GPGGA,141457.0,5133.459193,N,00957.605490,E,1,06,1.3,218.2,M,47.0,M,,*52

$GNGNS,141457.0,5133.459193,N,00957.605490,E,AA,07,1.3,218.2,47.0,,*67

$GPVTG,263.3,T,263.3,M,0.0,N,0.0,K,A*23

$GPRMC,141457.0,A,5133.459193,N,00957.605490,E,0.0,263.3,260619,0.0,E,A*0B

$GPGSA,A,2,08,10,16,20,26,27,,,,,,,1.6,1.3,0.9*32

$GNGSA,A,2,08,10,16,20,26,27,,,,,,,1.6,1.3,0.9*2C

$GNGSA,A,2,85,,,,,,,,,,,,1.6,1.3,0.9*2C

$GPGGA,141457.0,5133.459193,N,00957.605490,E,1,06,1.3,218.2,M,47.0,M,,*52

$GNGNS,141457.0,5133.459193,N,00957.605490,E,AA,07,1.3,218.2,47.0,,*67

$GPVTG,263.3,T,263.3,M,0.0,N,0.0,K,A*23

$GPRMC,141457.0,A,5133.459193,N,00957.605490,E,0.0,263.3,260619,0.0,E,A*0B

$GPGSA,A,2,08,10,16,20,26,27,,,,,,,1.6,1.3,0.9*32

$GNGSA,A,2,08,10,16,20,26,27,,,,,,,1.6,1.3,0.9*2C

$GNGSA,A,2,85,,,,,,,,,,,,1.6,1.3,0.9*2C

$GPGSV,4,1,13,07,08,292,,08,45,296,,10,59,127,,11,05,271,*74

$GPGSV,4,2,13,13,02,008,,15,11,037,,16,36,192,,18,18,254,*7E

$GPGSV,4,3,13,20,52,075,,21,27,073,,26,11,178,,27,85,262,*7D

$GPGSV,4,4,13,30,07,320,*4E

$GLGSV,3,1,10,70,47,098,,86,55,307,,77,26,320,,76,30,257,*6E

$GLGSV,3,2,10,75,05,213,,69,23,028,,84,01,091,,87,02,281,*65

$GLGSV,3,3,10,85,52,070,,71,20,153,*6A

$GNGNS,141459.6,,,,,NN,,,,,,*47

$GPGSV,4,1,13,07,08,292,,08,45,296,,10,59,127,,11,05,271,*74

$GPGSV,4,2,13,13,02,008,,15,11,037,,16,36,192,,18,18,254,*7E

$GPGSV,4,3,13,20,52,075,,21,27,073,,26,11,178,,27,85,262,*7D

$GPGSV,4,4,13,30,07,320,*4E

$GLGSV,3,1,10,70,47,098,,86,55,307,,77,26,320,,76,30,257,*6E

$GLGSV,3,2,10,75,05,213,,69,23,028,,84,01,091,,87,02,281,*65

$GLGSV,3,3,10,85,52,070,,71,20,153,*6A

$GNGNS,141459.6,,,,,NN,,,,,,*47

$GPVTG,,T,,M,,N,,K,N*2C

$GPGSA,A,1,,,,,,,,,,,,,,,*1E

$GNGSA,A,1,,,,,,,,,,,,,,,*00

$GPGGA,,,,,,0,,,,,,,,*66

$GPRMC,,V,,,,,,,,,,N*53

$GPVTG,,T,,M,,N,,K,N*2C

$GPGSA,A,1,,,,,,,,,,,,,,,*1E

$GNGSA,A,1,,,,,,,,,,,,,,,*00

$GPGGA,,,,,,0,,,,,,,,*66

$GPRMC,,V,,,,,,,,,,N*53

$GPGSV,4,1,13,08,45,296,28,10,59,127,29,16,36,192,34,20,52,075,31*78

$GPGSV,4,2,13,21,27,073,21,26,11,178,30,07,08,292,,11,05,271,*72

$GPGSV,4,3,13,13,02,008,,15,11,037,,18,18,254,,27,85,262,*79

$GPGSV,4,4,13,30,07,320,*4E

$GLGSV,3,1,10,85,52,070,25,70,47,098,,86,55,307,,77,26,320,*66

$GLGSV,3,2,10,76,30,257,,75,05,213,,69,23,028,,84,01,091,*61

$GLGSV,3,3,10,87,02,281,,71,20,153,*61

$GPGGA,141501.0,5133.459294,N,00957.605358,E,1,07,1.2,218.0,M,47.0,M,,*55

$GNGNS,141501.0,5133.459294,N,00957.605358,E,AA,08,1.2,218.0,47.0,,*6E

$GPVTG,263.3,T,263.3,M,0.0,N,0.0,K,A*23

$GPRMC,141501.0,A,5133.459294,N,00957.605358,E,0.0,263.3,260619,0.0,E,A*0E

$GPGSA,A,2,08,10,16,20,21,26,27,,,,,,1.5,1.2,0.9*33

$GNGSA,A,2,08,10,16,20,21,26,27,,,,,,1.5,1.2,0.9*2D

$GNGSA,A,2,85,,,,,,,,,,,,1.5,1.2,0.9*2E

$GPGSV,4,1,13,08,45,296,28,10,59,127,29,16,36,192,34,20,52,075,31*78

$GPGSV,4,2,13,21,27,073,21,26,11,178,30,07,08,292,,11,05,271,*72

$GPGSV,4,3,13,13,02,008,,15,11,037,,18,18,254,,27,85,262,*79

$GPGSV,4,4,13,30,07,320,*4E

$GLGSV,3,1,10,85,52,070,25,70,47,098,,86,55,307,,77,26,320,*66

$GLGSV,3,2,10,76,30,257,,75,05,213,,69,23,028,,84,01,091,*61

$GLGSV,3,3,10,87,02,281,,71,20,153,*61

$GPGGA,141501.0,5133.459294,N,00957.605358,E,1,07,1.2,218.0,M,47.0,M,,*55

$GNGNS,141501.0,5133.459294,N,00957.605358,E,AA,08,1.2,218.0,47.0,,*6E

$GPVTG,263.3,T,263.3,M,0.0,N,0.0,K,A*23

$GPRMC,141501.0,A,5133.459294,N,00957.605358,E,0.0,263.3,260619,0.0,E,A*0E

$GPGSA,A,2,08,10,16,20,21,26,27,,,,,,1.5,1.2,0.9*33

$GNGSA,A,2,08,10,16,20,21,26,27,,,,,,1.5,1.2,0.9*2D

$GNGSA,A,2,85,,,,,,,,,,,,1.5,1.2,0.9*2E

$GPGSV,4,1,13,07,08,292,,08,45,296,,10,59,127,,11,05,271,*74

$GPGSV,4,2,13,13,02,008,,15,11,037,,16,36,192,,18,18,254,*7E

$GPGSV,4,3,13,20,52,075,,21,27,073,,26,11,178,,27,85,262,*7D

$GPGSV,4,4,13,30,07,320,*4E

$GLGSV,3,1,10,70,47,098,,86,55,307,,77,26,320,,76,30,257,*6E

$GLGSV,3,2,10,75,05,213,,69,23,028,,84,01,091,,87,02,281,*65

$GLGSV,3,3,10,85,52,071,,71,21,153,*6A

$GNGNS,141504.1,,,,,NN,,,,,,*49

$GPVTG,,T,,M,,N,,K,N*2C

$GPGSA,A,1,,,,,,,,,,,,,,,*1E

$GNGSA,A,1,,,,,,,,,,,,,,,*00

$GPGGA,,,,,,0,,,,,,,,*66

$GPRMC,,V,,,,,,,,,,N*53

$GPGSV,4,1,13,07,08,292,,08,45,296,,10,59,127,,11,05,271,*74

$GPGSV,4,2,13,13,02,008,,15,11,037,,16,36,192,,18,18,254,*7E

$GPGSV,4,3,13,20,52,075,,21,27,073,,26,11,178,,27,85,262,*7D

$GPGSV,4,4,13,30,07,320,*4E

$GLGSV,3,1,10,70,47,098,,86,55,307,,77,26,320,,76,30,257,*6E

$GLGSV,3,2,10,75,05,213,,69,23,028,,84,01,091,,87,02,281,*65

$GLGSV,3,3,10,85,52,071,,71,21,153,*6A

$GNGNS,141504.1,,,,,NN,,,,,,*49

$GPVTG,,T,,M,,N,,K,N*2C

$GPGSA,A,1,,,,,,,,,,,,,,,*1E

$GNGSA,A,1,,,,,,,,,,,,,,,*00

$GPGGA,,,,,,0,,,,,,,,*66

$GPRMC,,V,,,,,,,,,,N*53

$GPGSV,4,1,13,16,36,192,32,20,52,075,31,07,08,292,,08,45,296,*70

$GPGSV,4,2,13,10,59,127,,11,05,271,,13,02,008,,15,11,037,*7D

$GPGSV,4,3,13,18,18,254,,21,27,073,,26,11,178,,27,85,262,*79

$GPGSV,4,4,13,30,07,320,*4E

$GLGSV,3,1,10,70,47,098,,86,55,307,,77,26,320,,76,30,257,*6E

$GLGSV,3,2,10,75,05,213,,69,23,028,,84,01,091,,87,02,281,*65

$GLGSV,3,3,10,85,52,071,,71,21,153,*6A

$GNGNS,141505.0,,,,,NN,,,,,,*49

$GPVTG,,T,,M,,N,,K,N*2C

$GPGSA,A,1,,,,,,,,,,,,,,,*1E

$GNGSA,A,1,,,,,,,,,,,,,,,*00

$GPGGA,,,,,,0,,,,,,,,*66

$GPRMC,,V,,,,,,,,,,N*53

$GPGSV,4,1,13,16,36,192,32,20,52,075,31,07,08,292,,08,45,296,*70

$GPGSV,4,2,13,10,59,127,,11,05,271,,13,02,008,,15,11,037,*7D

$GPGSV,4,3,13,18,18,254,,21,27,073,,26,11,178,,27,85,262,*79

$GPGSV,4,4,13,30,07,320,*4E

$GLGSV,3,1,10,70,47,098,,86,55,307,,77,26,320,,76,30,257,*6E

$GLGSV,3,2,10,75,05,213,,69,23,028,,84,01,091,,87,02,281,*65

$GLGSV,3,3,10,85,52,071,,71,21,153,*6A

$GNGNS,141505.0,,,,,NN,,,,,,*49

$GPVTG,,T,,M,,N,,K,N*2C

$GPGSA,A,1,,,,,,,,,,,,,,,*1E

$GNGSA,A,1,,,,,,,,,,,,,,,*00

$GPGGA,,,,,,0,,,,,,,,*66

$GPRMC,,V,,,,,,,,,,N*53

$GPGSV,4,1,13,08,45,296,31,16,36,192,33,18,18,254,18,20,52,075,32*7C

$GPGSV,4,2,13,26,11,178,26,27,85,262,31,07,08,292,,10,59,127,*70

$GPGSV,4,3,13,11,05,271,,13,02,008,,15,11,037,,21,27,073,*77

$GPGSV,4,4,13,30,07,320,*4E

$GLGSV,3,1,10,85,52,071,27,70,47,098,,86,55,307,,77,26,320,*65

$GLGSV,3,2,10,76,30,257,,75,05,213,,69,23,028,,84,01,091,*61

$GLGSV,3,3,10,87,02,281,,71,21,153,*60

$GPGGA,141506.0,5133.459360,N,00957.605270,E,1,08,1.0,217.9,M,47.0,M,,*58

$GNGNS,141506.0,5133.459360,N,00957.605270,E,AA,09,1.0,217.9,47.0,,*6D

$GPVTG,263.3,T,263.3,M,0.0,N,0.0,K,A*23

$GPRMC,141506.0,A,5133.459360,N,00957.605270,E,0.0,263.3,260619,0.0,E,A*08

$GPGSA,A,2,08,10,16,18,20,21,26,27,,,,,1.3,1.0,0.9*3E

$GNGSA,A,2,08,10,16,18,20,21,26,27,,,,,1.3,1.0,0.9*20

$GNGSA,A,2,85,,,,,,,,,,,,1.3,1.0,0.9*2A

$GPGSV,4,1,13,08,45,296,31,16,36,192,33,18,18,254,18,20,52,075,32*7C

$GPGSV,4,2,13,26,11,178,26,27,85,262,31,07,08,292,,10,59,127,*70

$GPGSV,4,3,13,11,05,271,,13,02,008,,15,11,037,,21,27,073,*77

$GPGSV,4,4,13,30,07,320,*4E

$GLGSV,3,1,10,85,52,071,27,70,47,098,,86,55,307,,77,26,320,*65

$GLGSV,3,2,10,76,30,257,,75,05,213,,69,23,028,,84,01,091,*61

$GLGSV,3,3,10,87,02,281,,71,21,153,*60

$GPGGA,141506.0,5133.459360,N,00957.605270,E,1,08,1.0,217.9,M,47.0,M,,*58

$GNGNS,141506.0,5133.459360,N,00957.605270,E,AA,09,1.0,217.9,47.0,,*6D

$GPVTG,263.3,T,263.3,M,0.0,N,0.0,K,A*23

$GPRMC,141506.0,A,5133.459360,N,00957.605270,E,0.0,263.3,260619,0.0,E,A*08

$GPGSA,A,2,08,10,16,18,20,21,26,27,,,,,1.3,1.0,0.9*3E

$GNGSA,A,2,08,10,16,18,20,21,26,27,,,,,1.3,1.0,0.9*20

$GNGSA,A,2,85,,,,,,,,,,,,1.3,1.0,0.9*2A

$GPGSV,4,1,13,16,36,192,35,07,08,292,,08,45,296,,10,59,127,*7B

$GPGSV,4,2,13,11,05,271,,13,01,008,,15,11,037,,18,18,254,*74

$GPGSV,4,3,13,20,52,075,,21,27,073,,26,11,178,,27,85,262,*7D

$GPGSV,4,4,13,30,07,320,*4E

$GLGSV,3,1,10,70,47,098,,86,55,307,,77,26,320,,76,30,257,*6E

$GLGSV,3,2,10,75,05,213,,69,23,028,,84,01,091,,87,02,281,*65

$GLGSV,3,3,10,85,52,071,,71,21,153,*6A

$GNGNS,141508.6,,,,,NN,,,,,,*42

$GPVTG,,T,,M,,N,,K,N*2C

$GPGSA,A,1,,,,,,,,,,,,,,,*1E

$GNGSA,A,1,,,,,,,,,,,,,,,*00

$GPGGA,,,,,,0,,,,,,,,*66

$GPRMC,,V,,,,,,,,,,N*53

$GPGSV,4,1,13,16,36,192,35,07,08,292,,08,45,296,,10,59,127,*7B

$GPGSV,4,2,13,11,05,271,,13,01,008,,15,11,037,,18,18,254,*74

$GPGSV,4,3,13,20,52,075,,21,27,073,,26,11,178,,27,85,262,*7D

$GPGSV,4,4,13,30,07,320,*4E

$GLGSV,3,1,10,70,47,098,,86,55,307,,77,26,320,,76,30,257,*6E

$GLGSV,3,2,10,75,05,213,,69,23,028,,84,01,091,,87,02,281,*65

$GLGSV,3,3,10,85,52,071,,71,21,153,*6A

$GNGNS,141508.6,,,,,NN,,,,,,*42

$GPVTG,,T,,M,,N,,K,N*2C

$GPGSA,A,1,,,,,,,,,,,,,,,*1E

$GNGSA,A,1,,,,,,,,,,,,,,,*00

$GPGGA,,,,,,0,,,,,,,,*66

$GPRMC,,V,,,,,,,,,,N*53

$GPGSV,4,1,13,08,45,296,29,10,59,127,31,16,36,192,36,07,08,292,*71

$GPGSV,4,2,13,11,05,271,,13,01,008,,15,11,037,,18,18,254,*74

$GPGSV,4,3,13,20,52,075,,21,27,073,,26,11,178,,27,85,262,*7D

$GPGSV,4,4,13,30,07,320,*4E

$GLGSV,3,1,10,70,47,098,22,71,21,153,20,86,55,307,,77,26,320,*6C

$GLGSV,3,2,10,76,30,257,,75,05,213,,69,23,028,,84,01,091,*61

$GLGSV,3,3,10,87,02,281,,85,52,071,*6E

$GPGSV,4,1,13,08,45,296,29,10,59,127,31,16,36,192,36,07,08,292,*71

$GPGSV,4,2,13,11,05,271,,13,01,008,,15,11,037,,18,18,254,*74

$GPGSV,4,3,13,20,52,075,,21,27,073,,26,11,178,,27,85,262,*7D

$GPGSV,4,4,13,30,07,320,*4E

$GLGSV,3,1,10,70,47,098,22,71,21,153,20,86,55,307,,77,26,320,*6C

$GLGSV,3,2,10,76,30,257,,75,05,213,,69,23,028,,84,01,091,*61

$GLGSV,3,3,10,87,02,281,,85,52,071,*6E

$GPGGA,141510.0,5133.459380,N,00957.605250,E,1,07,1.1,217.9,M,47.0,M,,*5D

$GNGNS,141510.0,5133.459380,N,00957.605250,E,AA,09,1.1,217.9,47.0,,*67

$GPVTG,263.3,T,263.3,M,0.0,N,0.0,K,A*23

$GPRMC,141510.0,A,5133.459380,N,00957.605250,E,0.0,263.3,260619,0.0,E,A*03

$GPGSA,A,2,08,10,16,18,20,26,27,,,,,,1.4,1.1,0.9*3B

$GNGSA,A,2,08,10,16,18,20,26,27,,,,,,1.4,1.1,0.9*25

$GNGSA,A,2,71,85,,,,,,,,,,,1.4,1.1,0.9*2A

$GPGGA,141510.0,5133.459380,N,00957.605250,E,1,07,1.1,217.9,M,47.0,M,,*5D

$GNGNS,141510.0,5133.459380,N,00957.605250,E,AA,09,1.1,217.9,47.0,,*67

$GPVTG,263.3,T,263.3,M,0.0,N,0.0,K,A*23

$GPRMC,141510.0,A,5133.459380,N,00957.605250,E,0.0,263.3,260619,0.0,E,A*03

$GPGSA,A,2,08,10,16,18,20,26,27,,,,,,1.4,1.1,0.9*3B

$GNGSA,A,2,08,10,16,18,20,26,27,,,,,,1.4,1.1,0.9*25

$GNGSA,A,2,71,85,,,,,,,,,,,1.4,1.1,0.9*2A

$GPGSV,4,1,13,16,36,192,36,07,08,292,,08,45,296,,10,59,127,*78

$GPGSV,4,2,13,11,05,271,,13,01,008,,15,11,037,,18,18,254,*74

$GPGSV,4,3,13,20,52,075,,21,27,073,,26,11,178,,27,85,261,*7E

$GPGSV,4,4,13,30,07,320,*4E

$GLGSV,3,1,10,70,47,098,,86,55,307,,77,26,320,,76,30,257,*6E

$GLGSV,3,2,10,75,05,213,,69,23,028,,84,01,091,,87,02,281,*65

$GLGSV,3,3,10,85,52,071,,71,21,153,*6A

$GNGNS,141513.1,,,,,NN,,,,,,*4F

$GPVTG,,T,,M,,N,,K,N*2C

$GPGSA,A,1,,,,,,,,,,,,,,,*1E

$GNGSA,A,1,,,,,,,,,,,,,,,*00

$GPGSV,4,1,13,16,36,192,36,07,08,292,,08,45,296,,10,59,127,*78

$GPGSV,4,2,13,11,05,271,,13,01,008,,15,11,037,,18,18,254,*74

$GPGSV,4,3,13,20,52,075,,21,27,073,,26,11,178,,27,85,261,*7E

$GPGSV,4,4,13,30,07,320,*4E

$GLGSV,3,1,10,70,47,098,,86,55,307,,77,26,320,,76,30,257,*6E

$GLGSV,3,2,10,75,05,213,,69,23,028,,84,01,091,,87,02,281,*65

$GLGSV,3,3,10,85,52,071,,71,21,153,*6A

$GNGNS,141513.1,,,,,NN,,,,,,*4F

$GPVTG,,T,,M,,N,,K,N*2C

$GPGSA,A,1,,,,,,,,,,,,,,,*1E

$GNGSA,A,1,,,,,,,,,,,,,,,*00

$GPGGA,,,,,,0,,,,,,,,*66

$GPRMC,,V,,,,,,,,,,N*53

$GPGGA,,,,,,0,,,,,,,,*66

$GPRMC,,V,,,,,,,,,,N*53

